[{"canonical_uuid":"01506933-1aca-4ff4-bdc1-4d9669789559","nonDupes":"","factual_gold":[{"uuid":"01506933-1aca-4ff4-bdc1-4d9669789559","name":"B&B H\u00f4tel MARSEILLE Centre la Joliette","address":"52 rue de Forbin","locality":"Marseille","region":"Bouches-du-Rh\u00f4ne","postcode":"13002","latitude":"43.30499497169393","longitude":"5.367835856160649","tel":"0 892 70 22 18","website":"http:\/\/www.hotel-bb.com\/fr\/hotels\/marseille-centre-la-joliette.htm","category_ids":["433"]}]},{"canonical_uuid":"01a5e2ce-91be-4292-9386-6bebe25b44b8","nonDupes":"","factual_gold":[{"uuid":"01a5e2ce-91be-4292-9386-6bebe25b44b8","name":"Le Ch\u00e2teau de Bac Saint Maur","address":"4441 rue de la Lys","locality":"Sailly sur la Lys","region":"Pas-de-Calais","postcode":"62840","latitude":"50.66142","longitude":"2.796961","tel":"03 20 48 97 13","website":null,"category_ids":["356"]}]},{"canonical_uuid":"02e9b489-6676-4e02-be94-4dde7790690a","nonDupes":"","factual_gold":[{"uuid":"02e9b489-6676-4e02-be94-4dde7790690a","name":"A\u00e9roport de Toulouse","address":null,"locality":"Blagnac","region":"Haute-Garonne","postcode":"31703","latitude":"43.630896064287086","longitude":"1.3732622356090218","tel":"0 825 38 00 00","website":"http:\/\/www.toulouse.aeroport.fr","category_ids":["425"]}]},{"canonical_uuid":"02eed605-2eaa-4ccd-b1e7-2ddf1a9ff2b3","nonDupes":"","factual_gold":[{"uuid":"02eed605-2eaa-4ccd-b1e7-2ddf1a9ff2b3","name":"Total","address":"2 place Jean Millier","locality":"","region":"Hauts-de-Seine","postcode":"92078","latitude":"48.89289945875792","longitude":"2.243037790761372","tel":"01 47 44 45 46","website":"http:\/\/www.total.com","category_ids":["210"]}]},{"canonical_uuid":"04f7018d-1874-4203-b3de-ceb08e881225","nonDupes":"","factual_gold":[{"uuid":"04f7018d-1874-4203-b3de-ceb08e881225","name":"Novotel Valence Sud H\u00f4tel","address":"217 avenue de Provence","locality":"Valence","region":"Dr\u00f4me","postcode":"26000","latitude":"44.919173325641786","longitude":"4.878589146138358","tel":"04 75 82 09 09","website":"https:\/\/www.accorhotels.com\/gb\/hotel-0455-novotel-valence-sud\/index.shtml","category_ids":["436"]}]},{"canonical_uuid":"05465c2a-ac69-4d0b-84e0-7492b5efd76e","nonDupes":"","factual_gold":[{"uuid":"05465c2a-ac69-4d0b-84e0-7492b5efd76e","name":"Ecole R\u00e9gionale des Beaux Arts de l'A\u00eetre Saint Maclou","address":"186 rue Martainville","locality":"Rouen","region":"Seine-Maritime","postcode":"76000","latitude":"49.440272715513025","longitude":"1.0998880818860073","tel":"02 35 71 38 49","website":"http:\/\/www.esadhar.fr\/","category_ids":["53"]}]},{"canonical_uuid":"059ab91b-b766-4dec-ba8c-61b874f9329e","nonDupes":"","factual_gold":[{"uuid":"059ab91b-b766-4dec-ba8c-61b874f9329e","name":"Le Sentier des Ocres","address":"avenue de la Burli\u00e8re","locality":"Roussillon","region":"Vaucluse","postcode":"84220","latitude":"43.8993613901408","longitude":"5.297886404351242","tel":"04 90 05 60 25","website":"http:\/\/otroussillon.pagesperso-orange.fr\/ang_sentier.html","category_ids":["119"]}]},{"canonical_uuid":"0a4df595-6616-4579-8406-0238b4f27a54","nonDupes":"","factual_gold":[{"uuid":"0a4df595-6616-4579-8406-0238b4f27a54","name":"R\u00e9sidence les Sanguinaires","address":"route des Sanguinaires","locality":"Ajaccio","region":"Corse-du-Sud","postcode":"20000","latitude":"41.908468534383964","longitude":"8.632225636989185","tel":"04 95 23 94 60","website":"http:\/\/www.residence-les-sanguinaires.com","category_ids":["436","438"]}]},{"canonical_uuid":"0c765474-5bb9-4656-bba5-884cc77a425b","nonDupes":"","factual_gold":[{"uuid":"0c765474-5bb9-4656-bba5-884cc77a425b","name":"Ch\u00e2teau de M\u00e9dan","address":null,"locality":"M\u00e9dan","region":"Yvelines","postcode":"78670","latitude":"48.952584895727625","longitude":"1.9943546912862127","tel":"01 39 75 86 59","website":"http:\/\/www.chateau-de-medan.fr","category_ids":["108"]}]},{"canonical_uuid":"0f2fc7a3-3b43-4cfa-93be-4b98fd6fcb91","nonDupes":"","factual_gold":[{"uuid":"0f2fc7a3-3b43-4cfa-93be-4b98fd6fcb91","name":"Basilique Notre-Dame d'Avioth","address":"place Abb\u00e9 Delh\u00f4tel, 5","locality":"Avioth","region":"Meuse","postcode":"55600","latitude":"49.56698018874295","longitude":"5.391479081494454","tel":null,"website":"http:\/\/notredamedavioth.fr\/","category_ids":["110"]}]},{"canonical_uuid":"1122f75e-ef9a-4134-8cf6-93e13d3d7468","nonDupes":"","factual_gold":[{"uuid":"1122f75e-ef9a-4134-8cf6-93e13d3d7468","name":"Ch\u00e2teau Bas","address":"chemin du Chateau Bas","locality":"Vern\u00e8gues","region":"Bouches-du-Rh\u00f4ne","postcode":"13116","latitude":"43.683679339312995","longitude":"5.196389705029327","tel":"04 90 59 13 16","website":"http:\/\/www.chateaubas.com","category_ids":["108"]}]},{"canonical_uuid":"114fe8a5-506e-4d83-94e9-7fd3ff88da1f","nonDupes":"","factual_gold":[{"uuid":"114fe8a5-506e-4d83-94e9-7fd3ff88da1f","name":"Restaurant des Remparts","address":"17 rue Jacques Cartier","locality":"Saint Malo","region":"Ille-et-Vilaine","postcode":"35400","latitude":"48.649940048643195","longitude":"-2.023273299536833","tel":"02 99 40 91 23","website":null,"category_ids":["356"]}]},{"canonical_uuid":"120a2e26-d723-4d3d-95a7-ea91747d7e9b","nonDupes":"","factual_gold":[{"uuid":"120a2e26-d723-4d3d-95a7-ea91747d7e9b","name":"Cath\u00e9drale Saint-Pierre-et-Saint-Paul de Troyes","address":"place Saint-Pierre","locality":"Troyes","region":"Aube","postcode":"10000","latitude":"48.30036285527542","longitude":"4.0814504347423854","tel":"03 25 76 98 18","website":"http:\/\/www.cathedraledetroyes.com\/","category_ids":["55"]}]},{"canonical_uuid":"147e948b-eeed-4ee6-a367-51f58df794c3","nonDupes":"","factual_gold":[{"uuid":"147e948b-eeed-4ee6-a367-51f58df794c3","name":"Mus\u00e9e Alsacien","address":"23-25 quai Saint-Nicolas","locality":"Strasbourg","region":"Bas-Rhin","postcode":"67000","latitude":"48.57910057705144","longitude":"7.750625551201586","tel":"03 68 98 51 60","website":"https:\/\/www.musees.strasbourg.eu\/musee-alsacien","category_ids":["311"]}]},{"canonical_uuid":"15245d48-f551-4f0f-8c8c-3911840520e1","nonDupes":"","factual_gold":[{"uuid":"15245d48-f551-4f0f-8c8c-3911840520e1","name":"\u00c9glise du Val-de-Gr\u00e2ce","address":"1 place Alphonse Laveran","locality":"Paris","region":"Paris","postcode":"75005","latitude":"48.840554752202074","longitude":"2.3417667395901334","tel":null,"website":"http:\/\/www.valdegrace.org","category_ids":["55"]}]},{"canonical_uuid":"1be8ff2c-7e48-4e24-b0dd-f8cf88dca31f","nonDupes":"","factual_gold":[{"uuid":"1be8ff2c-7e48-4e24-b0dd-f8cf88dca31f","name":"Auberge du Pont de Collonges-Paul Bocuse","address":"40 rue de la Plage","locality":"Collonges au Mont d'Or","region":"Rh\u00f4ne","postcode":"69660","latitude":"45.815737553105805","longitude":"4.847388116735704","tel":"04 72 42 90 90","website":"http:\/\/www.bocuse.fr","category_ids":["356"]}]},{"canonical_uuid":"1bef352f-1b21-43f7-9801-9f9f61a7a2ec","nonDupes":"","factual_gold":[{"uuid":"1bef352f-1b21-43f7-9801-9f9f61a7a2ec","name":"Ch\u00e2teau de Bridoire","address":null,"locality":"Ribagnac","region":"Dordogne","postcode":"24240","latitude":"44.767857482588056","longitude":"0.4588989290280841","tel":"05 53 58 11 74","website":"http:\/\/www.chateaudebridoire.com","category_ids":["108","214"]}]},{"canonical_uuid":"1ce6fe96-a043-446e-a93e-2c601598c4b9","nonDupes":"","factual_gold":[{"uuid":"1ce6fe96-a043-446e-a93e-2c601598c4b9","name":null,"address":"20 all\u00e9e Nathan Katz","locality":"Mulhouse","region":"Haut-Rhin","postcode":"68090","latitude":"47.753593601355554","longitude":"7.3494963048566895","tel":"03 89 36 28 28","website":"http:\/\/www.lafilature.org","category_ids":["333"]}]},{"canonical_uuid":"1d9b6794-215b-4a7d-9944-ca9f19e799ba","nonDupes":"","factual_gold":[{"uuid":"1d9b6794-215b-4a7d-9944-ca9f19e799ba","name":null,"address":"14 rue Paul Gaffarel","locality":"Dijon","region":"C\u00f4te-d'Or","postcode":"21079","latitude":"47.3212127247918","longitude":"5.068736714869969","tel":"03 80 29 30 31","website":"http:\/\/www.chu-dijon.fr","category_ids":["74"]}]},{"canonical_uuid":"1eb1d098-6d25-4878-9b4c-d5371058495e","nonDupes":"","factual_gold":[{"uuid":"1eb1d098-6d25-4878-9b4c-d5371058495e","name":"Lyc\u00e9e International de Saint Germain-en-Laye","address":"2 Bis rue du Fer \u00e0 Cheval","locality":"Saint Germain en Laye","region":"Yvelines","postcode":"78100","latitude":"48.896883206709546","longitude":"2.0621447918883016","tel":"01 39 10 94 11","website":null,"category_ids":["29"]}]},{"canonical_uuid":"217d3a75-f22f-46ee-9ea6-e77b9f76a632","nonDupes":"","factual_gold":[{"uuid":"217d3a75-f22f-46ee-9ea6-e77b9f76a632","name":"Ch\u00e2teau de la Roche Courbon","address":null,"locality":"Saint Porchaire","region":"Charente-Maritime","postcode":"17250","latitude":"45.8360295901743","longitude":"-0.7818577709177769","tel":"05 46 95 60 10","website":"http:\/\/www.larochecourbon.fr","category_ids":["110"]}]},{"canonical_uuid":"21cb4265-c4c1-4670-bf14-987301f45712","nonDupes":"","factual_gold":[{"uuid":"21cb4265-c4c1-4670-bf14-987301f45712","name":"Au march\u00e9 des Lices","address":"3 place du Bas des Lices","locality":"Rennes","region":"Ille-et-Vilaine","postcode":"35000","latitude":"48.11235403880748","longitude":"-1.685167091928603","tel":"02 99 30 42 95","website":null,"category_ids":["356"]}]},{"canonical_uuid":"23c71469-1951-4a8a-8667-ef621e90778a","nonDupes":"","factual_gold":[{"uuid":"23c71469-1951-4a8a-8667-ef621e90778a","name":"Mus\u00e9e de la Cour d'Or","address":"2 rue du Haut Poirier","locality":"Metz","region":"Moselle","postcode":"57000","latitude":"49.12125448947409","longitude":"6.178351248262723","tel":"03 87 20 13 20","website":"http:\/\/musee.metzmetropole.fr\/site\/index.php","category_ids":["311"]}]},{"canonical_uuid":"254ef612-48be-48a7-b2a1-1499609b72c4","nonDupes":"","factual_gold":[{"uuid":"254ef612-48be-48a7-b2a1-1499609b72c4","name":"Ch\u00e2teau de Montr\u00e9sor","address":null,"locality":"Montr\u00e9sor","region":"Indre-et-Loire","postcode":"37460","latitude":"47.15602987504546","longitude":"1.2019740228675533","tel":"02 47 92 60 04","website":"http:\/\/www.chateaudemontresor.fr","category_ids":["108"]}]},{"canonical_uuid":"265e5ae4-fbbb-4cba-9311-93969f229623","nonDupes":"","factual_gold":[{"uuid":"265e5ae4-fbbb-4cba-9311-93969f229623","name":"Basilique Notre Dame de l'Assomption","address":"2 rue d\u2019Italie","locality":"Nice","region":"Alpes-Maritimes","postcode":"06000","latitude":"43.70321852652777","longitude":"7.265654021426601","tel":"04 93 88 73 63","website":"http:\/\/notredame-nice.com\/","category_ids":["55"]}]},{"canonical_uuid":"274ee556-b473-4d2d-b16e-ff7b401e40ed","nonDupes":"","factual_gold":[{"uuid":"274ee556-b473-4d2d-b16e-ff7b401e40ed","name":"Brasserie Restaurant Saint Martin","address":"20 place Saint-Martin","locality":"Saint Die des Vosges","region":"Vosges","postcode":"88100","latitude":"48.28391326074684","longitude":"6.949248588473612","tel":"03 29 56 11 78","website":"http:\/\/www.restaurant-saint-martin-vosges.fr","category_ids":["356"]}]},{"canonical_uuid":"27a0be5c-49d6-47e0-996f-6454961fc081","nonDupes":"","factual_gold":[{"uuid":"27a0be5c-49d6-47e0-996f-6454961fc081","name":"Maison de l'Outil et de la Pens\u00e9e Ouvri\u00e8re","address":"7 rue de la Trinit\u00e9","locality":"Troyes","region":"Aube","postcode":"10000","latitude":"48.294716403653496","longitude":"4.07309241409564","tel":"03 25 73 28 26","website":"http:\/\/mopo3.com\/","category_ids":["311"]}]},{"canonical_uuid":"285d9f09-1408-4f4a-95d7-4a8a354bd16e","nonDupes":"","factual_gold":[{"uuid":"285d9f09-1408-4f4a-95d7-4a8a354bd16e","name":"\u00c9glise monolithe Saint-Jean","address":"le Bourg","locality":"Aubeterre sur Dronne","region":"Charente","postcode":"16390","latitude":"45.27225292874314","longitude":"0.17116544443694143","tel":"05 45 98 65 06","website":"http:\/\/aubeterresurdronne.com","category_ids":["108"]}]},{"canonical_uuid":"286c6364-3191-4da8-8af0-8e8d1d8f100f","nonDupes":"","factual_gold":[{"uuid":"286c6364-3191-4da8-8af0-8e8d1d8f100f","name":"Gaumont Wilson","address":"3 place du Pr\u00e9sident Thomas Wilson","locality":"Toulouse","region":"Haute-Garonne","postcode":"31000","latitude":"43.60458547846518","longitude":"1.4479380288852484","tel":"0 892 69 66 96","website":"http:\/\/www.cinemasgaumontpathe.com","category_ids":["332"]}]},{"canonical_uuid":"29451295-4516-4f6d-9447-b7e0a4abc532","nonDupes":"","factual_gold":[{"uuid":"29451295-4516-4f6d-9447-b7e0a4abc532","name":"H\u00f4tel ibis budget Marne la Vall\u00e9e Chelles","address":"9 rue de Derri\u00e8re la Montagne","locality":"Chelles","region":"Seine-et-Marne","postcode":"77645","latitude":"48.890568158431904","longitude":"2.5929700104644775","tel":"0 892 68 32 24","website":"http:\/\/www.accorhotels.com\/lien_externe.svlt?goto=fiche_hotel&code_hotel=2450&merchantid=seo-maps-FR-2450&sourceid=aw-cen","category_ids":["436"]}]},{"canonical_uuid":"2b37e958-ed24-4bcf-a31d-161f56fb7a58","nonDupes":"","factual_gold":[{"uuid":"2b37e958-ed24-4bcf-a31d-161f56fb7a58","name":"Les Flots Bleus","address":"place du Monturu","locality":"Beaulieu sur Dordogne","region":"Corr\u00e8ze","postcode":"19120","latitude":"44.9817523615637","longitude":"1.83592176613587","tel":"05 55 91 06 21","website":"http:\/\/hotel-flotsbleus.com","category_ids":["436"]}]},{"canonical_uuid":"2b63e736-11a2-4697-a49a-57d61ed57470","nonDupes":"","factual_gold":[{"uuid":"2b63e736-11a2-4697-a49a-57d61ed57470","name":null,"address":"7 place des Terreaux","locality":"Lyon","region":"Rh\u00f4ne","postcode":"69001","latitude":"45.76782545688354","longitude":"4.83344462406195","tel":"04 78 28 82 36","website":null,"category_ids":["347"]}]},{"canonical_uuid":"2d9f0114-587e-4f11-adcd-04c83271c52a","nonDupes":"","factual_gold":[{"uuid":"2d9f0114-587e-4f11-adcd-04c83271c52a","name":"Mus\u00e9e de l'\u00c9cole de Nancy","address":"36-38 rue du Sergent Blandan","locality":"Nancy","region":"Meurthe-et-Moselle","postcode":"54000","latitude":"48.68051533750494","longitude":"6.1661867298892075","tel":"03 83 40 14 86","website":"http:\/\/www.ecole-de-nancy.com\/web\/index.php?page=infos-pratiques","category_ids":["311"]}]},{"canonical_uuid":"2e85e8ee-7042-4902-8efc-1da940e65b67","nonDupes":"","factual_gold":[{"uuid":"2e85e8ee-7042-4902-8efc-1da940e65b67","name":"Les Machines de l'\u00eele","address":"Parc des Chantiers, boulevard L\u00e9on Bureau","locality":"Nantes","region":"Loire-Atlantique","postcode":"44200","latitude":"47.205492635509216","longitude":"-1.5641912945308696","tel":"0 810 12 12 25","website":"http:\/\/www.lesmachines-nantes.fr","category_ids":["309"]}]},{"canonical_uuid":"32806306-f2cb-49ab-9295-79ed35b637cb","nonDupes":"","factual_gold":[{"uuid":"32806306-f2cb-49ab-9295-79ed35b637cb","name":"Ossuaire de Douaumont","address":null,"locality":"Douaumont","region":"Meuse","postcode":"55100","latitude":"49.20824292148067","longitude":"5.423613655026976","tel":"03 29 84 54 81","website":"http:\/\/www.verdun-douaumont.com","category_ids":["111"]}]},{"canonical_uuid":"33e1e7fe-077e-47d6-b35d-d1b040e5a277","nonDupes":"","factual_gold":[{"uuid":"33e1e7fe-077e-47d6-b35d-d1b040e5a277","name":"Amis Musees d'art et d'histoire Troyes","address":"1 rue Chrestien de Troyes","locality":"Troyes","region":"Aube","postcode":"10000","latitude":"48.300870814112955","longitude":"4.080455820040555","tel":"03 25 42 20 60","website":null,"category_ids":["311"]}]},{"canonical_uuid":"34725e5c-71d1-4a07-b41d-c921ae668694","nonDupes":"","factual_gold":[{"uuid":"34725e5c-71d1-4a07-b41d-c921ae668694","name":"Ibis Budget St Gratien","address":"2-8 boulevard Pasteur","locality":"Saint Gratien","region":"Val-d'Oise","postcode":"95210","latitude":"48.96564803877464","longitude":"2.283052398806635","tel":"0 892 68 32 65","website":"https:\/\/www.accorhotels.com\/gb\/hotel-2513-ibis-budget-saint-gratien-enghien-les-bains\/index.shtml","category_ids":["436"]}]},{"canonical_uuid":"348efc21-e934-4db6-ab95-aedff8695828","nonDupes":"","factual_gold":[{"uuid":"348efc21-e934-4db6-ab95-aedff8695828","name":"Ch\u00e2teau de Caumale","address":null,"locality":"Escalans","region":"Landes","postcode":"40310","latitude":"43.98247299450862","longitude":"0.032894021205348775","tel":"07 71 14 11 59","website":"http:\/\/www.chateaudecaumale.fr","category_ids":["110"]}]},{"canonical_uuid":"34f86cab-132a-4887-a134-417395ebbe8a","nonDupes":"","factual_gold":[{"uuid":"34f86cab-132a-4887-a134-417395ebbe8a","name":"Ch\u00e2teau de Lacassagne","address":null,"locality":"Saint Avit Frandat","region":"Gers","postcode":"32700","latitude":"43.9739474501981","longitude":"0.6530890126432728","tel":"05 62 68 83 24","website":null,"category_ids":["37"]}]},{"canonical_uuid":"3730592a-72b3-4452-b282-b7f42b6eb47b","nonDupes":"","factual_gold":[{"uuid":"3730592a-72b3-4452-b282-b7f42b6eb47b","name":"Village des Bories","address":"les Savournins","locality":"Gordes","region":"Vaucluse","postcode":"84220","latitude":"43.90720755282563","longitude":"5.180227618076798","tel":"04 90 72 03 48","website":"http:\/\/levillagedesbories.com","category_ids":["111","311"]}]},{"canonical_uuid":"381c4910-3a11-4a4d-96c9-688de177812a","nonDupes":"","factual_gold":[{"uuid":"381c4910-3a11-4a4d-96c9-688de177812a","name":"B&B H\u00f4tel PARIS Porte de la Villette","address":"4 rue Emile Reynaud","locality":"Paris","region":"Paris","postcode":"75019","latitude":"48.90134474542275","longitude":"2.3890262475175117","tel":"0 892 70 75 50","website":"http:\/\/www.hotel-bb.com\/hotel_info?hotelId=4244#utm_source=googlemaps&utm_medium=fichehotel&utm_campaign=seo&utm_term=2012&utm_content=mondeos","category_ids":["433"]}]},{"canonical_uuid":"38ad2ea2-34c0-4ed3-a607-1aed91585e93","nonDupes":"","factual_gold":[{"uuid":"38ad2ea2-34c0-4ed3-a607-1aed91585e93","name":"Le Saint Fargeau","address":"108 avenue Gambetta","locality":"Paris","region":"Paris","postcode":"75020","latitude":"48.87135853625732","longitude":"2.4043310377313216","tel":"01 43 61 96 75","website":null,"category_ids":["356"]}]},{"canonical_uuid":"3a29773e-8453-46ab-8c5b-a3030a8efac5","nonDupes":"","factual_gold":[{"uuid":"3a29773e-8453-46ab-8c5b-a3030a8efac5","name":"Ch\u00e2teau de Saumur","address":null,"locality":"Saumur","region":"Maine-et-Loire","postcode":"49400","latitude":"47.25699138168184","longitude":"-0.07235647917504064","tel":"02 41 40 24 40","website":"http:\/\/www.chateau-saumur.fr\/","category_ids":["108","110"]}]},{"canonical_uuid":"3a5b7bd3-a630-42f3-8dea-ce974b1f6faf","nonDupes":"","factual_gold":[{"uuid":"3a5b7bd3-a630-42f3-8dea-ce974b1f6faf","name":"Tour Pey-Berland","address":"place Pey-Berland","locality":"Bordeaux","region":"Gironde","postcode":"33000","latitude":"44.83760710223719","longitude":"-0.576616860404024","tel":"05 56 81 26 25","website":"http:\/\/pey-berland.monuments-nationaux.fr","category_ids":["108"]}]},{"canonical_uuid":"413f78a5-c6e7-4114-88a4-a8d6d1ec0453","nonDupes":"","factual_gold":[{"uuid":"413f78a5-c6e7-4114-88a4-a8d6d1ec0453","name":"Zinga Zanga","address":"Traverse de Colombiers","locality":"B\u00e9ziers","region":"H\u00e9rault","postcode":"34500","latitude":"43.329186634276596","longitude":"3.190507904061812","tel":"04 67 36 44 45","website":"http:\/\/www.ville-beziers.fr\/vivre-a-beziers\/loisirs-et-sports\/zinga-zanga\/","category_ids":["333"]}]},{"canonical_uuid":"429f361d-ff26-4328-b0ce-06eb2895b1d3","nonDupes":"","factual_gold":[{"uuid":"429f361d-ff26-4328-b0ce-06eb2895b1d3","name":"Ch\u00e2teau de Beynac","address":"route du ch\u00e2teau","locality":"Beynac et Cazenac","region":"Dordogne","postcode":"24220","latitude":"44.84025229833523","longitude":"1.1447838537617858","tel":"05 53 29 50 40","website":"http:\/\/chateau-beynac.com\/","category_ids":["108"]}]},{"canonical_uuid":"45676647-926e-4ed5-b88d-eaf532a238a8","nonDupes":"","factual_gold":[{"uuid":"45676647-926e-4ed5-b88d-eaf532a238a8","name":"Place de la Concorde","address":null,"locality":"Paris","region":"Paris","postcode":"75008","latitude":"48.865531849913154","longitude":"2.3208660424827703","tel":null,"website":"http:\/\/www.paris.fr\/accueil\/culture\/dossiers\/places\/place-de-la-concorde\/rub_7174_dossier_59834_port_16597_sheet_11893","category_ids":["111"]}]},{"canonical_uuid":"486d556c-bfaf-4b5f-b219-9c1a06bf47e0","nonDupes":"","factual_gold":[{"uuid":"486d556c-bfaf-4b5f-b219-9c1a06bf47e0","name":"Ch\u00e2teau de Fontainebleau","address":null,"locality":"Fontainebleau","region":"Seine-et-Marne","postcode":"77300","latitude":"48.4039482941831","longitude":"2.7089155630654416","tel":"01 60 71 50 70","website":"http:\/\/www.musee-chateau-fontainebleau.fr","category_ids":["108"]}]},{"canonical_uuid":"487514d5-5036-49b9-8443-443b0d75b301","nonDupes":"","factual_gold":[{"uuid":"487514d5-5036-49b9-8443-443b0d75b301","name":"H\u00f4tel Kyriad Poitiers Sud","address":"182 avenue du Huit Mai 1945","locality":"Poitiers","region":"Vienne","postcode":"86000","latitude":"46.5551686263218","longitude":"0.3067886324465891","tel":"05 49 55 99 02","website":"https:\/\/www.kyriad.com\/fr\/hotels\/kyriad-poitiers-sud","category_ids":["436"]}]},{"canonical_uuid":"4b474625-7a9a-4b71-92db-ef5d5b2ce0ec","nonDupes":"","factual_gold":[{"uuid":"4b474625-7a9a-4b71-92db-ef5d5b2ce0ec","name":"Mus\u00e9e National Marc Chagall","address":"avenue Docteur M\u00e9nard","locality":"Nice","region":"Alpes-Maritimes","postcode":"06000","latitude":"43.70912546417163","longitude":"7.269435212812911","tel":"04 93 53 87 20","website":"http:\/\/www.musee-chagall.fr","category_ids":["311"]}]},{"canonical_uuid":"4b8570a5-c4fb-483e-9a72-4c64794b1792","nonDupes":"","factual_gold":[{"uuid":"4b8570a5-c4fb-483e-9a72-4c64794b1792","name":"Palais Garnier","address":"8 rue Scribe","locality":"Paris","region":"Paris","postcode":"75009","latitude":"48.87201355716528","longitude":"2.3317167116025193","tel":"0 892 89 90 90","website":"https:\/\/www.operadeparis.fr\/en\/","category_ids":["333"]}]},{"canonical_uuid":"4e65c1cd-3efd-445c-bcf1-8f6ffe4a924b","nonDupes":"","factual_gold":[{"uuid":"4e65c1cd-3efd-445c-bcf1-8f6ffe4a924b","name":"Pyramide du Louvre","address":null,"locality":"Paris","region":"Paris","postcode":"75058","latitude":"48.861021950196616","longitude":"2.335856434658363","tel":"01 40 20 50 50","website":"http:\/\/www.louvre.fr","category_ids":["111"]}]},{"canonical_uuid":"4eebb1bb-a34c-4dfe-a389-5f8574617476","nonDupes":"","factual_gold":[{"uuid":"4eebb1bb-a34c-4dfe-a389-5f8574617476","name":"A\u00e9roport de Quimper Cornouaille","address":null,"locality":"Pluguffan","region":"Finist\u00e8re","postcode":"29700","latitude":"47.97306409886471","longitude":"-4.170356895976062","tel":"02 98 94 30 30","website":"http:\/\/www.quimper.aeroport.fr","category_ids":["425"]}]},{"canonical_uuid":"554eb01d-8236-4ef1-9ad7-76e4d588eb2e","nonDupes":"","factual_gold":[{"uuid":"554eb01d-8236-4ef1-9ad7-76e4d588eb2e","name":null,"address":"5 rue du Franc M\u00fbrier","locality":"Melun","region":"Seine-et-Marne","postcode":"77000","latitude":"48.536555286372945","longitude":"2.6589283282234764","tel":"01 64 79 77 70","website":"http:\/\/www.amismusee-melun.com","category_ids":["311"]}]},{"canonical_uuid":"55c9aac3-8697-46a0-8b43-13bdee7cf1dc","nonDupes":"","factual_gold":[{"uuid":"55c9aac3-8697-46a0-8b43-13bdee7cf1dc","name":"Abbaye Notre-Dame de S\u00e9nanque","address":null,"locality":"Gordes","region":"Vaucluse","postcode":"84220","latitude":"43.92832065885629","longitude":"5.186872530202952","tel":"04 90 72 05 72","website":"http:\/\/www.abbayedesenanque.com\/","category_ids":["55","108"]}]},{"canonical_uuid":"5925091e-1089-46ab-9d19-bb4fce36a493","nonDupes":"","factual_gold":[{"uuid":"5925091e-1089-46ab-9d19-bb4fce36a493","name":"H\u00f4tel Campanile \u00c9p\u00f4ne","address":"avenue du chemin Mauldre","locality":"Ep\u00f4ne","region":"Yvelines","postcode":"78680","latitude":"48.95943828688274","longitude":"1.8163551555164559","tel":"01 30 90 14 14","website":"http:\/\/www.campanile.com\/fr\/hotels\/campanile-epone\/","category_ids":["436"]}]},{"canonical_uuid":"5e5e259a-95c5-41f9-8e14-d6259491a36c","nonDupes":"","factual_gold":[{"uuid":"5e5e259a-95c5-41f9-8e14-d6259491a36c","name":"H\u00f4pital priv\u00e9 de la Loire","address":"39 boulevard de la Palle","locality":"Saint \u00c9tienne","region":"Loire","postcode":"42100","latitude":"45.42827844868824","longitude":"4.417978320241736","tel":"04 77 42 27 00","website":"http:\/\/hopital-prive-de-la-loire-saint-etienne.ramsaygds.fr\/","category_ids":["74"]}]},{"canonical_uuid":"5e623f31-fc8b-4d11-877f-8c0fcab152df","nonDupes":"","factual_gold":[{"uuid":"5e623f31-fc8b-4d11-877f-8c0fcab152df","name":"Fondation Royaumont","address":null,"locality":"Asni\u00e8res sur Oise","region":"Val-d'Oise","postcode":"95270","latitude":"49.147538979574925","longitude":"2.3819986599712824","tel":"01 30 35 59 00","website":"http:\/\/www.royaumont.com","category_ids":["311"]}]},{"canonical_uuid":"5efcb0e1-7912-4a5d-9804-3053acd1c041","nonDupes":"","factual_gold":[{"uuid":"5efcb0e1-7912-4a5d-9804-3053acd1c041","name":"Gare Planpraz","address":null,"locality":"Chamonix Mont Blanc","region":"Haute-Savoie","postcode":"74400","latitude":"45.93558024879372","longitude":"6.852984728789613","tel":null,"website":null,"category_ids":["429"]}]},{"canonical_uuid":"602700d5-d612-4561-9616-f0ef5ae0a6dc","nonDupes":"","factual_gold":[{"uuid":"602700d5-d612-4561-9616-f0ef5ae0a6dc","name":"Centre Pompidou","address":"1 Parvis des Droits de l'Homme","locality":"Metz","region":"Moselle","postcode":"57020","latitude":"49.10821793500351","longitude":"6.181566137448657","tel":"03 87 15 39 39","website":"http:\/\/www.centrepompidou-metz.fr","category_ids":["311"]}]},{"canonical_uuid":"631a471b-f96a-49c4-9078-0d3a6dd14e37","nonDupes":"","factual_gold":[{"uuid":"631a471b-f96a-49c4-9078-0d3a6dd14e37","name":"Mus\u00e9e du Petit Palais","address":"place du Palais","locality":"Avignon","region":"Vaucluse","postcode":"84000","latitude":"43.95271118679389","longitude":"4.806440735794177","tel":"04 90 86 44 58","website":"http:\/\/www.petit-palais.org","category_ids":["311"]}]},{"canonical_uuid":"642bd8c7-85c2-479b-b5c9-48a3bed38476","nonDupes":"","factual_gold":[{"uuid":"642bd8c7-85c2-479b-b5c9-48a3bed38476","name":null,"address":"3 place Stanislas","locality":"Nancy","region":"Meurthe-et-Moselle","postcode":"54000","latitude":"48.69344620337063","longitude":"6.182035503335725","tel":"03 83 85 30 01","website":"http:\/\/mban.nancy.fr\/","category_ids":["311"]}]},{"canonical_uuid":"653f4a5a-0f7b-4623-a3b8-a4559790c2c4","nonDupes":"","factual_gold":[{"uuid":"653f4a5a-0f7b-4623-a3b8-a4559790c2c4","name":"Citadelle de Lille","address":"avenue du 43\u00c8me R\u00e9giment d'Infanterie","locality":"Lille","region":"Nord","postcode":"59800","latitude":"50.64093345873573","longitude":"3.044519769340468","tel":"0 891 56 20 04","website":"http:\/\/www.lilletourism.com\/visite_guidee_de_la_citadelle_de_lille-1-0-495-fr.html","category_ids":["110"]}]},{"canonical_uuid":"68b072bb-058f-4f8c-879c-2a1d76435cb6","nonDupes":"","factual_gold":[{"uuid":"68b072bb-058f-4f8c-879c-2a1d76435cb6","name":"Mus\u00e9e Sainte-Croix","address":"3 bis rue Jean-Jaur\u00e8s","locality":"Poitiers","region":"Vienne","postcode":"86000","latitude":"46.57912101502698","longitude":"0.34769516857599275","tel":"05 49 41 07 53","website":"http:\/\/www.musees-poitiers.org","category_ids":["311"]}]},{"canonical_uuid":"698f1f9e-33bb-4ec0-86e5-811ba93b38ba","nonDupes":"","factual_gold":[{"uuid":"698f1f9e-33bb-4ec0-86e5-811ba93b38ba","name":"Cimeti\u00e8re du Vil","address":"boulevard Carnot","locality":"Roscoff","region":"Finist\u00e8re","postcode":"29680","latitude":"48.726509563872156","longitude":"-3.9885861736346935","tel":null,"website":"http:\/\/cimetiereduvil.blogspot.fr","category_ids":["22"]}]},{"canonical_uuid":"69a11c8f-e71c-4001-89c4-ab6cfed5359a","nonDupes":"","factual_gold":[{"uuid":"69a11c8f-e71c-4001-89c4-ab6cfed5359a","name":"Cath\u00e9drale Saint-Corentin","address":"place Saint-Corentin","locality":"Quimper","region":"Finist\u00e8re","postcode":"29000","latitude":"47.995541564868994","longitude":"-4.102220414142799","tel":"02 98 53 04 05","website":"http:\/\/www.infobretagne.com\/quimper-cathedrale-corentin.htm","category_ids":["55"]}]},{"canonical_uuid":"69f45080-73da-425a-8fb8-85b5d4b85315","nonDupes":"","factual_gold":[{"uuid":"69f45080-73da-425a-8fb8-85b5d4b85315","name":"H\u00f4tel Campanile Lens","address":"282 route de la Bassee","locality":"Lens","region":"Pas-de-Calais","postcode":"62300","latitude":"50.452992495587786","longitude":"2.81945425448808","tel":"03 21 28 82 82","website":"http:\/\/www.campanile.com\/fr\/hotels\/campanile-lens\/","category_ids":["436"]}]},{"canonical_uuid":"6ba1fd73-b591-402b-b75d-28d94d178649","nonDupes":"","factual_gold":[{"uuid":"6ba1fd73-b591-402b-b75d-28d94d178649","name":"Mus\u00e9e Bonnat","address":"5 rue Jacques Laffitte","locality":"Bayonne","region":"Pyr\u00e9n\u00e9es-Atlantiques","postcode":"64100","latitude":"43.49209164393998","longitude":"-1.4721081477686742","tel":"05 59 46 63 60","website":"http:\/\/webmuseo.com\/ws\/musee-bonnat-helleu\/app\/report\/index.html","category_ids":["311"]}]},{"canonical_uuid":"6db6d7f0-ef1f-4224-a7aa-5cf9aeba1354","nonDupes":"","factual_gold":[{"uuid":"6db6d7f0-ef1f-4224-a7aa-5cf9aeba1354","name":"Chateau de Montvillargenne","address":"6 avenue Fran\u00e7ois Mathet","locality":"Gouvieux","region":"Oise","postcode":"60270","latitude":"49.18467674372625","longitude":"2.4274625121036255","tel":"03 44 62 37 37","website":"http:\/\/www.chateaudemontvillargenne.com","category_ids":["436"]}]},{"canonical_uuid":"702e1b5a-ecf6-4da2-8d1f-4e6dc4a6debd","nonDupes":"","factual_gold":[{"uuid":"702e1b5a-ecf6-4da2-8d1f-4e6dc4a6debd","name":"H\u00f4tel Kyriad Chamb\u00e9ry Centre Curial","address":"371 rue de la R\u00e9publique","locality":"Chamb\u00e9ry","region":"Savoie","postcode":"73000","latitude":"45.56390176561845","longitude":"5.927330401553603","tel":"04 79 36 13 64","website":"http:\/\/www.kyriad.com\/fr\/hotels\/kyriad-chambery-centre-curial","category_ids":["436"]}]},{"canonical_uuid":"724a4e3c-a9c3-4741-b242-e27fd7d74633","nonDupes":"","factual_gold":[{"uuid":"724a4e3c-a9c3-4741-b242-e27fd7d74633","name":"Mus\u00e9e Saint Raymond","address":"1 place Saint-Sernin","locality":"Toulouse","region":"Haute-Garonne","postcode":"31000","latitude":"43.60783361286207","longitude":"1.4411172534502386","tel":"05 61 22 31 44","website":"http:\/\/saintraymond.toulouse.fr\/","category_ids":["311"]}]},{"canonical_uuid":"770ff6c4-79dc-4f8f-8865-032864ea0303","nonDupes":"","factual_gold":[{"uuid":"770ff6c4-79dc-4f8f-8865-032864ea0303","name":"Golf Club de Lyon","address":null,"locality":"Villette D'anthon","region":"Is\u00e8re","postcode":"38280","latitude":"45.80613365305638","longitude":"5.1098893952851","tel":"04 78 31 11 33","website":"http:\/\/www.golfclubdelyon.com","category_ids":["382","405"]}]},{"canonical_uuid":"77bd7756-5c15-49ee-8d3c-7e0d7312fbd7","nonDupes":"","factual_gold":[{"uuid":"77bd7756-5c15-49ee-8d3c-7e0d7312fbd7","name":"Ch\u00e2teau de Vaulog\u00e9","address":"Rd 309","locality":"Ferce sur Sarthe","region":"Sarthe","postcode":"72430","latitude":"47.892423932063835","longitude":"-0.049265562696436505","tel":"02 43 77 32 81","website":"http:\/\/www.vauloge.com","category_ids":["436"]}]},{"canonical_uuid":"78023860-cff5-4234-bf6b-1a88e09a4a9b","nonDupes":"","factual_gold":[{"uuid":"78023860-cff5-4234-bf6b-1a88e09a4a9b","name":"M\u00e9morial de Caen","address":"Esplanade G\u00e9n\u00e9ral Eisenhower","locality":"Caen","region":"Calvados","postcode":"14050","latitude":"49.19746114458941","longitude":"-0.38313720441108556","tel":"02 31 06 06 45","website":"http:\/\/www.memorial-caen.fr","category_ids":["111","311"]}]},{"canonical_uuid":"79c30484-04e0-4ae2-a65c-8524d8717662","nonDupes":"","factual_gold":[{"uuid":"79c30484-04e0-4ae2-a65c-8524d8717662","name":"Basilique Saint-Remi","address":"rue Saint-Julien","locality":"Reims","region":"Marne","postcode":"51100","latitude":"49.24323499937663","longitude":"4.041401954784397","tel":"03 26 85 23 36","website":"http:\/\/www.catholique-reims.fr\/","category_ids":["55"]}]},{"canonical_uuid":"7bbe2e6b-42cf-4a87-ad1f-1fcb9278e57f","nonDupes":"","factual_gold":[{"uuid":"7bbe2e6b-42cf-4a87-ad1f-1fcb9278e57f","name":"ibis Styles Marseille Provence A\u00e9roport H\u00f4tel","address":"36 boulevard Charles Livon","locality":"Vitrolles","region":"Bouches-du-Rh\u00f4ne","postcode":"13127","latitude":"43.42697393776474","longitude":"5.258035250471857","tel":"04 42 89 90 44","website":"http:\/\/www.accorhotels.com\/lien_externe.svlt?goto=fiche_hotel&code_hotel=0442&merchantid=seo-maps-FR-0442&sourceid=aw-cen","category_ids":["436"]}]},{"canonical_uuid":"7fbe9838-4946-4be1-b620-8f01587fd190","nonDupes":"","factual_gold":[{"uuid":"7fbe9838-4946-4be1-b620-8f01587fd190","name":"Mus\u00e9e d'art moderne de Troyes","address":"14 place Saint-Pierre","locality":"Troyes","region":"Aube","postcode":"10000","latitude":"48.29992707577723","longitude":"4.082081859569311","tel":"03 25 76 26 80","website":"http:\/\/www.musees-troyes.com\/536-musee-d-art-moderne.htm","category_ids":["311"]}]},{"canonical_uuid":"82fd1651-0df3-416b-b9d3-7cc927a75f1a","nonDupes":"","factual_gold":[{"uuid":"82fd1651-0df3-416b-b9d3-7cc927a75f1a","name":"Angers Loire A\u00e9roport","address":null,"locality":"Marc\u00e9","region":"Maine-et-Loire","postcode":"49140","latitude":"47.56020841101656","longitude":"-0.31287103574585173","tel":"02 41 33 50 20","website":"http:\/\/www.angersloireaeroport.fr","category_ids":["425"]}]},{"canonical_uuid":"8455a6c7-db05-4fc5-9f00-f870941be6c0","nonDupes":"","factual_gold":[{"uuid":"8455a6c7-db05-4fc5-9f00-f870941be6c0","name":"La Tour Perret","address":"13 place Alphonse Fiquet","locality":"Amiens","region":"Somme","postcode":"80000","latitude":"49.891049027480236","longitude":"2.306238852985328","tel":"06 10 02 15 88","website":null,"category_ids":["108"]}]},{"canonical_uuid":"84dfa287-f2fd-4e7d-a141-1ad9e6e01967","nonDupes":"","factual_gold":[{"uuid":"84dfa287-f2fd-4e7d-a141-1ad9e6e01967","name":"Pointe du Moulinet","address":"2 boulevard Feart","locality":"Dinard","region":"Ille-et-Vilaine","postcode":"35800","latitude":"48.63855613147238","longitude":"-2.0484928227567614","tel":null,"website":null,"category_ids":["112"]}]},{"canonical_uuid":"8b16be32-449a-4abd-bcf4-7fa24725ed63","nonDupes":"","factual_gold":[{"uuid":"8b16be32-449a-4abd-bcf4-7fa24725ed63","name":"H\u00f4tel Restaurant BelleVue","address":"le Port Clos","locality":"ile de Brehat","region":"C\u00f4tes-d'Armor","postcode":"22870","latitude":"48.840656","longitude":"-3.004074","tel":"02 96 20 00 05","website":"http:\/\/www.hotel-bellevue-brehat.fr","category_ids":["436"]}]},{"canonical_uuid":"8e75384e-9998-4b52-b40f-eca10399644e","nonDupes":"","factual_gold":[{"uuid":"8e75384e-9998-4b52-b40f-eca10399644e","name":"H\u00f4tel Mercure Cesson Rennes","address":"40 rue du Bignon","locality":"Cesson S\u00e9vign\u00e9","region":"Ille-et-Vilaine","postcode":"35510","latitude":"48.09945766478787","longitude":"-1.6152140228005951","tel":"02 99 32 32 21","website":"http:\/\/www.mercure.com\/fr\/hotel-5971-mercure-rennes-cesson\/room.shtml","category_ids":["436"]}]},{"canonical_uuid":"9012eab6-a940-40aa-83b4-2d5c297f5059","nonDupes":"","factual_gold":[{"uuid":"9012eab6-a940-40aa-83b4-2d5c297f5059","name":"La Cath\u00e9drale Saint-Tugdual","address":"4 rue Saint-Andr\u00e9","locality":"Tr\u00e9guier","region":"C\u00f4tes-d'Armor","postcode":"22220","latitude":"48.78780686233729","longitude":"-3.2307304221632944","tel":"02 96 92 30 51","website":"http:\/\/cpsainttugdual.catholique.fr\/","category_ids":["55","108"]}]},{"canonical_uuid":"91b1f77a-7d69-4372-af04-6c25a0746619","nonDupes":"","factual_gold":[{"uuid":"91b1f77a-7d69-4372-af04-6c25a0746619","name":"Le Manoir de Gressy H\u00f4tel","address":"chemin des Carrosses","locality":"Gressy","region":"Seine-et-Marne","postcode":"77410","latitude":"48.96496251289436","longitude":"2.6740070270498055","tel":"01 60 26 68 00","website":"http:\/\/www.manoirdegressy.com","category_ids":["436"]}]},{"canonical_uuid":"96a986fb-0539-48d0-9b13-cf51bfa80f8d","nonDupes":"","factual_gold":[{"uuid":"96a986fb-0539-48d0-9b13-cf51bfa80f8d","name":"Mus\u00e9e Picasso","address":"Ch\u00e2teau Grimaldi, place du Chateau","locality":"Antibes","region":"Alpes-Maritimes","postcode":"06600","latitude":"43.5807493327907","longitude":"7.128287722173509","tel":"04 92 90 54 20","website":"http:\/\/www.museepicassoparis.fr\/","category_ids":["311"]}]},{"canonical_uuid":"972c4101-90b4-49ad-8b79-e6abae9f218e","nonDupes":"","factual_gold":[{"uuid":"972c4101-90b4-49ad-8b79-e6abae9f218e","name":"B&B H\u00f4tel LILLE TOURCOING Centre","address":"83 rue de Tournai","locality":"Tourcoing","region":"Nord","postcode":"59200","latitude":"50.72120241276775","longitude":"3.1629992544216625","tel":"0 892 70 22 35","website":"http:\/\/www.hotel-bb.com\/fr\/hotels\/lille-tourcoing-centre.htm","category_ids":["436"]}]},{"canonical_uuid":"998c711e-b97d-49f7-a2d8-14fde4314ecb","nonDupes":"","factual_gold":[{"uuid":"998c711e-b97d-49f7-a2d8-14fde4314ecb","name":"Abbaye Royale de Chaalis","address":null,"locality":"Fontaine Chaalis","region":"Oise","postcode":"60300","latitude":"49.14821562740911","longitude":"2.685842911227619","tel":"03 44 54 04 02","website":"http:\/\/www.chaalis.fr","category_ids":["55"]}]},{"canonical_uuid":"a1c22f9b-02b6-4be9-8ce0-c9f96eaebec9","nonDupes":"","factual_gold":[{"uuid":"a1c22f9b-02b6-4be9-8ce0-c9f96eaebec9","name":"Coll\u00e8ge Notre-Dame du Vieux cours","address":"19 boulevard de la Libert\u00e9","locality":"Rennes","region":"Ille-et-Vilaine","postcode":"35000","latitude":"48.10698306632028","longitude":"-1.6788413561107356","tel":"02 99 79 62 84","website":"http:\/\/www.notredameduvieuxcours.org","category_ids":["29"]}]},{"canonical_uuid":"a389e299-3cec-4708-b00c-0448d7a2dd68","nonDupes":"","factual_gold":[{"uuid":"a389e299-3cec-4708-b00c-0448d7a2dd68","name":"Place du Tertre","address":"place du Tertre","locality":"Paris","region":"Paris","postcode":"75018","latitude":"48.88653509105218","longitude":"2.3408068539587292","tel":null,"website":null,"category_ids":["110"]}]},{"canonical_uuid":"a3b18fce-122c-4f7f-9b51-67cf09888499","nonDupes":"","factual_gold":[{"uuid":"a3b18fce-122c-4f7f-9b51-67cf09888499","name":"Mus\u00e9e du Vieil Aix","address":"17 rue Gaston de Saporta","locality":"Aix en Provence","region":"Bouches-du-Rh\u00f4ne","postcode":"13100","latitude":"43.53083024551497","longitude":"5.447257893417323","tel":"04 42 91 89 78","website":"http:\/\/www.musees-mediterranee.org\/portail\/musee_fiche.php?menu=1&num_musee=29","category_ids":["311"]}]},{"canonical_uuid":"a49d653b-9612-4bd6-9608-acfa5705b482","nonDupes":"","factual_gold":[{"uuid":"a49d653b-9612-4bd6-9608-acfa5705b482","name":"H\u00f4tel Campanile Lille Nord","address":"36 rue de la Communaute Urbaine","locality":"Roubaix","region":"Nord","postcode":"59100","latitude":"50.69364845293635","longitude":"3.1725479080497356","tel":"03 20 70 19 20","website":"http:\/\/www.campanile.com\/fr\/hotels\/campanile-lille-nord-roubaix\/","category_ids":["436"]}]},{"canonical_uuid":"a6545804-9566-49fb-b11f-e9f568c41a72","nonDupes":"","factual_gold":[{"uuid":"a6545804-9566-49fb-b11f-e9f568c41a72","name":"Mus\u00e9e du Louvre","address":"Cedex 01","locality":"Paris","region":"Paris","postcode":"75058","latitude":"48.860904452003666","longitude":"2.3363509562353904","tel":"01 40 20 50 50","website":"http:\/\/www.louvre.fr","category_ids":["311"]}]},{"canonical_uuid":"a6973bf7-447c-43c9-aea2-391f7f62a83e","nonDupes":"","factual_gold":[{"uuid":"a6973bf7-447c-43c9-aea2-391f7f62a83e","name":"Abbaye de Fontevraud","address":null,"locality":"Fontevraud l'Abbaye","region":"Maine-et-Loire","postcode":"49590","latitude":"47.181031574466616","longitude":"0.05203317150156538","tel":"02 41 51 71 21","website":null,"category_ids":["110"]}]},{"canonical_uuid":"af10be01-93ba-4f31-9e73-775448b9f0b8","nonDupes":"","factual_gold":[{"uuid":"af10be01-93ba-4f31-9e73-775448b9f0b8","name":"\u00c9glise Saint-Sulpice","address":"50 rue de Vaugirard","locality":"Paris","region":"Paris","postcode":"75006","latitude":"48.85100001355877","longitude":"2.3348390431897608","tel":"01 42 34 59 98","website":"http:\/\/pss75.fr\/saint-sulpice-paris\/","category_ids":["55"]}]},{"canonical_uuid":"b1bee339-fc33-4bb9-9fbb-e7e12d12637d","nonDupes":"","factual_gold":[{"uuid":"b1bee339-fc33-4bb9-9fbb-e7e12d12637d","name":"Premiere Classe Herblay","address":"rue Ren\u00e9 Coty","locality":"Herblay","region":"Val-d'Oise","postcode":"95220","latitude":"49.00166947323688","longitude":"2.185057951741188","tel":"01 39 31 18 14","website":"http:\/\/www.premiereclasse.com\/fr\/hotels\/premiere-classe-herblay\/","category_ids":["436"]}]},{"canonical_uuid":"b5cedb51-e9d3-4dbc-8c16-765e1450c447","nonDupes":"","factual_gold":[{"uuid":"b5cedb51-e9d3-4dbc-8c16-765e1450c447","name":"Cactus Park","address":"chemin de la Turque","locality":"Bessan","region":"H\u00e9rault","postcode":"34550","latitude":"43.34888211705675","longitude":"3.4194495084201937","tel":"04 67 77 16 16","website":"http:\/\/cactuspark.fr","category_ids":["109","118"]}]},{"canonical_uuid":"b99dd5bf-2c4a-45d3-9b74-80c616065f51","nonDupes":"","factual_gold":[{"uuid":"b99dd5bf-2c4a-45d3-9b74-80c616065f51","name":"Musee Anne de Beaujeu","address":"5 place du Colonel Laussedat","locality":"Moulins","region":"Allier","postcode":"03000","latitude":"46.56673910164858","longitude":"3.3305831558659067","tel":"04 70 20 48 47","website":"http:\/\/musees.allier.fr","category_ids":["311"]}]},{"canonical_uuid":"ba5c33b8-8b59-494f-8ef2-ed6a1f163496","nonDupes":"","factual_gold":[{"uuid":"ba5c33b8-8b59-494f-8ef2-ed6a1f163496","name":"ibis budget Paris Porte de Montmartre","address":"45 rue du Docteur Babinski","locality":"Paris","region":"Paris","postcode":"75018","latitude":"48.901259713494525","longitude":"2.3336669820530216","tel":"0 892 70 12 71","website":"https:\/\/www.accorhotels.com\/gb\/hotel-2597-ibis-budget-paris-porte-de-montmartre\/index.shtml","category_ids":["436"]}]},{"canonical_uuid":"ba819f3b-8c42-4273-b3db-1667f778fc9a","nonDupes":"","factual_gold":[{"uuid":"ba819f3b-8c42-4273-b3db-1667f778fc9a","name":"Abbaye de Jumi\u00e8ges","address":"24 rue Guillaume le Conqu\u00e9rant","locality":"Jumi\u00e8ges","region":"Seine-Maritime","postcode":"76480","latitude":"49.43203063884415","longitude":"0.8191282287777019","tel":"02 35 37 24 02","website":"http:\/\/www.abbayedejumieges.fr","category_ids":["108"]}]},{"canonical_uuid":"bdf0d915-61de-494e-a65e-3873f77bcc8f","nonDupes":"","factual_gold":[{"uuid":"bdf0d915-61de-494e-a65e-3873f77bcc8f","name":null,"address":"18 place Fran\u00e7ois Sicard","locality":"Tours","region":"Indre-et-Loire","postcode":"37000","latitude":"47.39483402606894","longitude":"0.6951255814201343","tel":"02 47 05 68 73","website":"http:\/\/www.mba.tours.fr\/","category_ids":["311"]}]},{"canonical_uuid":"c3ee20ea-dcd3-422b-9989-d2160042cd54","nonDupes":"","factual_gold":[{"uuid":"c3ee20ea-dcd3-422b-9989-d2160042cd54","name":"La Boucherie du Donjon","address":"6 rue Balzac","locality":"Loches","region":"Indre-et-Loire","postcode":"37600","latitude":"47.127919092216146","longitude":"0.9968415405122122","tel":"02 47 59 07 81","website":null,"category_ids":["353"]}]},{"canonical_uuid":"c4e5587b-f3ce-49af-a8aa-62a85b0c6170","nonDupes":"","factual_gold":[{"uuid":"c4e5587b-f3ce-49af-a8aa-62a85b0c6170","name":"Cath\u00e9drale Saint-Just et Saint-Pasteur","address":"rue Armand Gauthier","locality":"Narbonne","region":"Aude","postcode":"11100","latitude":"43.18481636924377","longitude":"3.0039074727738755","tel":"04 68 90 30 65","website":"http:\/\/www.narbonne-tourisme.com\/organiser\/a-voir-a-faire\/118605-cathedrale-saint-just-et-saint-pasteur?s=fiches_a0fd804de9506aa8ded2e69d36b0978c","category_ids":["55"]}]},{"canonical_uuid":"c540dc91-4e0d-4962-9e7f-1563da7b5285","nonDupes":"","factual_gold":[{"uuid":"c540dc91-4e0d-4962-9e7f-1563da7b5285","name":"Refuge du Pelvoux","address":null,"locality":"Pelvoux","region":"Hautes-Alpes","postcode":"05340","latitude":"44.88265576536678","longitude":"6.405709792870638","tel":"04 92 23 39 47","website":"http:\/\/refugedupelvoux.ffcam.fr\/","category_ids":["434"]}]},{"canonical_uuid":"c5c1fc82-9474-450a-81cb-bf590188817b","nonDupes":"","factual_gold":[{"uuid":"c5c1fc82-9474-450a-81cb-bf590188817b","name":"Abbaye des Capucins Spa","address":"6 8 quai de Verdun","locality":"Toulouse","region":"Tarn-et-Garonne","postcode":"82000","latitude":"44.020650316434214","longitude":"1.3501558370331088","tel":"05 63 22 00 00","website":"http:\/\/www.abbayedescapucins.fr","category_ids":["285","436"]}]},{"canonical_uuid":"c5c568e9-d4a7-48fe-b844-7c7352f1ae30","nonDupes":"","factual_gold":[{"uuid":"c5c568e9-d4a7-48fe-b844-7c7352f1ae30","name":"Cath\u00e9drale Notre-Dame de Senlis","address":"1 place Notre- Dame","locality":"Senlis","region":"Oise","postcode":"60300","latitude":"49.206822718377055","longitude":"2.586024380968191","tel":"03 44 53 15 38","website":null,"category_ids":["55"]}]},{"canonical_uuid":"c6bd3860-b428-4b05-8515-fa49e1b324fd","nonDupes":"","factual_gold":[{"uuid":"c6bd3860-b428-4b05-8515-fa49e1b324fd","name":"R\u00e9sidence Villa Regina","address":"11 all\u00e9e Corrigan","locality":"Arcachon","region":"Gironde","postcode":"33120","latitude":"44.65601275341941","longitude":"-1.1723137421037542","tel":"05 56 22 02 00","website":"http:\/\/www.vacancesbleues.fr","category_ids":["436"]}]},{"canonical_uuid":"c7d99b8b-eb41-4531-8ead-7e028bbde467","nonDupes":"","factual_gold":[{"uuid":"c7d99b8b-eb41-4531-8ead-7e028bbde467","name":"Ch\u00e2teau de Montgilbert","address":null,"locality":"Ferri\u00e8res sur Sichon","region":"Allier","postcode":"03250","latitude":"46.03861711045026","longitude":"3.6235132101017813","tel":"04 70 41 14 89","website":null,"category_ids":["110"]}]},{"canonical_uuid":"c936b499-0773-416b-afa7-ff6fcc8a52d6","nonDupes":"","factual_gold":[{"uuid":"c936b499-0773-416b-afa7-ff6fcc8a52d6","name":"Basilique Sainte-Marie-Madeleine de Saint-Maximin-la-Sainte-Baume","address":"6 place Jean Salusse","locality":"Saint Maximin la Sainte Baume","region":"Var","postcode":"83470","latitude":"43.45294948049356","longitude":"5.863745221924934","tel":"04 94 78 00 19","website":"http:\/\/www.mariemadeleine.fr\/index.php\/basilique2.html","category_ids":["55"]}]},{"canonical_uuid":"cb37a858-2f8b-4994-bbbd-a35757241227","nonDupes":"","factual_gold":[{"uuid":"cb37a858-2f8b-4994-bbbd-a35757241227","name":"Paris Gare du Nord","address":"112 rue de Maubeuge","locality":"Paris","region":"Paris","postcode":"75010","latitude":"48.8808474099628","longitude":"2.355389665248515","tel":"01 42 80 31 55","website":"http:\/\/www.transilien.com\/gare\/gareproximite\/init","category_ids":["429"]}]},{"canonical_uuid":"d1f30c9f-baa3-4afb-b908-0a4f2d9e1f8d","nonDupes":"","factual_gold":[{"uuid":"d1f30c9f-baa3-4afb-b908-0a4f2d9e1f8d","name":"Tour Eiffel","address":"5 avenue Anatole France","locality":"Paris","region":"Paris","postcode":"75007","latitude":"48.85820372025541","longitude":"2.294469162060277","tel":"0 892 70 12 39","website":"http:\/\/www.tour-eiffel.fr","category_ids":["108"]}]},{"canonical_uuid":"d5c00611-c8ec-45b3-8777-d0334a6f7d20","nonDupes":"","factual_gold":[{"uuid":"d5c00611-c8ec-45b3-8777-d0334a6f7d20","name":"Mus\u00e9e des Beaux-Arts de Caen","address":"le Ch\u00e2teau","locality":"Caen","region":"Calvados","postcode":"14000","latitude":"49.18620839775724","longitude":"-0.3615693708117608","tel":"02 31 30 47 70","website":"http:\/\/www.mba.caen.fr","category_ids":["311"]}]},{"canonical_uuid":"d705ea21-29b3-4004-859b-814ee58770bb","nonDupes":"","factual_gold":[{"uuid":"d705ea21-29b3-4004-859b-814ee58770bb","name":"Conques Office de Tourisme","address":null,"locality":"Conques","region":"Aveyron","postcode":"12320","latitude":"44.59959128940601","longitude":"2.398510988376238","tel":"05 65 72 85 00","website":"http:\/\/www.tourisme-conques.fr","category_ids":["439"]}]},{"canonical_uuid":"db40a292-489b-4882-a2aa-2117c8bf0ab4","nonDupes":"","factual_gold":[{"uuid":"db40a292-489b-4882-a2aa-2117c8bf0ab4","name":"Pont Alexandre III","address":null,"locality":"Paris","region":"Paris","postcode":"75008","latitude":"48.863062050000565","longitude":"2.3134777042535073","tel":null,"website":null,"category_ids":["108"]}]},{"canonical_uuid":"db9f80f4-a1af-49a9-bf41-a696fc875c6b","nonDupes":"","factual_gold":[{"uuid":"db9f80f4-a1af-49a9-bf41-a696fc875c6b","name":"\u0152uvre de la cath\u00e9drale de Metz","address":"2 place de Chambre","locality":"Metz","region":"Moselle","postcode":"57000","latitude":"49.120735560532104","longitude":"6.175386954237103","tel":"03 87 75 54 61","website":"http:\/\/www.cathedrale-metz.fr","category_ids":["55"]}]},{"canonical_uuid":"dc2a8512-7ede-40f7-8dea-0adf05137bec","nonDupes":"","factual_gold":[{"uuid":"dc2a8512-7ede-40f7-8dea-0adf05137bec","name":"Futuroscope","address":"avenue Ren\u00e9 Monory","locality":"Chasseneuil du Poitou","region":"Vienne","postcode":"86360","latitude":"46.66888963260128","longitude":"0.36852037455360476","tel":"05 49 49 59 06","website":"http:\/\/www.futuroscope.com","category_ids":["319"]}]},{"canonical_uuid":"e49fc138-02ba-4fcf-981d-f1e37834867e","nonDupes":"","factual_gold":[{"uuid":"e49fc138-02ba-4fcf-981d-f1e37834867e","name":"Ch\u00e2teau de Chantilly","address":"7 rue du Conn\u00e9table","locality":"Chantilly","region":"Oise","postcode":"60500","latitude":"49.19385493176536","longitude":"2.4854129604048434","tel":"03 44 27 31 80","website":"http:\/\/www.domainedechantilly.com","category_ids":["108"]}]},{"canonical_uuid":"e4a09736-761a-4f5a-9908-7d8cb66a26f0","nonDupes":"","factual_gold":[{"uuid":"e4a09736-761a-4f5a-9908-7d8cb66a26f0","name":"H\u00f4tel les Comtes de Champagne","address":"54-56 rue de la Monnaie","locality":"Troyes","region":"Aube","postcode":"10000","latitude":"48.295463230743124","longitude":"4.06992431324662","tel":"03 25 73 11 70","website":"http:\/\/www.comtesdechampagne.com","category_ids":["436"]}]},{"canonical_uuid":"f7136813-f323-48f7-aece-8932b055d3e8","nonDupes":"","factual_gold":[{"uuid":"f7136813-f323-48f7-aece-8932b055d3e8","name":"Sites Pr\u00e9historiques de la Vall\u00e9e de la V\u00e9z\u00e8re","address":"4 avenue des Grottes","locality":"Les Eyzies de Tayac Sireuil","region":"Dordogne","postcode":"24620","latitude":"44.937075319354896","longitude":"1.0267497375645003","tel":"05 53 06 97 05","website":"http:\/\/www.vallee-vezere.com\/prehistoire-vallee-vezere.html","category_ids":["110"]}]},{"canonical_uuid":"f7b0ef6c-14e4-4516-aaaf-cefef429de11","nonDupes":"","factual_gold":[{"uuid":"f7b0ef6c-14e4-4516-aaaf-cefef429de11","name":"Ch\u00e2teau du Blosset","address":"route de Saint-Laurent","locality":"Vignoux sur Barangeon","region":"Cher","postcode":"18500","latitude":"47.20576791282178","longitude":"2.1761660237654947","tel":null,"website":"http:\/\/chateaudeblosset.com","category_ids":["108"]}]},{"canonical_uuid":"f7d4ce8e-2288-4f36-9cee-d561d1ce56a9","nonDupes":"","factual_gold":[{"uuid":"f7d4ce8e-2288-4f36-9cee-d561d1ce56a9","name":"La Petite France","address":"Grand \u00cele","locality":"Strasbourg","region":"Bas-Rhin","postcode":"67000","latitude":"48.581447","longitude":"7.741732","tel":"03 88 52 28 28","website":null,"category_ids":["108"]}]},{"canonical_uuid":"f8496990-73a6-4ad8-b062-e3b889a11831","nonDupes":"","factual_gold":[{"uuid":"f8496990-73a6-4ad8-b062-e3b889a11831","name":"Parc de la Sauvagette","address":"459 Rd 6015","locality":"Lanquetot","region":"Seine-Maritime","postcode":"76210","latitude":"49.5807072578534","longitude":"0.5251389706259675","tel":"02 32 84 33 76","website":"http:\/\/www.lasauvagette.com","category_ids":["118"]}]},{"canonical_uuid":"fa115c5a-09c4-4184-8068-1a5233b2c618","nonDupes":"","factual_gold":[{"uuid":"fa115c5a-09c4-4184-8068-1a5233b2c618","name":"Rocher des Doms","address":"place du Palais, Mont\u00e9e des Doms","locality":"Avignon","region":"Vaucluse","postcode":"84000","latitude":"43.95278149326537","longitude":"4.808331755088504","tel":"04 90 80 80 00","website":"http:\/\/www.avignon-et-provence.com\/avignon-tourism\/monuments\/rocher-des-doms.htm#.U8I0J_ldXh4","category_ids":["119"]}]},{"canonical_uuid":"fba8eb23-15ec-4002-93fc-524d8c094997","nonDupes":"","factual_gold":[{"uuid":"fba8eb23-15ec-4002-93fc-524d8c094997","name":"Cath\u00e9drale Notre-Dame de Laon","address":"8 rue du Clo\u00eetre","locality":"Laon","region":"Aisne","postcode":"02000","latitude":"49.564362209858714","longitude":"3.6249907839862954","tel":"03 23 20 26 54","website":null,"category_ids":["55"]}]},{"canonical_uuid":"fdd487f7-d972-4e82-bc02-090f5d79c2e6","nonDupes":"","factual_gold":[{"uuid":"fdd487f7-d972-4e82-bc02-090f5d79c2e6","name":"Forteresse Royale de Chinon","address":null,"locality":"Chinon","region":"Indre-et-Loire","postcode":"37500","latitude":"47.16814221388246","longitude":"0.23604139771171334","tel":"02 47 93 13 45","website":"http:\/\/www.forteressechinon.fr","category_ids":["108","110"]}]},{"canonical_uuid":"fdd616f2-c90a-473c-9d3f-1c8ef1f5053f","nonDupes":"","factual_gold":[{"uuid":"fdd616f2-c90a-473c-9d3f-1c8ef1f5053f","name":"V\u00e9t\u00e9rinaires des Berges du Tarn","address":"155 avenue Dembourg","locality":"Albi","region":"Tarn","postcode":"81000","latitude":"43.940681977784685","longitude":"2.1391406426178556","tel":"05 63 38 68 54","website":null,"category_ids":["305"]}]}]