[{"canonical_uuid":"007bbac7-113e-4538-9a1b-29e374c2602e","nonDupes":"","factual_gold":[{"uuid":"007bbac7-113e-4538-9a1b-29e374c2602e","name":"Intu Metrocentre","address":null,"locality":"Swalwell","region":"Tyne and Wear","postcode":"NE11 9YG","latitude":"54.957017","longitude":"-1.668965","tel":"0191 493 0200","website":"http:\/\/www.intu.co.uk\/metrocentre","category_ids":["169"]}]},{"canonical_uuid":"035d4746-6cfd-4a4d-83dd-5d1764339853","nonDupes":"","factual_gold":[{"uuid":"035d4746-6cfd-4a4d-83dd-5d1764339853","name":"Trinity College, Cambridge","address":"Trinity Lane","locality":"Cambridge","region":"Cambridgeshire","postcode":"CB2 1TQ","latitude":"52.20623705934883","longitude":"0.11608066139447604","tel":"01223 338400","website":"http:\/\/www.trin.cam.ac.uk","category_ids":["29"]}]},{"canonical_uuid":"03fd4035-d3a2-436d-b608-402ae20260e2","nonDupes":"","factual_gold":[{"uuid":"03fd4035-d3a2-436d-b608-402ae20260e2","name":"Skara Brae Prehistoric Village","address":null,"locality":"Stromness","region":"Orkney","postcode":"KW16 3LR","latitude":"59.048748","longitude":"-3.341709","tel":"01856 841815","website":"http:\/\/www.historic-scotland.gov.uk\/propertyresults\/propertyoverview.htm?PropID=PL_244&PropName=Skara%20Brae%20Prehistoric%20Village","category_ids":["430"]}]},{"canonical_uuid":"04861d01-8adf-46d8-b4de-e210fa581f1c","nonDupes":"","factual_gold":[{"uuid":"04861d01-8adf-46d8-b4de-e210fa581f1c","name":"Liverpool Metropolitan Cathedral","address":"Cathedral House Mount Pleasant","locality":"Liverpool","region":"Merseyside","postcode":"L3 5TQ","latitude":"53.40487863674815","longitude":"-2.968614310473318","tel":"0151 709 9222","website":"http:\/\/www.liverpoolmetrocathedral.org.uk\/","category_ids":["55"]}]},{"canonical_uuid":"04f895fa-581d-4b4b-9506-f35f019ed0ea","nonDupes":"","factual_gold":[{"uuid":"04f895fa-581d-4b4b-9506-f35f019ed0ea","name":"Maeshowe Chambered Cairn","address":"Ireland Rd","locality":"Stenness","region":"Orkney","postcode":"KW16 3LB","latitude":"58.996583","longitude":"-3.188247","tel":"01856 851266","website":"http:\/\/www.historic-scotland.gov.uk\/propertyresults\/propertyoverview.htm?PropID=PL_205&PropName=Maeshowe%20Chambered%20Cairn","category_ids":["110"]}]},{"canonical_uuid":"081de7b8-28d3-433a-bbef-eb1d28392a74","nonDupes":"","factual_gold":[{"uuid":"081de7b8-28d3-433a-bbef-eb1d28392a74","name":"American Museum in Britain","address":"Claverton Manor","locality":"Calverton","region":"Somerset","postcode":"BA2 7BD","latitude":"51.37536","longitude":"-2.311312","tel":"01225 460503","website":"http:\/\/www.americanmuseum.org","category_ids":["311"]}]},{"canonical_uuid":"0883cb9a-0f72-448b-a5f2-7d1810337cb4","nonDupes":"","factual_gold":[{"uuid":"0883cb9a-0f72-448b-a5f2-7d1810337cb4","name":"Rochester Castle","address":null,"locality":"Rochester","region":"Kent","postcode":"ME1 1SW","latitude":"51.38939402344847","longitude":"0.5014806612681422","tel":"01634 335882","website":"http:\/\/www.english-heritage.org.uk\/visit\/places\/rochester-castle\/","category_ids":["108"]}]},{"canonical_uuid":"092c9ccf-d815-418f-81f8-c3aaf8633003","nonDupes":"","factual_gold":[{"uuid":"092c9ccf-d815-418f-81f8-c3aaf8633003","name":"Monkey World","address":null,"locality":"Longthorns","region":"Dorset","postcode":"BH20 6HH","latitude":"50.697356","longitude":"-2.217137","tel":"01929 462537","website":"http:\/\/www.monkeyworld.org","category_ids":["371"]}]},{"canonical_uuid":"0a75d836-ea72-42db-9c9c-51bff6b06f0d","nonDupes":"","factual_gold":[{"uuid":"0a75d836-ea72-42db-9c9c-51bff6b06f0d","name":"The Castle at Taunton","address":"Castle Green","locality":"Taunton","region":"Somerset","postcode":"TA1 1NF","latitude":"51.01510030012918","longitude":"-3.104166679565662","tel":"01823 272671","website":"http:\/\/www.the-castle-hotel.com\/","category_ids":["436"]}]},{"canonical_uuid":"11d56f68-c4c7-498f-aded-c88de21c60e8","nonDupes":"","factual_gold":[{"uuid":"11d56f68-c4c7-498f-aded-c88de21c60e8","name":"The Met Hotel","address":"King St","locality":"Leeds","region":"West Yorkshire","postcode":"LS1 2HQ","latitude":"53.79665281302847","longitude":"-1.5500605318722211","tel":"0113 223 4102","website":"http:\/\/www.hotelmetleeds.co.uk\/","category_ids":["436"]}]},{"canonical_uuid":"1225788a-ce3f-4b52-9ad1-35b9a392b6b9","nonDupes":"","factual_gold":[{"uuid":"1225788a-ce3f-4b52-9ad1-35b9a392b6b9","name":"Alton Towers Resort","address":null,"locality":"Alton","region":"Staffordshire","postcode":"ST10 4DB","latitude":"52.98604037250466","longitude":"-1.8849696770037856","tel":"0871 222 3330","website":"http:\/\/www.altontowers.com","category_ids":["438"]}]},{"canonical_uuid":"12aac589-2f34-46f7-8c3d-4df874f0963e","nonDupes":"","factual_gold":[{"uuid":"12aac589-2f34-46f7-8c3d-4df874f0963e","name":"Brunel's SS Great Britain","address":"Great Western Dockyard","locality":"Bristol","region":"Bristol","postcode":"BS1 6TY","latitude":"51.449171","longitude":"-2.608406","tel":"0117 926 0680","website":"http:\/\/www.ssgreatbritain.org\/","category_ids":["311"]}]},{"canonical_uuid":"13bc5312-141f-42c4-96d9-f4650857e62d","nonDupes":"","factual_gold":[{"uuid":"13bc5312-141f-42c4-96d9-f4650857e62d","name":"Aberdeen Maritime Museum","address":null,"locality":"Aberdeen","region":"Aberdeenshire","postcode":"AB11 5BY","latitude":"57.146448","longitude":"-2.094878","tel":"01224 337700","website":"http:\/\/www.aagm.co.uk\/Venues\/AberdeenMaritimeMuseum\/amm-overview.aspx","category_ids":["311"]}]},{"canonical_uuid":"182aaa66-c944-4044-a354-c3b1439d42ad","nonDupes":"","factual_gold":[{"uuid":"182aaa66-c944-4044-a354-c3b1439d42ad","name":"Donington Park Circuit","address":null,"locality":"Castle Donington","region":"Leicestershire","postcode":"DE74 2RP","latitude":"52.830547","longitude":"-1.37884","tel":"01332 810048","website":"http:\/\/www.donington-park.co.uk","category_ids":["396"]}]},{"canonical_uuid":"1887677f-210b-4cc8-a6fe-d48067442a53","nonDupes":"","factual_gold":[{"uuid":"1887677f-210b-4cc8-a6fe-d48067442a53","name":"The Saxon Church of Saint Lawrence","address":"10 Church St","locality":"Bradford on Avon","region":"Wiltshire","postcode":"BA15 1LW","latitude":"51.347026","longitude":"-2.25381","tel":null,"website":"http:\/\/www.saxonchurch.org.uk\/","category_ids":["55","108"]}]},{"canonical_uuid":"1c923ec7-0b2d-4d1a-bd85-ef69b7240a1b","nonDupes":"","factual_gold":[{"uuid":"1c923ec7-0b2d-4d1a-bd85-ef69b7240a1b","name":"Liberty Stadium","address":"Liberty Stadium, Landore","locality":"Swansea","region":"Swansea","postcode":"SA1 2FA","latitude":"51.642697","longitude":"-3.935307","tel":"01792 616600","website":"http:\/\/www.liberty-stadium.com\/","category_ids":["406"]}]},{"canonical_uuid":"1cc4d601-b847-4119-9dd8-45da791b76e2","nonDupes":"","factual_gold":[{"uuid":"1cc4d601-b847-4119-9dd8-45da791b76e2","name":"Kensington Gardens","address":null,"locality":"London","region":"Greater London","postcode":"W2 2UH","latitude":"51.50689129252552","longitude":"-0.18062662794443107","tel":"0300 061 2000","website":"http:\/\/www.royalparks.org.uk","category_ids":["118"]}]},{"canonical_uuid":"213688e9-3010-470e-bee4-7104b86ff152","nonDupes":"","factual_gold":[{"uuid":"213688e9-3010-470e-bee4-7104b86ff152","name":"Mallory Court Hotel","address":"Harbury Lane","locality":"Bishop's Tachbrook","region":"Warwickshire","postcode":"CV33 9QB","latitude":"52.257591","longitude":"-1.5301390000000001","tel":"01926 330214","website":"http:\/\/www.mallory.co.uk","category_ids":["436"]}]},{"canonical_uuid":"228517de-95e7-4153-9e24-cb42b5b1c6ca","nonDupes":"","factual_gold":[{"uuid":"228517de-95e7-4153-9e24-cb42b5b1c6ca","name":"The Banqueting House","address":null,"locality":"London","region":"Greater London","postcode":"SW1A 2ER","latitude":"51.504571","longitude":"-0.126","tel":"020 3166 6000","website":"http:\/\/www.hrp.org.uk\/banquetinghouse","category_ids":["110"]}]},{"canonical_uuid":"28077a28-ee30-441f-9a23-a4243be62c92","nonDupes":"","factual_gold":[{"uuid":"28077a28-ee30-441f-9a23-a4243be62c92","name":"St Fagans National History Museum","address":null,"locality":"St. Fagans","region":"Cardiff","postcode":"CF5 6XB","latitude":"51.486744","longitude":"-3.273236","tel":"0300 111 2333","website":"https:\/\/museum.wales\/stfagans\/","category_ids":["311"]}]},{"canonical_uuid":"2923e540-7577-414c-8c97-c8637520b236","nonDupes":"","factual_gold":[{"uuid":"2923e540-7577-414c-8c97-c8637520b236","name":"Glasgow Airport (GLA)","address":"Glasgow Airport Limited","locality":"Paisley","region":"Renfrewshire","postcode":"PA3 2ST","latitude":"55.870523996535084","longitude":"-4.435938530423067","tel":"0344 481 5555","website":"http:\/\/www.glasgowairport.com","category_ids":["462"]}]},{"canonical_uuid":"2a34b86f-4282-466d-b0b6-856d12778c9b","nonDupes":"","factual_gold":[{"uuid":"2a34b86f-4282-466d-b0b6-856d12778c9b","name":"Shepherd Neame Limited the Faversham Brewery","address":"17 Ct St","locality":"Faversham","region":"Kent","postcode":"ME13 7AX","latitude":"51.316669","longitude":"0.891721","tel":"01795 532206","website":"http:\/\/www.shepherdneame.co.uk","category_ids":["341"]}]},{"canonical_uuid":"2a6c40e5-63b3-4650-a2be-3717ac99ce95","nonDupes":"","factual_gold":[{"uuid":"2a6c40e5-63b3-4650-a2be-3717ac99ce95","name":"The People's Story","address":"Canongate Tolbooth","locality":"Edinburgh","region":"Lothian","postcode":"EH8 8BN","latitude":"55.951489","longitude":"-3.179873","tel":"0131 529 4057","website":"http:\/\/www.edinburghmuseums.org.uk\/Venues\/The-People-s-Story","category_ids":["311"]}]},{"canonical_uuid":"2ae38086-52bb-4366-b816-16365d458203","nonDupes":"","factual_gold":[{"uuid":"2ae38086-52bb-4366-b816-16365d458203","name":"Longleat Safari and Adventure Park","address":null,"locality":"Longleat","region":"Wiltshire","postcode":"BA12 7NW","latitude":"51.187086","longitude":"-2.276668","tel":"01985 844400","website":"http:\/\/www.longleat.co.uk","category_ids":["319"]}]},{"canonical_uuid":"32df5a25-5c01-4b72-b1f2-4ed79c77c3e0","nonDupes":"","factual_gold":[{"uuid":"32df5a25-5c01-4b72-b1f2-4ed79c77c3e0","name":"Ricoh Arena","address":"Judds Lane","locality":"Coventry","region":"West Midlands","postcode":"CV6 6AQ","latitude":"52.448348","longitude":"-1.496635","tel":"0844 873 6500","website":"http:\/\/www.ricoharena.com","category_ids":["333"]}]},{"canonical_uuid":"37772b0a-1476-4f05-a29f-b076a71411cd","nonDupes":"","factual_gold":[{"uuid":"37772b0a-1476-4f05-a29f-b076a71411cd","name":"St Mary-le-Bow","address":null,"locality":"London","region":"Greater London","postcode":"EC2V 6AU","latitude":"51.513817","longitude":"-0.093502","tel":"020 7248 5139","website":"http:\/\/www.stmarylebow.co.uk","category_ids":["55"]}]},{"canonical_uuid":"3867aaf3-12ab-434f-b12b-5d627b3359c3","nonDupes":"","factual_gold":[{"uuid":"3867aaf3-12ab-434f-b12b-5d627b3359c3","name":"Dunnottar Castle","address":null,"locality":"Stonehaven","region":"Kincardineshire","postcode":"AB39 2TL","latitude":"56.945777","longitude":"-2.19719","tel":"01569 762173","website":"http:\/\/www.dunnottarcastle.co.uk","category_ids":["108"]}]},{"canonical_uuid":"38e74f28-0955-4341-8fcd-de9cb424b068","nonDupes":"","factual_gold":[{"uuid":"38e74f28-0955-4341-8fcd-de9cb424b068","name":"Snowdon Mountain Railway","address":null,"locality":"Llanberis","region":"Gwynedd","postcode":"LL55 4TY","latitude":"53.11603301292577","longitude":"-4.119548140542048","tel":"01286 870223","website":"http:\/\/www.snowdonrailway.co.uk","category_ids":["429"]}]},{"canonical_uuid":"3a61bc94-3da8-4f2f-8f2f-58d56ad42a85","nonDupes":"","factual_gold":[{"uuid":"3a61bc94-3da8-4f2f-8f2f-58d56ad42a85","name":"Gidleigh Park Hotel","address":"Gidleigh Pk","locality":"Chagford","region":"Devon","postcode":"TQ13 8HH","latitude":"50.67654476140435","longitude":"-3.8739586164043915","tel":"01647 432367","website":"http:\/\/www.gidleigh.com","category_ids":["438"]}]},{"canonical_uuid":"3b147fe2-2e43-4ce7-b5c6-27d34b8f816f","nonDupes":"","factual_gold":[{"uuid":"3b147fe2-2e43-4ce7-b5c6-27d34b8f816f","name":"East Midlands International Airport (EMA)","address":null,"locality":"Derby","region":"Leicestershire","postcode":"DE74 2SA","latitude":"52.829374","longitude":"-1.332134","tel":"0871 919 9000","website":"http:\/\/www.eastmidlandsairport.com","category_ids":["425"]}]},{"canonical_uuid":"3c7b3711-1b12-48ed-a0a7-bc637979f75b","nonDupes":"","factual_gold":[{"uuid":"3c7b3711-1b12-48ed-a0a7-bc637979f75b","name":"Sheldonian Theatre","address":"Broad St","locality":"Oxford","region":"Oxfordshire","postcode":"OX1 3AZ","latitude":"51.75435306340538","longitude":"-1.2549413826276703","tel":"01865 277299","website":"http:\/\/www.admin.ox.ac.uk\/sheldonian\/","category_ids":["333"]}]},{"canonical_uuid":"3d252541-ef0d-4c62-8e68-3a238e5134e5","nonDupes":"","factual_gold":[{"uuid":"3d252541-ef0d-4c62-8e68-3a238e5134e5","name":"Hidcote Manor Garden","address":null,"locality":"Hidcote Bartrim","region":"Gloucestershire","postcode":"GL55 6LR","latitude":"52.084134","longitude":"-1.7444549999999999","tel":"01386 438333","website":"http:\/\/www.nationaltrust.org.uk\/hidcote","category_ids":["109"]}]},{"canonical_uuid":"3dddcd9e-b883-4dcb-a01d-8d48f1bf9b34","nonDupes":"","factual_gold":[{"uuid":"3dddcd9e-b883-4dcb-a01d-8d48f1bf9b34","name":"Xscape Milton Keynes","address":"602 Marlborough Gate","locality":"Milton Keynes","region":"Buckinghamshire","postcode":"MK9 3XS","latitude":"52.041497225459956","longitude":"-0.7485113800761575","tel":"0871 200 3220","website":"http:\/\/www.xscape.co.uk","category_ids":["169","317","372"]}]},{"canonical_uuid":"420ab2f1-7b8e-4ec8-859c-d104f2395abc","nonDupes":"","factual_gold":[{"uuid":"420ab2f1-7b8e-4ec8-859c-d104f2395abc","name":"Brands Hatch","address":null,"locality":"Fawkham Green","region":"Kent","postcode":"DA3 8NG","latitude":"51.360494","longitude":"0.259526","tel":"01474 872331","website":"http:\/\/www.brandshatch.co.uk","category_ids":["396"]}]},{"canonical_uuid":"43fe9281-2ff2-4c32-9de4-aa05b27e9bc2","nonDupes":"","factual_gold":[{"uuid":"43fe9281-2ff2-4c32-9de4-aa05b27e9bc2","name":"Warwick Castle","address":null,"locality":"Warwick","region":"Warwickshire","postcode":"CV34 4QU","latitude":"52.27854118114598","longitude":"-1.586934587549878","tel":"0871 265 2000","website":"http:\/\/www.warwick-castle.com","category_ids":["110"]}]},{"canonical_uuid":"456e855e-3250-4459-8b58-31c0765c6ca9","nonDupes":"","factual_gold":[{"uuid":"456e855e-3250-4459-8b58-31c0765c6ca9","name":"Coneysthorpe Chapel","address":null,"locality":"Coneysthorpe","region":"North Yorkshire","postcode":"YO60 7DD","latitude":"54.133686366522994","longitude":"-0.9117324650364003","tel":"0113 244 3413","website":"http:\/\/www.thestreetparishes.org.uk\/","category_ids":["55"]}]},{"canonical_uuid":"467bac1d-4eaf-493a-8f54-9043c58ac7c9","nonDupes":"","factual_gold":[{"uuid":"467bac1d-4eaf-493a-8f54-9043c58ac7c9","name":"Burghley House","address":"Burghley House","locality":"Stamford","region":"Lincolnshire","postcode":"PE9 3JY","latitude":"52.6424349112843","longitude":"-0.4516861194398681","tel":"01780 752451","website":"http:\/\/www.burghley.co.uk","category_ids":["108","110"]}]},{"canonical_uuid":"488a1cb6-cb97-47fc-ad31-9d63cb749520","nonDupes":"","factual_gold":[{"uuid":"488a1cb6-cb97-47fc-ad31-9d63cb749520","name":null,"address":"Fulham Rd","locality":"London","region":"Greater London","postcode":"SW6 1HS","latitude":"51.481732","longitude":"-0.191008","tel":null,"website":"http:\/\/www.chelseafc.com","category_ids":["406"]}]},{"canonical_uuid":"4c9794c8-2324-4a6c-8cd8-2cb02376b1fa","nonDupes":"","factual_gold":[{"uuid":"4c9794c8-2324-4a6c-8cd8-2cb02376b1fa","name":"Moresby Hall","address":"Moresby Hall","locality":"Whitehaven","region":"Cumbria","postcode":"CA28 6PJ","latitude":"54.573722","longitude":"-3.574097","tel":"01946 696317","website":null,"category_ids":["434","436"]}]},{"canonical_uuid":"4cd7ea3a-187c-4f9f-9a7a-77548978092f","nonDupes":"","factual_gold":[{"uuid":"4cd7ea3a-187c-4f9f-9a7a-77548978092f","name":"Muncaster Castle\u2019s Coachmans Quarters B&B","address":null,"locality":"Ravenglass","region":"Cumbria","postcode":"CA18 1RQ","latitude":"54.355543","longitude":"-3.381053","tel":"01229 717614","website":"http:\/\/www.muncaster.co.uk\/","category_ids":["432"]}]},{"canonical_uuid":"4df82d66-1fb9-4ebc-8d35-b4e02ae57a81","nonDupes":"","factual_gold":[{"uuid":"4df82d66-1fb9-4ebc-8d35-b4e02ae57a81","name":"Saint Mellion International Resort","address":"St Mellion","locality":"St. Mellion","region":"Cornwall and Isles of Scilly","postcode":"PL12 6SD","latitude":"50.471012","longitude":"-4.278509","tel":"01579 351351","website":"http:\/\/www.st-mellion.co.uk","category_ids":["438"]}]},{"canonical_uuid":"52520cd9-e6f7-4a15-8b9e-97326ed70e02","nonDupes":"","factual_gold":[{"uuid":"52520cd9-e6f7-4a15-8b9e-97326ed70e02","name":"Goodwood Motor Circuit","address":null,"locality":"Goodwood House","region":"West Sussex","postcode":"PO18 0PH","latitude":"50.860003074972205","longitude":"-0.7536733547533717","tel":"01243 755060","website":"http:\/\/www.goodwood.co.uk","category_ids":["396"]}]},{"canonical_uuid":"52bd2085-1ecd-47b7-a403-104ef05d5343","nonDupes":"","factual_gold":[{"uuid":"52bd2085-1ecd-47b7-a403-104ef05d5343","name":"The Lanes","address":"48 Gardner St","locality":"Brighton","region":"East Sussex","postcode":"BN1 1UN","latitude":"50.82495753818302","longitude":"-0.13926613839247545","tel":null,"website":null,"category_ids":["342"]}]},{"canonical_uuid":"52e5da70-34d1-4eef-93ab-5bb170e06df2","nonDupes":"","factual_gold":[{"uuid":"52e5da70-34d1-4eef-93ab-5bb170e06df2","name":"Bishop\u2019s and Earl\u2019s Palaces","address":null,"locality":"Kirkwall","region":"Orkney","postcode":"KW15 1PD","latitude":"58.980278","longitude":"-2.958889","tel":"01856 871918","website":"http:\/\/www.historic-scotland.gov.uk\/propertyresults\/propertyoverview.htm?PropID=PL_032&PropName=Bishop","category_ids":["110"]}]},{"canonical_uuid":"52ec1d74-7fa3-41fd-ae97-619783f4e78a","nonDupes":"","factual_gold":[{"uuid":"52ec1d74-7fa3-41fd-ae97-619783f4e78a","name":"Brooklands Hotel","address":"Brooklands Dr","locality":"Byfleet","region":"Surrey","postcode":"KT13 0SL","latitude":"51.353178","longitude":"-0.470657","tel":"01932 335700","website":"http:\/\/www.brooklandshotelsurrey.com","category_ids":["436"]}]},{"canonical_uuid":"58f4bdf1-98e5-47f5-97d5-227ebd644882","nonDupes":"","factual_gold":[{"uuid":"58f4bdf1-98e5-47f5-97d5-227ebd644882","name":"Tate Modern","address":null,"locality":"London","region":"Greater London","postcode":"SE1 9TG","latitude":"51.507722","longitude":"-0.099195","tel":"020 7887 8888","website":"http:\/\/www.tate.org.uk","category_ids":["310"]}]},{"canonical_uuid":"5e734d85-3f85-43c4-ba59-b854689cffa9","nonDupes":"","factual_gold":[{"uuid":"5e734d85-3f85-43c4-ba59-b854689cffa9","name":"Castell Coch","address":null,"locality":"Cardiff","region":"Cardiff","postcode":"CF15 7JS","latitude":"51.535854","longitude":"-3.254702","tel":"029 2081 0101","website":"http:\/\/cadw.wales.gov.uk\/daysout\/castell-coch\/?lang=en","category_ids":["110"]}]},{"canonical_uuid":"604dc8f8-22e6-4d49-9e1a-552a01171962","nonDupes":"","factual_gold":[{"uuid":"604dc8f8-22e6-4d49-9e1a-552a01171962","name":"Chester Zoo","address":null,"locality":"Upton","region":"Cheshire","postcode":"CH2 1EU","latitude":"53.226558","longitude":"-2.88891","tel":"01244 380280","website":"http:\/\/www.chesterzoo.org","category_ids":["371"]}]},{"canonical_uuid":"61cce6dc-3e84-4452-bfb1-83ce0492c357","nonDupes":"","factual_gold":[{"uuid":"61cce6dc-3e84-4452-bfb1-83ce0492c357","name":"University of Stirling","address":null,"locality":"Bridge of Allan","region":"Central","postcode":"FK9 4LA","latitude":"56.145967","longitude":"-3.919791","tel":"01786 473171","website":"http:\/\/www.stir.ac.uk","category_ids":["29"]}]},{"canonical_uuid":"626ff105-3577-4533-ad73-d05084edc12f","nonDupes":"","factual_gold":[{"uuid":"626ff105-3577-4533-ad73-d05084edc12f","name":"Duff House Royal Golf Club","address":"The Barnyards","locality":"Banff","region":"Banffshire","postcode":"AB45 3SX","latitude":"57.661419","longitude":"-2.520144","tel":"01261 812062","website":"http:\/\/www.duffhouseroyal.com","category_ids":["451"]}]},{"canonical_uuid":"653490f6-74bf-43d5-a01f-68a452a8bb0b","nonDupes":"","factual_gold":[{"uuid":"653490f6-74bf-43d5-a01f-68a452a8bb0b","name":"Rhuddlan Castle","address":"Castle St","locality":"","region":"","postcode":"LL18 5AD","latitude":"53.289168","longitude":"-3.464642","tel":"01745 590777","website":"http:\/\/cadw.wales.gov.uk\/daysout\/rhuddlancastle\/?lang=en","category_ids":["110"]}]},{"canonical_uuid":"66180781-d3aa-480d-80cc-8d55a7fa75db","nonDupes":"","factual_gold":[{"uuid":"66180781-d3aa-480d-80cc-8d55a7fa75db","name":"Richmond Park","address":"Richmond Park","locality":"Richmond","region":"Greater London","postcode":"TW10 5HS","latitude":"51.442687","longitude":"-0.283707","tel":"0300 061 2200","website":"http:\/\/www.royalparks.org.uk\/parks\/richmond-park","category_ids":["118"]}]},{"canonical_uuid":"69067ae5-f227-457c-b2fe-4158c38ab647","nonDupes":"","factual_gold":[{"uuid":"69067ae5-f227-457c-b2fe-4158c38ab647","name":"Southwark Cathedral","address":null,"locality":"London","region":"Greater London","postcode":"SE1 9DA","latitude":"51.5062176712244","longitude":"-0.0895825162410104","tel":"020 7367 6700","website":"http:\/\/cathedral.southwark.anglican.org","category_ids":["55"]}]},{"canonical_uuid":"6d62eb69-e259-409a-a537-57498da4875a","nonDupes":"","factual_gold":[{"uuid":"6d62eb69-e259-409a-a537-57498da4875a","name":"Doddington Hall","address":"Doddington Hall","locality":"Great Doddington","region":"Lincolnshire","postcode":"LN6 4RU","latitude":"53.219535","longitude":"-0.654005","tel":"01522 694308","website":"http:\/\/www.doddingtonhall.com","category_ids":["109"]}]},{"canonical_uuid":"734b0ead-0c43-4499-9a26-5d3fc8eb3121","nonDupes":"","factual_gold":[{"uuid":"734b0ead-0c43-4499-9a26-5d3fc8eb3121","name":null,"address":null,"locality":"Castle Fraser","region":"Aberdeenshire","postcode":"AB51 7LD","latitude":"57.203067250425164","longitude":"-2.4605840753551895","tel":"01330 833463","website":"https:\/\/www.nts.org.uk\/visit\/places\/castle-fraser","category_ids":["108"]}]},{"canonical_uuid":"741e240b-eb55-4280-b455-d24190fba119","nonDupes":"","factual_gold":[{"uuid":"741e240b-eb55-4280-b455-d24190fba119","name":"St Martin-in-the-Fields","address":"Trafalgar Sq","locality":"London","region":"Greater London","postcode":"WC2N 4JH","latitude":"51.50882925190679","longitude":"-0.12661975958554555","tel":"020 7766 1100","website":"http:\/\/www.stmartin-in-the-fields.org","category_ids":["55"]}]},{"canonical_uuid":"752569f2-29aa-4dc6-954b-f36549f519d8","nonDupes":"","factual_gold":[{"uuid":"752569f2-29aa-4dc6-954b-f36549f519d8","name":"Alnwick Castle","address":"Alnwick Castle","locality":"Alnwick","region":"Northumberland","postcode":"NE66 1NQ","latitude":"55.416030247315234","longitude":"-1.7053258937001137","tel":"01665 511100","website":"http:\/\/www.alnwickcastle.com","category_ids":["108"]}]},{"canonical_uuid":"766b3192-82df-4b97-a073-510d777d4ab6","nonDupes":"","factual_gold":[{"uuid":"766b3192-82df-4b97-a073-510d777d4ab6","name":"Court Colman Manor","address":null,"locality":"Bridgend","region":"Bridgend County Borough","postcode":"CF31 4NG","latitude":"51.524888","longitude":"-3.611863","tel":"01656 720212","website":"http:\/\/www.court-colman-manor.com","category_ids":["436"]}]},{"canonical_uuid":"7709e694-67da-47e7-9bae-c8458d293393","nonDupes":"","factual_gold":[{"uuid":"7709e694-67da-47e7-9bae-c8458d293393","name":"The Royal Crescent Hotel","address":"16 Royal Cr","locality":"Bath","region":"Somerset","postcode":"BA1 2LS","latitude":"51.387479543076005","longitude":"-2.3682145424074394","tel":"01225 823333","website":"http:\/\/www.royalcrescent.co.uk\/","category_ids":["436"]}]},{"canonical_uuid":"78803735-8b7d-443c-ba5c-ed039e690ceb","nonDupes":"","factual_gold":[{"uuid":"78803735-8b7d-443c-ba5c-ed039e690ceb","name":"Edinburgh Castle","address":null,"locality":"Edinburgh","region":"Lothian","postcode":"EH1 2NG","latitude":"55.948595","longitude":"-3.199913","tel":"0131 225 9846","website":"http:\/\/www.edinburghcastle.gov.uk","category_ids":["108"]}]},{"canonical_uuid":"7b58db1f-756d-4f34-a804-25c6ea00b350","nonDupes":"","factual_gold":[{"uuid":"7b58db1f-756d-4f34-a804-25c6ea00b350","name":"Tate Britain","address":null,"locality":"London","region":"Greater London","postcode":"SW1P 4RG","latitude":"51.491052","longitude":"-0.12711","tel":"020 7887 8888","website":"http:\/\/www.tate.org.uk\/britain","category_ids":["310"]}]},{"canonical_uuid":"7b7ffafe-caea-43c0-8d4b-34aa11233dd6","nonDupes":"","factual_gold":[{"uuid":"7b7ffafe-caea-43c0-8d4b-34aa11233dd6","name":"West Midland Safari Park","address":"Spring Grove","locality":"Bewdley","region":"Worcestershire","postcode":"DY12 1LF","latitude":"52.37586314116372","longitude":"-2.2922469219800914","tel":"01299 402114","website":"http:\/\/www.wmsp.co.uk","category_ids":["371"]}]},{"canonical_uuid":"7c8c4833-5bee-48bc-a237-c9a0e832ec73","nonDupes":"","factual_gold":[{"uuid":"7c8c4833-5bee-48bc-a237-c9a0e832ec73","name":"University of Surrey","address":null,"locality":"Guildford","region":"Surrey","postcode":"GU2 7XH","latitude":"51.242722","longitude":"-0.589514","tel":"01483 300800","website":"http:\/\/www.surrey.ac.uk","category_ids":["29"]}]},{"canonical_uuid":"7de92f47-f723-4ef9-838f-97dd1b4b0576","nonDupes":"","factual_gold":[{"uuid":"7de92f47-f723-4ef9-838f-97dd1b4b0576","name":"Loughborough University Design School","address":"Epinal Way","locality":"Loughborough","region":"Leicestershire","postcode":"LE11 3TU","latitude":"52.763816592086","longitude":"-1.2355356783824103","tel":"01509 222222","website":"http:\/\/www.lboro.ac.uk\/departments\/design-school\/","category_ids":["29"]}]},{"canonical_uuid":"7fbfdcdc-da2d-4359-9b53-0d1d29f2681f","nonDupes":"","factual_gold":[{"uuid":"7fbfdcdc-da2d-4359-9b53-0d1d29f2681f","name":"Flamingo Land Resort","address":null,"locality":"Malton","region":"North Yorkshire","postcode":"YO17 6UX","latitude":"54.20677","longitude":"-0.808761","tel":"0800 408 8840","website":"http:\/\/www.flamingoland.co.uk","category_ids":["371"]}]},{"canonical_uuid":"7fd104a0-6f43-49cd-b4ec-3d04089e8ae0","nonDupes":"","factual_gold":[{"uuid":"7fd104a0-6f43-49cd-b4ec-3d04089e8ae0","name":"Goodison Park","address":"Goodison Rd","locality":"Liverpool","region":"Merseyside","postcode":"L4 4EL","latitude":"53.438895","longitude":"-2.967092","tel":"0871 663 1878","website":null,"category_ids":["406"]}]},{"canonical_uuid":"8098d4a6-2163-4b6a-939e-8a195a775a73","nonDupes":"","factual_gold":[{"uuid":"8098d4a6-2163-4b6a-939e-8a195a775a73","name":"Monument to the Great Fire of London","address":"Fish St","locality":"London","region":"Greater London","postcode":"EC3R 8AH","latitude":"51.510143","longitude":"-0.085942","tel":"020 7403 3761","website":"http:\/\/www.themonument.info","category_ids":["111"]}]},{"canonical_uuid":"8278ab80-2cd1-4dbd-9685-0d0036b681eb","nonDupes":"","factual_gold":[{"uuid":"8278ab80-2cd1-4dbd-9685-0d0036b681eb","name":"Inveraray Castle","address":null,"locality":"Inveraray","region":"Argyll","postcode":"PA32 8XE","latitude":"56.237481917151044","longitude":"-5.073578020288185","tel":"01499 302203","website":"http:\/\/www.inveraray-castle.com","category_ids":["110"]}]},{"canonical_uuid":"848b3e9c-ca38-4e9f-b0ce-2a0c8c072b51","nonDupes":"","factual_gold":[{"uuid":"848b3e9c-ca38-4e9f-b0ce-2a0c8c072b51","name":"Jorvik Viking Centre","address":"19 Coppergate","locality":"York","region":"North Yorkshire","postcode":"YO1 9WT","latitude":"53.95742","longitude":"-1.080306","tel":"01904 615505","website":"https:\/\/www.jorvikvikingcentre.co.uk\/","category_ids":["311"]}]},{"canonical_uuid":"8cad6f90-6dbc-4392-b396-0ff87d284a7a","nonDupes":"","factual_gold":[{"uuid":"8cad6f90-6dbc-4392-b396-0ff87d284a7a","name":"University of Birmingham","address":null,"locality":"Birmingham","region":"West Midlands","postcode":"B15 2TT","latitude":"52.449709696404575","longitude":"-1.9247094213977665","tel":"0121 414 3344","website":"http:\/\/www.birmingham.ac.uk","category_ids":["29"]}]},{"canonical_uuid":"8d9a3cce-eb3b-4c3d-89e1-76ea73b274d9","nonDupes":"","factual_gold":[{"uuid":"8d9a3cce-eb3b-4c3d-89e1-76ea73b274d9","name":"Babington House","address":"Babington House","locality":"Babington","region":"Somerset","postcode":"BA11 3RW","latitude":"51.256624","longitude":"-2.418623","tel":"01373 812266","website":"http:\/\/www.babingtonhouse.co.uk","category_ids":["436"]}]},{"canonical_uuid":"8eb89fc2-0868-4c28-b918-e1585fb54433","nonDupes":"","factual_gold":[{"uuid":"8eb89fc2-0868-4c28-b918-e1585fb54433","name":"West Bromwich Albion F.C","address":"9 Birmingham Rd","locality":"West Bromwich","region":"West Midlands","postcode":"B71 4LF","latitude":"52.50910507985507","longitude":"-1.963819017752049","tel":"0871 271 1100","website":"https:\/\/www.wba.co.uk\/","category_ids":["405"]}]},{"canonical_uuid":"8f6be5c3-3fc3-4504-9484-cfced2bd020b","nonDupes":"","factual_gold":[{"uuid":"8f6be5c3-3fc3-4504-9484-cfced2bd020b","name":"Saint Athernase","address":"7 David Wilson Pk","locality":"Balmullo","region":"Fife","postcode":"KY16 0NP","latitude":"56.381693","longitude":"-2.883398","tel":"01334 870038","website":"http:\/\/www.leucharsstathernase.org.uk","category_ids":["55"]}]},{"canonical_uuid":"93f351a1-a74d-4f5a-b427-344bae83077b","nonDupes":"","factual_gold":[{"uuid":"93f351a1-a74d-4f5a-b427-344bae83077b","name":"Hall's Croft","address":"Old Town Rd","locality":"Stratford-upon-Avon","region":"Warwickshire","postcode":"CV37 6BG","latitude":"52.18862805827271","longitude":"-1.708466104139213","tel":"01789 338533","website":"https:\/\/www.shakespeare.org.uk\/visit\/halls-croft\/","category_ids":["311"]}]},{"canonical_uuid":"95f43bf3-9b70-4444-8f75-e73d349bd6b6","nonDupes":"","factual_gold":[{"uuid":"95f43bf3-9b70-4444-8f75-e73d349bd6b6","name":"Imperial College","address":null,"locality":"London","region":"Greater London","postcode":"SW7 2AZ","latitude":"51.49885509795678","longitude":"-0.17477389419608425","tel":"020 7589 5111","website":"http:\/\/www.imperial.ac.uk","category_ids":["29"]}]},{"canonical_uuid":"9609b324-084e-4ba5-858e-02601a2f2a5c","nonDupes":"","factual_gold":[{"uuid":"9609b324-084e-4ba5-858e-02601a2f2a5c","name":"White Hart Lane","address":"748 High Rd","locality":"London","region":"Greater London","postcode":"N17 0AP","latitude":"51.603285","longitude":"-0.065681","tel":"0844 499 5000","website":"http:\/\/www.tottenhamhotspur.com","category_ids":["107","317"]}]},{"canonical_uuid":"97405501-0522-4e60-b5b8-ec8f75671641","nonDupes":"","factual_gold":[{"uuid":"97405501-0522-4e60-b5b8-ec8f75671641","name":"Saint David's Cathedral","address":"The Pebbles","locality":"St. David's","region":"Pembrokeshire County","postcode":"SA62 6RD","latitude":"51.882063","longitude":"-5.268337","tel":"01437 720202","website":"http:\/\/www.stdavidscathedral.org.uk","category_ids":["55"]}]},{"canonical_uuid":"9f1894ba-6005-4635-9934-36fa842162d0","nonDupes":"","factual_gold":[{"uuid":"9f1894ba-6005-4635-9934-36fa842162d0","name":null,"address":"The Sq","locality":"Corfe Castle","region":"Dorset","postcode":"BH20 5EZ","latitude":"50.640129","longitude":"-2.058796","tel":"01929 481294","website":"http:\/\/www.nationaltrust.org.uk\/corfe-castle","category_ids":["108"]}]},{"canonical_uuid":"9f18bec2-de79-416a-9283-9fb8bbc5c242","nonDupes":"","factual_gold":[{"uuid":"9f18bec2-de79-416a-9283-9fb8bbc5c242","name":"Eltham Palace and Gardens","address":"Ct Yard","locality":"London","region":"Greater London","postcode":"SE9 5QE","latitude":"51.44704899754024","longitude":"0.048307108141575274","tel":"0370 333 1181","website":"http:\/\/www.english-heritage.org.uk\/daysout\/properties\/eltham-palace-and-gardens","category_ids":["108"]}]},{"canonical_uuid":"a099abee-9121-4312-9947-e4f78fd800b6","nonDupes":"","factual_gold":[{"uuid":"a099abee-9121-4312-9947-e4f78fd800b6","name":"Lionhead Studios","address":"1 Occam Ct","locality":"Surrey Research Park","region":"Surrey","postcode":"GU2 7HJ","latitude":"51.242471","longitude":"-0.613364","tel":"01483 401000","website":"http:\/\/lionhead.com","category_ids":["209"]}]},{"canonical_uuid":"a2158ece-5f4d-43a6-aed6-1e9d9544039a","nonDupes":"","factual_gold":[{"uuid":"a2158ece-5f4d-43a6-aed6-1e9d9544039a","name":"University of Sussex","address":"Sussex House","locality":"Falmer","region":"East Sussex","postcode":"BN1 9RH","latitude":"50.86709","longitude":"-0.087914","tel":"01273 606755","website":"http:\/\/www.sussex.ac.uk","category_ids":["29"]}]},{"canonical_uuid":"a2325eb0-d651-407b-8fdb-6f16206e3757","nonDupes":"","factual_gold":[{"uuid":"a2325eb0-d651-407b-8fdb-6f16206e3757","name":"Belfast International Airport (BFS)","address":"171 Airport Rd","locality":"Belfast","region":"County Antrim","postcode":"BT29 4AB","latitude":"54.661819","longitude":"-6.217875","tel":"028 9448 4848","website":"http:\/\/www.belfastairport.com","category_ids":["462"]}]},{"canonical_uuid":"a38fe909-2db4-4c65-86e9-c2311e1a8600","nonDupes":"","factual_gold":[{"uuid":"a38fe909-2db4-4c65-86e9-c2311e1a8600","name":"Barcaldine Castle","address":null,"locality":"Ledaig","region":"Argyll","postcode":"PA37 1SA","latitude":"56.510558","longitude":"-5.401638","tel":"01631 720598","website":"http:\/\/www.barcaldinecastle.co.uk","category_ids":["108"]}]},{"canonical_uuid":"a73726d1-3ea2-43a2-ad87-27ca41c6736d","nonDupes":"","factual_gold":[{"uuid":"a73726d1-3ea2-43a2-ad87-27ca41c6736d","name":"Gatwick Airport Parking","address":null,"locality":"Lowfield Heath","region":"West Sussex","postcode":"RH6 0NP","latitude":"51.15335338445659","longitude":"-0.18546146280440257","tel":"0344 892 0322","website":"http:\/\/easybus.co.uk\/en\/london-gatwick\/gatwick-south-bus-station","category_ids":["462"]}]},{"canonical_uuid":"a757ad69-876c-45b1-9aa8-bbfff067ee5f","nonDupes":"","factual_gold":[{"uuid":"a757ad69-876c-45b1-9aa8-bbfff067ee5f","name":"Queen Elizabeth Olympic Park","address":"1 Stratford Pl","locality":"London","region":"Greater London","postcode":"E20 2ST","latitude":"51.543265","longitude":"-0.012478","tel":"0800 072 2110","website":"http:\/\/queenelizabetholympicpark.co.uk\/","category_ids":["118"]}]},{"canonical_uuid":"a8bff419-d50c-496a-8bf4-12f2c4a76bfb","nonDupes":"","factual_gold":[{"uuid":"a8bff419-d50c-496a-8bf4-12f2c4a76bfb","name":"Saint Clement Danes","address":null,"locality":"London","region":"Greater London","postcode":"WC2R 1DH","latitude":"51.513089","longitude":"-0.113981","tel":"020 7242 8282","website":"http:\/\/www.raf.mod.uk\/stclementdanes\/contactus.cfm","category_ids":["55"]}]},{"canonical_uuid":"aad217d2-03f3-448b-94fd-06cbf557a389","nonDupes":"","factual_gold":[{"uuid":"aad217d2-03f3-448b-94fd-06cbf557a389","name":"Motorpoint Arena Sheffield","address":"Broughton Lane","locality":"Sheffield","region":"South Yorkshire","postcode":"S9 2DF","latitude":"53.3999011720787","longitude":"-1.4188761708319582","tel":"0114 256 5656","website":"http:\/\/www.flydsaarena.co.uk\/arena-information\/company-details\/","category_ids":["406"]}]},{"canonical_uuid":"ae81d02c-1eeb-411a-9317-a3b89d583e3f","nonDupes":"","factual_gold":[{"uuid":"ae81d02c-1eeb-411a-9317-a3b89d583e3f","name":"Etihad Stadium","address":"Ashton New Rd","locality":"Manchester","region":"Greater Manchester","postcode":"M11 3FF","latitude":"53.483923","longitude":"-2.200621","tel":"0161 444 1894","website":"https:\/\/www.mancity.com\/","category_ids":["406"]}]},{"canonical_uuid":"b1a79318-2868-4905-b519-188e0c1bf0af","nonDupes":"","factual_gold":[{"uuid":"b1a79318-2868-4905-b519-188e0c1bf0af","name":"Kingston University","address":"53-57 High St","locality":"Kingston upon Thames","region":"Greater London","postcode":"KT1 1LQ","latitude":"51.403859","longitude":"-0.303829","tel":"020 8417 9000","website":"http:\/\/www.kingston.ac.uk","category_ids":["29"]}]},{"canonical_uuid":"b1ca57b6-5300-40fb-868c-b28785b6a75e","nonDupes":"","factual_gold":[{"uuid":"b1ca57b6-5300-40fb-868c-b28785b6a75e","name":"Birmingham Airport (BHX)","address":null,"locality":"Bickenhill","region":"West Midlands","postcode":"B26 3QJ","latitude":"52.452382","longitude":"-1.7435070000000001","tel":"0871 222 0072","website":"http:\/\/www.birminghamairport.co.uk","category_ids":["425"]}]},{"canonical_uuid":"b2bcbcb3-b251-4b55-a3ef-84289eb0854b","nonDupes":"","factual_gold":[{"uuid":"b2bcbcb3-b251-4b55-a3ef-84289eb0854b","name":"Doncaster Sheffield Airport","address":"First Av","locality":"Finningley","region":"South Yorkshire","postcode":"DN9 3RH","latitude":"53.479206","longitude":"-1.00201","tel":"01302 625050","website":"http:\/\/flydsa.co.uk\/","category_ids":["462"]}]},{"canonical_uuid":"b43871ec-bbb9-49ef-8934-cee09a8cd3e9","nonDupes":"","factual_gold":[{"uuid":"b43871ec-bbb9-49ef-8934-cee09a8cd3e9","name":null,"address":"Eton High St","locality":"Windsor","region":"Berkshire","postcode":"SL4 6DW","latitude":"51.495735","longitude":"-0.60444","tel":"01753 671000","website":"http:\/\/www.etoncollege.com","category_ids":["34"]}]},{"canonical_uuid":"b57578ef-8353-4b66-978e-8c778d0620e3","nonDupes":"","factual_gold":[{"uuid":"b57578ef-8353-4b66-978e-8c778d0620e3","name":"St Augustine's Abbey","address":null,"locality":"Canterbury","region":"Kent","postcode":"CT1 1PF","latitude":"51.277884","longitude":"1.088522","tel":"01227 767345","website":"http:\/\/www.english-heritage.org.uk\/daysout\/properties\/st-augustines-abbey","category_ids":["110"]}]},{"canonical_uuid":"b8ed3053-d772-44f5-a99a-6bbe45f25101","nonDupes":"","factual_gold":[{"uuid":"b8ed3053-d772-44f5-a99a-6bbe45f25101","name":"Commonwealth Institute","address":"Kensington High St","locality":"London","region":"Greater London","postcode":"W8 6NQ","latitude":"51.4998089","longitude":"-0.2001761","tel":null,"website":"https:\/\/www.london.gov.uk\/what-we-do\/planning\/planning-applications-and-decisions\/planning-application-search\/commonwealth","category_ids":["311"]}]},{"canonical_uuid":"bb57a153-740f-42be-aa4d-ae12d4eb57d4","nonDupes":"","factual_gold":[{"uuid":"bb57a153-740f-42be-aa4d-ae12d4eb57d4","name":"Pitmedden Garden","address":null,"locality":"Pitmedden","region":"Aberdeenshire","postcode":"AB41 7PD","latitude":"57.343233","longitude":"-2.191955","tel":"01651 842352","website":"http:\/\/www.nts.org.uk\/Property\/Pitmedden-Garden","category_ids":["109"]}]},{"canonical_uuid":"bc227a7b-1d13-420d-a5df-91db26ed8c51","nonDupes":"","factual_gold":[{"uuid":"bc227a7b-1d13-420d-a5df-91db26ed8c51","name":"The Lanyon Tea Room","address":"Morvah Rd","locality":"Newbridge","region":"Cornwall and Isles of Scilly","postcode":"TR20 8NY","latitude":"50.150877","longitude":"-5.604829","tel":"01736 351273","website":null,"category_ids":["338"]}]},{"canonical_uuid":"bd9a42b9-6903-4726-b8b6-c798907ab7d3","nonDupes":"","factual_gold":[{"uuid":"bd9a42b9-6903-4726-b8b6-c798907ab7d3","name":null,"address":null,"locality":"Castle Howard","region":"North Yorkshire","postcode":"YO60 7DA","latitude":"54.121803","longitude":"-0.906128","tel":"01653 648333","website":"http:\/\/www.castlehoward.co.uk","category_ids":["108"]}]},{"canonical_uuid":"bf0a8abb-dc20-4c40-a47e-8410e9710ff6","nonDupes":"","factual_gold":[{"uuid":"bf0a8abb-dc20-4c40-a47e-8410e9710ff6","name":"Dalmeny House","address":null,"locality":"Edinburgh","region":"Lothian","postcode":"EH30 9TQ","latitude":"55.988081725583534","longitude":"-3.3346361313880157","tel":"0131 331 1888","website":"https:\/\/roseberyestates.co.uk\/","category_ids":["108"]}]},{"canonical_uuid":"c032b7a8-f3e4-4f4b-8e30-b50932278029","nonDupes":"","factual_gold":[{"uuid":"c032b7a8-f3e4-4f4b-8e30-b50932278029","name":"Dartmoor Zoological Park","address":null,"locality":"Sparkwell","region":"Devon","postcode":"PL7 5DG","latitude":"50.407485","longitude":"-3.996137","tel":"01752 837645","website":"http:\/\/www.dartmoorzoo.org","category_ids":["371"]}]},{"canonical_uuid":"c2da1c98-b02e-483c-b9d2-3333924b6c81","nonDupes":"","factual_gold":[{"uuid":"c2da1c98-b02e-483c-b9d2-3333924b6c81","name":"Aberdeen International Airport (ABZ)","address":null,"locality":"Newmachar","region":"Aberdeenshire","postcode":"AB21 7DU","latitude":"57.200849","longitude":"-2.203327","tel":"0844 481 6666","website":"http:\/\/www.aberdeenairport.com","category_ids":["425"]}]},{"canonical_uuid":"c38a4813-8f52-4eea-bef2-65a8ebba2c1c","nonDupes":"","factual_gold":[{"uuid":"c38a4813-8f52-4eea-bef2-65a8ebba2c1c","name":"Penrhyn Castle","address":null,"locality":"Bangor","region":"Gwynedd","postcode":"LL57 4HN","latitude":"53.225973","longitude":"-4.09481","tel":"01248 353084","website":"http:\/\/www.nationaltrust.org.uk\/penrhyn-castle","category_ids":["110"]}]},{"canonical_uuid":"c54cc2df-aca8-403d-90b9-b106b0346b23","nonDupes":"","factual_gold":[{"uuid":"c54cc2df-aca8-403d-90b9-b106b0346b23","name":"Fairmont St Andrews","address":"St. Andrews Bay","locality":"","region":"Fife","postcode":"KY16 8PN","latitude":"56.32036","longitude":"-2.730737","tel":"01334 837000","website":"http:\/\/standrewsbay.com","category_ids":["436"]}]},{"canonical_uuid":"c5f7d8a9-0851-46ef-8da7-ad55e187d3a8","nonDupes":"","factual_gold":[{"uuid":"c5f7d8a9-0851-46ef-8da7-ad55e187d3a8","name":null,"address":null,"locality":"Windsor Castle","region":"Berkshire","postcode":"SL4 1NJ","latitude":"51.483872","longitude":"-0.60682","tel":"0303 123 7324","website":"http:\/\/www.royalcollection.org.uk\/visit\/windsorcastle","category_ids":["110"]}]},{"canonical_uuid":"c7bdcb86-48a0-4172-823b-c195f9f62b6d","nonDupes":"","factual_gold":[{"uuid":"c7bdcb86-48a0-4172-823b-c195f9f62b6d","name":"St John's College","address":"St. Giles","locality":"Oxford","region":"Oxfordshire","postcode":"OX1 3JP","latitude":"51.75678387650349","longitude":"-1.2574877778828522","tel":"01865 277300","website":"http:\/\/www.sjc.ox.ac.uk","category_ids":["29"]}]},{"canonical_uuid":"c891613c-5124-455c-b4b1-85ec8266d1de","nonDupes":"","factual_gold":[{"uuid":"c891613c-5124-455c-b4b1-85ec8266d1de","name":"Lancaster House","address":"Stable Yard","locality":"London","region":"Greater London","postcode":"SW1A 1BB","latitude":"51.5038889","longitude":"-0.1391667","tel":"020 7008 2711","website":"https:\/\/www.gov.uk\/government\/history\/lancaster-house","category_ids":["108"]}]},{"canonical_uuid":"ca0dfbf0-d553-4e39-9e85-0ad826a7ee2c","nonDupes":"","factual_gold":[{"uuid":"ca0dfbf0-d553-4e39-9e85-0ad826a7ee2c","name":"Brig Inn Hotel","address":"9 Ellon Rd","locality":"Aberdeen","region":"Aberdeenshire","postcode":"AB23 8EB","latitude":"57.177272","longitude":"-2.090415","tel":"01224 702449","website":"https:\/\/www.brig-inn.com","category_ids":["436"]}]},{"canonical_uuid":"cf01849b-9aa4-491f-904e-9ad16a709ecf","nonDupes":"","factual_gold":[{"uuid":"cf01849b-9aa4-491f-904e-9ad16a709ecf","name":"Merchant Adventurers' Hall","address":null,"locality":"York","region":"North Yorkshire","postcode":"YO1 9XD","latitude":"53.958188","longitude":"-1.078604","tel":"01904 654818","website":"http:\/\/www.merchantshallyork.org\/","category_ids":["110","311"]}]},{"canonical_uuid":"d2237395-48e6-439f-8cca-aa7a6bc94161","nonDupes":"","factual_gold":[{"uuid":"d2237395-48e6-439f-8cca-aa7a6bc94161","name":"Royal Shakespeare Company","address":"Royal Shakespeare Theatre","locality":"Stratford-upon-Avon","region":"Warwickshire","postcode":"CV37 6BB","latitude":"52.190419","longitude":"-1.704046","tel":"01789 403493","website":"http:\/\/www.rsc.org.uk","category_ids":["333"]}]},{"canonical_uuid":"d4822604-f35e-4a17-b8cb-c067cec443fb","nonDupes":"","factual_gold":[{"uuid":"d4822604-f35e-4a17-b8cb-c067cec443fb","name":"Magdalen College","address":null,"locality":"Oxford","region":"Oxfordshire","postcode":"OX1 4AU","latitude":"51.75264546099829","longitude":"-1.2469537973113465","tel":"01865 276000","website":"http:\/\/www.magd.ox.ac.uk","category_ids":["29"]}]},{"canonical_uuid":"d5870914-7fd9-474a-a8e5-8b6a03153c85","nonDupes":"","factual_gold":[{"uuid":"d5870914-7fd9-474a-a8e5-8b6a03153c85","name":"University of Bath","address":null,"locality":"Bath","region":"Somerset","postcode":"BA2 7AY","latitude":"51.377743","longitude":"-2.326378","tel":"01225 388388","website":"http:\/\/www.bath.ac.uk\/","category_ids":["29"]}]},{"canonical_uuid":"d66d798a-ee38-4904-af6b-e91b130637f5","nonDupes":"","factual_gold":[{"uuid":"d66d798a-ee38-4904-af6b-e91b130637f5","name":"Tolquhon Castle","address":null,"locality":"Tarves","region":"Aberdeenshire","postcode":"AB41 7LP","latitude":"57.348136","longitude":"-2.213211","tel":"01651 851286","website":"http:\/\/www.historic-scotland.gov.uk\/propertyresults\/propertyoverview.htm?PropID=PL_289&PropName=Tolquhon%20Castle","category_ids":["107"]}]},{"canonical_uuid":"da99c21a-2bae-4ea8-a2c3-e61ee0ad22ed","nonDupes":"","factual_gold":[{"uuid":"da99c21a-2bae-4ea8-a2c3-e61ee0ad22ed","name":"Ellenborough Park","address":"Southam Rd","locality":"Southam","region":"Gloucestershire","postcode":"GL52 3NJ","latitude":"51.926616","longitude":"-2.042105","tel":"01242 545454","website":"http:\/\/www.ellenboroughpark.com","category_ids":["118"]}]},{"canonical_uuid":"db6626e6-81ef-4167-be4c-15057b66858b","nonDupes":"","factual_gold":[{"uuid":"db6626e6-81ef-4167-be4c-15057b66858b","name":"Provost Skene's House","address":null,"locality":"Aberdeen","region":"Aberdeenshire","postcode":"AB10 1AS","latitude":"57.148108","longitude":"-2.097377","tel":"01224 641086","website":"http:\/\/www.aagm.co.uk\/Venues\/ProvostSkenesHouse\/psh-overview.aspx","category_ids":["108"]}]},{"canonical_uuid":"df457b53-f836-489e-a966-cdb99220ed08","nonDupes":"","factual_gold":[{"uuid":"df457b53-f836-489e-a966-cdb99220ed08","name":"Kits Coty Brasserie","address":"15 Old Chatham Rd","locality":"Blue Bell Hill","region":"Kent","postcode":"ME20 7EZ","latitude":"51.320106","longitude":"0.505859","tel":"01634 684445","website":"http:\/\/www.kitscoty.co.uk","category_ids":["347"]}]},{"canonical_uuid":"df58cb03-9a91-4e00-975d-c21dd43c9ac7","nonDupes":"","factual_gold":[{"uuid":"df58cb03-9a91-4e00-975d-c21dd43c9ac7","name":"Ibrox Stadium","address":"150 Edmiston Dr","locality":"Glasgow","region":"Lanarkshire","postcode":"G51 2XD","latitude":"55.853226137492925","longitude":"-4.309099400028199","tel":"0871 702 1972","website":"http:\/\/www.rangers.co.uk","category_ids":["404","406"]}]},{"canonical_uuid":"dfd58ae6-82ae-4dd1-840f-35176d0dd0ac","nonDupes":"","factual_gold":[{"uuid":"dfd58ae6-82ae-4dd1-840f-35176d0dd0ac","name":"London Stansted Airport (STN)","address":null,"locality":"Takeley","region":"Essex","postcode":"CM24 1QW","latitude":"51.885402","longitude":"0.238953","tel":"0844 335 1803","website":"http:\/\/www.stanstedairport.com","category_ids":["462"]}]},{"canonical_uuid":"dfe621bd-eb7e-4874-9927-b5603e059732","nonDupes":"","factual_gold":[{"uuid":"dfe621bd-eb7e-4874-9927-b5603e059732","name":"Corgarff Castle","address":"8m W","locality":"Corgarff","region":"Aberdeenshire","postcode":"AB36 8YP","latitude":"57.1628243","longitude":"-3.2340145","tel":"01975 651460","website":"http:\/\/www.historic-scotland.gov.uk\/propertyresults\/propertyoverview.htm?PropID=PL_072","category_ids":["110"]}]},{"canonical_uuid":"e3403005-0e66-4c4f-8fed-79020d7b2d48","nonDupes":"","factual_gold":[{"uuid":"e3403005-0e66-4c4f-8fed-79020d7b2d48","name":"Somerset House","address":null,"locality":"London","region":"Greater London","postcode":"WC2R 1LA","latitude":"51.511626","longitude":"-0.117565","tel":"020 7845 4600","website":"http:\/\/www.somersethouse.org.uk","category_ids":["108","310"]}]},{"canonical_uuid":"e6a62e4d-87f7-4640-9944-4ac42a0c0074","nonDupes":"","factual_gold":[{"uuid":"e6a62e4d-87f7-4640-9944-4ac42a0c0074","name":"Burgh Island Hotel","address":null,"locality":"Burgh Island","region":"Devon","postcode":"TQ7 4BG","latitude":"50.279685","longitude":"-3.8979340000000002","tel":"01548 810514","website":"http:\/\/www.burghisland.com","category_ids":["436"]}]},{"canonical_uuid":"e8548ef1-a43b-41f1-ac6d-dd3fc53b321e","nonDupes":"","factual_gold":[{"uuid":"e8548ef1-a43b-41f1-ac6d-dd3fc53b321e","name":"London Bridge","address":null,"locality":"London","region":"Greater London","postcode":"SE1 9DD","latitude":"51.507948999999996","longitude":"-0.087526","tel":null,"website":null,"category_ids":["107"]}]},{"canonical_uuid":"f0107d8a-9356-4539-9dd8-ccbe198f961e","nonDupes":"","factual_gold":[{"uuid":"f0107d8a-9356-4539-9dd8-ccbe198f961e","name":"Stadium of Light","address":null,"locality":"Corfe Castle","region":"Dorset","postcode":"BH20 5EZ","latitude":"54.914508","longitude":"-1.388554","tel":"0871 911 1200","website":"http:\/\/www.safc.com","category_ids":["406"]}]},{"canonical_uuid":"f271a425-9d08-4551-848c-9279432ad6fb","nonDupes":"","factual_gold":[{"uuid":"f271a425-9d08-4551-848c-9279432ad6fb","name":"Dartmoor National Park","address":null,"locality":"Bovey Tracey","region":"Devon","postcode":"TQ13 9JQ","latitude":"50.572022","longitude":"-3.92112","tel":"01626 832093","website":"http:\/\/www.dartmoor-npa.gov.uk","category_ids":["119"]}]},{"canonical_uuid":"f2bb65cd-3a4e-49ce-9492-f970ac067677","nonDupes":"","factual_gold":[{"uuid":"f2bb65cd-3a4e-49ce-9492-f970ac067677","name":"Bodnant Garden","address":"Bodnant Rd","locality":"Tal-y-Cafn","region":"Conwy County Borough","postcode":"LL28 5RE","latitude":"53.234315464727366","longitude":"-3.7993374893450675","tel":"01492 650460","website":"http:\/\/www.nationaltrust.org.uk\/bodnant-garden","category_ids":["109"]}]},{"canonical_uuid":"f43e8af4-b5b8-4189-87f7-e75f6112e970","nonDupes":"","factual_gold":[{"uuid":"f43e8af4-b5b8-4189-87f7-e75f6112e970","name":"The Rows Cafe","address":"5-7 Eastgate St","locality":"Chester","region":"Cheshire","postcode":"CH1 1LQ","latitude":"53.19055374841318","longitude":"-2.890836221137188","tel":"01244 350998","website":null,"category_ids":["347"]}]},{"canonical_uuid":"f4875221-ff42-44ed-b601-a0d120ca9c03","nonDupes":"","factual_gold":[{"uuid":"f4875221-ff42-44ed-b601-a0d120ca9c03","name":"University of Huddersfield","address":null,"locality":"Huddersfield","region":"West Yorkshire","postcode":"HD1 3DH","latitude":"53.643332","longitude":"-1.779015","tel":"01484 422288","website":null,"category_ids":["29"]}]},{"canonical_uuid":"f611a73e-764f-47f6-9054-96bf63a37b4c","nonDupes":"","factual_gold":[{"uuid":"f611a73e-764f-47f6-9054-96bf63a37b4c","name":"ZSL London Zoo","address":"Outer Circle, Regents Pk","locality":"London","region":"Greater London","postcode":"NW1 4RY","latitude":"51.535287","longitude":"-0.15343","tel":"0344 225 1826","website":"http:\/\/www.zsl.org\/zsl-london-zoo","category_ids":["371"]}]},{"canonical_uuid":"f95437e3-6a09-4f52-9c7e-7f6a558e98a5","nonDupes":"","factual_gold":[{"uuid":"f95437e3-6a09-4f52-9c7e-7f6a558e98a5","name":"Haddo House","address":null,"locality":"Methlick","region":"Aberdeenshire","postcode":"AB41 7EQ","latitude":"57.402939","longitude":"-2.220397","tel":"01651 851440","website":"http:\/\/www.nts.org.uk\/Property\/Haddo-House","category_ids":["108"]}]},{"canonical_uuid":"fee04879-4270-47ac-87e6-37f70ba70baf","nonDupes":"","factual_gold":[{"uuid":"fee04879-4270-47ac-87e6-37f70ba70baf","name":"Her Majesty's Theatre","address":null,"locality":"London","region":"Greater London","postcode":"SW1Y 4QL","latitude":"51.508243","longitude":"-0.131863","tel":"0844 412 4653","website":"http:\/\/www.hermajestystheatre.co.uk","category_ids":["333"]}]},{"canonical_uuid":"ff3b5364-8106-4fad-b183-6343a57ba2ec","nonDupes":"","factual_gold":[{"uuid":"ff3b5364-8106-4fad-b183-6343a57ba2ec","name":"York Shambles","address":"19 Shambles","locality":"York","region":"North Yorkshire","postcode":"YO1 7LZ","latitude":"53.95941268681116","longitude":"-1.0799418614516862","tel":"01904 541851","website":"http:\/\/www.insideyork.co.uk\/what-to-see\/shambles.html","category_ids":["107"]}]}]