[{"canonical_uuid":"00874d05-4481-49f4-ae0a-79b8dd042d40","nonDupes":"","factual_gold":[{"uuid":"00874d05-4481-49f4-ae0a-79b8dd042d40","name":"Aeroporto di Trapani Birgi Vincenzo Florio","address":"Contrada Spagnola","locality":"Trapani","region":"Trapani","postcode":"91100","latitude":"37.911459","longitude":"12.490879","tel":"0923 610111","website":"http:\/\/www.airgest.it\/","category_ids":["425"]}]},{"canonical_uuid":"0122d99a-374e-4a28-b27f-e65d520d5eea","nonDupes":"","factual_gold":[{"uuid":"0122d99a-374e-4a28-b27f-e65d520d5eea","name":"Aeroporto Internazionale dell'Umbria","address":"Via dell'Aeroporto","locality":"","region":"Perugia","postcode":"06134","latitude":"43.094671","longitude":"12.503248","tel":"075 592141","website":"http:\/\/www.airport.umbria.it","category_ids":["462"]}]},{"canonical_uuid":"02dc7dd2-cbaf-4ad5-9fbc-cfc66a08e547","nonDupes":"","factual_gold":[{"uuid":"02dc7dd2-cbaf-4ad5-9fbc-cfc66a08e547","name":"Domus Aurea","address":"Via della Domus Aurea 1","locality":"Roma","region":"Roma","postcode":"00184","latitude":"41.891687161551","longitude":"12.495422190474732","tel":null,"website":null,"category_ids":["110"]}]},{"canonical_uuid":"0372b88a-9ff8-4b79-9f09-a7086d531028","nonDupes":"","factual_gold":[{"uuid":"0372b88a-9ff8-4b79-9f09-a7086d531028","name":"Politecnico di Torino","address":"Corso Duca degli Abruzzi 24","locality":"Torino","region":"Torino","postcode":"10129","latitude":"45.062958","longitude":"7.660732","tel":"011 090102","website":"http:\/\/www.polito.it","category_ids":["29"]}]},{"canonical_uuid":"04214252-0429-4634-8b92-dcbd6ecd1fd1","nonDupes":"","factual_gold":[{"uuid":"04214252-0429-4634-8b92-dcbd6ecd1fd1","name":"Aeroporto di Palermo Falcone e Borsellino","address":"Localit\u00e0 Punta Raisi","locality":"Cinisi","region":"Palermo","postcode":"90145","latitude":"38.1824","longitude":"13.100582","tel":"800 541 880","website":"http:\/\/www.gesap.it\/","category_ids":["425"]}]},{"canonical_uuid":"046ae1a7-9b4b-4df6-adb6-88dd1deeb474","nonDupes":"","factual_gold":[{"uuid":"046ae1a7-9b4b-4df6-adb6-88dd1deeb474","name":"Chiesa di San Lorenzo","address":"Via Palazzo di Citt\u00e0 4","locality":"Torino","region":"Torino","postcode":"10122","latitude":"45.07214765652043","longitude":"7.684828029828533","tel":"0436 1527","website":"http:\/\/www.sanlorenzo.torino.it","category_ids":["55"]}]},{"canonical_uuid":"05b35ad9-3526-40d1-8225-133b7545cfa0","nonDupes":"","factual_gold":[{"uuid":"05b35ad9-3526-40d1-8225-133b7545cfa0","name":"Orio al Serio International Airport","address":"Via Orio al Serio 49","locality":"Orio al Serio","region":"Bergamo","postcode":"24050","latitude":"45.66549629762091","longitude":"9.699608304551836","tel":"035 326323","website":"http:\/\/www.milanbergamoairport.it\/en\/","category_ids":["462"]}]},{"canonical_uuid":"0b3bd1ad-19a3-48db-b9cd-3630df95faef","nonDupes":"","factual_gold":[{"uuid":"0b3bd1ad-19a3-48db-b9cd-3630df95faef","name":"Ponte Sant'Angelo","address":null,"locality":"Roma","region":"Roma","postcode":"00186","latitude":"41.901788","longitude":"12.466462","tel":null,"website":null,"category_ids":["110"]}]},{"canonical_uuid":"0be70714-5f52-475e-8dd9-a7703cda58a6","nonDupes":"","factual_gold":[{"uuid":"0be70714-5f52-475e-8dd9-a7703cda58a6","name":"Galleria Civica d\u2019Arte Moderna","address":"Via Magenta 31","locality":"Torino","region":"Torino","postcode":"10128","latitude":"45.06483480377924","longitude":"7.669184747840247","tel":"011 442 9518","website":"http:\/\/www.gamtorino.it","category_ids":["311"]}]},{"canonical_uuid":"0c121fa8-fb0c-45b6-af6a-b2e6cc0911fe","nonDupes":"","factual_gold":[{"uuid":"0c121fa8-fb0c-45b6-af6a-b2e6cc0911fe","name":"Campidoglio","address":"Piazza del Campidoglio","locality":"Roma","region":"Roma","postcode":"00186","latitude":"41.89329961326188","longitude":"12.482934447665981","tel":"06 0608","website":null,"category_ids":["110"]}]},{"canonical_uuid":"0ecad09c-ca8a-4102-bcad-663b3edd44d9","nonDupes":"","factual_gold":[{"uuid":"0ecad09c-ca8a-4102-bcad-663b3edd44d9","name":"S. Maria della Spina","address":null,"locality":"Pisa","region":"Pisa","postcode":"56126","latitude":"43.71522133885636","longitude":"10.396685857704197","tel":"055 321 5446","website":null,"category_ids":["55"]}]},{"canonical_uuid":"0f52bcd3-b1d4-429a-8721-734d655eed37","nonDupes":"","factual_gold":[{"uuid":"0f52bcd3-b1d4-429a-8721-734d655eed37","name":"Piazzetta Umberto I","address":"Piazza Umberto I","locality":"Capri","region":"Napoli","postcode":"80073","latitude":"40.55091718456363","longitude":"14.242827203162527","tel":null,"website":null,"category_ids":["110"]}]},{"canonical_uuid":"0f7b31d9-1890-4586-ac09-aeec02481ea2","nonDupes":"","factual_gold":[{"uuid":"0f7b31d9-1890-4586-ac09-aeec02481ea2","name":"Grotta Azzurra","address":null,"locality":"Anacapri","region":"Napoli","postcode":"80071","latitude":"40.56112554369398","longitude":"14.205824602650575","tel":"081 837 5308","website":"http:\/\/www.capritourism.com","category_ids":["112"]}]},{"canonical_uuid":"100e4c84-14bc-44c9-a552-25cc274db02e","nonDupes":"","factual_gold":[{"uuid":"100e4c84-14bc-44c9-a552-25cc274db02e","name":"Abbazia di Sant'Antimo","address":"Localit\u00e0 Sant'Antimo","locality":"Montalcino","region":"Siena","postcode":"53024","latitude":"42.99961076548169","longitude":"11.515735050021123","tel":"0577 286300","website":"http:\/\/www.antimo.it","category_ids":["110"]}]},{"canonical_uuid":"15420a91-383e-4657-a158-68c9510d2bc5","nonDupes":"","factual_gold":[{"uuid":"15420a91-383e-4657-a158-68c9510d2bc5","name":"Basilica di Santa Maria in Cosmedin","address":"Piazza della Bocca della Verit\u00e0 18","locality":"Roma","region":"Roma","postcode":"00186","latitude":"41.888091691967425","longitude":"12.481704550328203","tel":"06 678 7759","website":"http:\/\/www.060608.it\/en\/cultura-e-svago\/luoghi-di-culto-di-interesse-storico-artistico\/chiese-cattoliche\/basilica-di-santa-maria-in-cosmedin.html","category_ids":["55"]}]},{"canonical_uuid":"16505295-0a57-4f3e-ba3b-ab44158bef1c","nonDupes":"","factual_gold":[{"uuid":"16505295-0a57-4f3e-ba3b-ab44158bef1c","name":"Aeroporto di Alghero Fertilia","address":null,"locality":"Alghero","region":"Sassari","postcode":"07041","latitude":"40.63063787081031","longitude":"8.295537610414831","tel":"079 935282","website":null,"category_ids":["462"]}]},{"canonical_uuid":"18e08fc9-3741-4504-95f1-7bef1433724f","nonDupes":"","factual_gold":[{"uuid":"18e08fc9-3741-4504-95f1-7bef1433724f","name":"Cuneo International Airport","address":"Strada Regionale 20 1","locality":"Savigliano","region":"Cuneo","postcode":"12038","latitude":"44.54752855230628","longitude":"7.618562617136404","tel":"0172 741500","website":"http:\/\/www.aeroporto.cuneo.it","category_ids":["425"]}]},{"canonical_uuid":"19207b50-a3e1-4df8-87a6-f60fa860a67e","nonDupes":"","factual_gold":[{"uuid":"19207b50-a3e1-4df8-87a6-f60fa860a67e","name":"Ricina","address":null,"locality":"Macerata","region":"Macerata","postcode":"62100","latitude":"43.32801","longitude":"13.42306","tel":"0733 492937","website":null,"category_ids":["110"]}]},{"canonical_uuid":"1b52b797-c404-4cc2-b4d2-77b42a1d7efd","nonDupes":"","factual_gold":[{"uuid":"1b52b797-c404-4cc2-b4d2-77b42a1d7efd","name":"Scuola di San Giorgio degli Schiavoni","address":"Castello 3259a","locality":"Vicenza","region":"Venezia","postcode":"30122","latitude":"45.436226931176435","longitude":"12.345956549841086","tel":"041 522 8828","website":"http:\/\/www.scuoladalmatavenezia.com\/","category_ids":["108"]}]},{"canonical_uuid":"1ef655ab-2c86-47e7-9333-bf0eed4d10a8","nonDupes":"","factual_gold":[{"uuid":"1ef655ab-2c86-47e7-9333-bf0eed4d10a8","name":"Torre delle Milizie","address":"Salita del Grillo 37","locality":"Roma","region":"Roma","postcode":"00187","latitude":"41.89596227342726","longitude":"12.486673876886272","tel":null,"website":null,"category_ids":["110"]}]},{"canonical_uuid":"213ef7f2-b0c5-4b4c-8214-e9a0cc2a2074","nonDupes":"","factual_gold":[{"uuid":"213ef7f2-b0c5-4b4c-8214-e9a0cc2a2074","name":"Basilica di Sant'Apollinare Nuovo","address":"Via di Roma 53","locality":"Sant'Agata sul Santerno","region":"Ravenna","postcode":"48020","latitude":"44.41675663652351","longitude":"12.20493142782432","tel":"0544 541688","website":"http:\/\/www.ravennamosaici.it","category_ids":["55"]}]},{"canonical_uuid":"2326d5b9-272f-4f18-9a48-7fc02fe3a071","nonDupes":"","factual_gold":[{"uuid":"2326d5b9-272f-4f18-9a48-7fc02fe3a071","name":"Acquario di Genova","address":null,"locality":"Genova","region":"Genova","postcode":"16128","latitude":"44.41021337908088","longitude":"8.926291795524737","tel":"010 23451","website":"http:\/\/www.acquariodigenova.it","category_ids":["371"]}]},{"canonical_uuid":"24ca2077-440b-4637-8587-e3456846ddb9","nonDupes":"","factual_gold":[{"uuid":"24ca2077-440b-4637-8587-e3456846ddb9","name":"B&B La Suite","address":"Vico dei Sospiri 9","locality":"Napoli","region":"Napoli","postcode":"80121","latitude":"40.834519","longitude":"14.240464","tel":"081 764 7932","website":"http:\/\/www.bblasuite.com","category_ids":["433"]}]},{"canonical_uuid":"24d6af55-0090-44a3-a29f-ffe6bf333038","nonDupes":"","factual_gold":[{"uuid":"24d6af55-0090-44a3-a29f-ffe6bf333038","name":"Milan\u2013Malpensa Airport","address":null,"locality":"Ferno","region":"Varese","postcode":"21010","latitude":"45.6281270332458","longitude":"8.724042146275094","tel":"02 232323","website":"https:\/\/www.airportmalpensa.com\/","category_ids":["462"]}]},{"canonical_uuid":"25179687-f0e3-4215-9693-e00159027cf7","nonDupes":"","factual_gold":[{"uuid":"25179687-f0e3-4215-9693-e00159027cf7","name":"Heraclea Hotel Residence","address":"Via Lido 100","locality":"Policoro","region":"Matera","postcode":"75025","latitude":"40.18924414218789","longitude":"16.712520891671574","tel":"0835 910144","website":"http:\/\/www.hotelheraclea.com","category_ids":["436"]}]},{"canonical_uuid":"25e18afa-926b-4ed1-9d17-43dc329b9055","nonDupes":"","factual_gold":[{"uuid":"25e18afa-926b-4ed1-9d17-43dc329b9055","name":"Piazza Venezia","address":"Piazza Venezia","locality":"Roma","region":"Roma","postcode":"00186","latitude":"41.895290404259406","longitude":"12.48223349075217","tel":"06 0608","website":"http:\/\/bit.ly\/PiazzaVeneziaRoma","category_ids":["110"]}]},{"canonical_uuid":"2604629b-e58c-4d1c-b39c-8e92f3c712f1","nonDupes":"","factual_gold":[{"uuid":"2604629b-e58c-4d1c-b39c-8e92f3c712f1","name":"Camposanto Monumentale","address":"Piazza Duomo 17","locality":"Pisa","region":"Pisa","postcode":"56126","latitude":"43.72402332980446","longitude":"10.394904391059756","tel":"050 835011","website":"http:\/\/www.opapisa.it","category_ids":["111"]}]},{"canonical_uuid":"267c12dd-1021-40c6-96dc-3699675d6b4c","nonDupes":"","factual_gold":[{"uuid":"267c12dd-1021-40c6-96dc-3699675d6b4c","name":"Juventus Stadium","address":"Corso Gaetano Scirea 50","locality":"Torino","region":"Torino","postcode":"10151","latitude":"45.10956987701837","longitude":"7.641268569100687","tel":"899 999 897","website":"http:\/\/www.juventus.com","category_ids":["406"]}]},{"canonical_uuid":"26cc498a-820b-4d20-bf4a-e324ff739201","nonDupes":"","factual_gold":[{"uuid":"26cc498a-820b-4d20-bf4a-e324ff739201","name":"Aeroporto Internazionale Lamezia Terme","address":"Via Aeroporto","locality":"Lamezia Terme","region":"Catanzaro","postcode":"88046","latitude":"38.906731512994796","longitude":"16.243334944647266","tel":"0968 414385","website":"https:\/\/lameziaairport.it","category_ids":["462"]}]},{"canonical_uuid":"276db725-ad88-4e64-992f-9b9af30f3d3f","nonDupes":"","factual_gold":[{"uuid":"276db725-ad88-4e64-992f-9b9af30f3d3f","name":"Basilica di Superga","address":"Strada Basilica di Superga 73","locality":"Torino","region":"Torino","postcode":"10132","latitude":"45.08084276235053","longitude":"7.768076434770783","tel":"011 899 7456","website":"http:\/\/www.basilicadisuperga.com","category_ids":["110"]}]},{"canonical_uuid":"28b673ed-a61b-4bcd-ac97-458f4a7bfe1f","nonDupes":"","factual_gold":[{"uuid":"28b673ed-a61b-4bcd-ac97-458f4a7bfe1f","name":"Villetta di Negro","address":"Piazzale Giuseppe Mazzini","locality":"Genova","region":"Genova","postcode":"16122","latitude":"44.41127013085792","longitude":"8.936444401630968","tel":"010 557 4741","website":"http:\/\/www.museidigenova.it","category_ids":["119"]}]},{"canonical_uuid":"2a26f269-2451-4dd0-87bd-f70211417102","nonDupes":"","factual_gold":[{"uuid":"2a26f269-2451-4dd0-87bd-f70211417102","name":"Palazzo della Civilt\u00e0 del Lavoro","address":"Quadrato della Concordia 3","locality":"Roma","region":"Roma","postcode":"00144","latitude":"41.83673375852251","longitude":"12.46532269016125","tel":"06 3345 0970","website":null,"category_ids":["108","311"]}]},{"canonical_uuid":"2a9392ea-f863-456b-b3e9-28f17d13f7ee","nonDupes":"","factual_gold":[{"uuid":"2a9392ea-f863-456b-b3e9-28f17d13f7ee","name":"Teatro Grande - Scavi","address":null,"locality":"Pompei","region":"Napoli","postcode":"80045","latitude":"40.74885874350545","longitude":"14.488345522557369","tel":"081 536 9869","website":null,"category_ids":["110"]}]},{"canonical_uuid":"2bec975e-f1da-4946-9a26-5b1a23707fdc","nonDupes":"","factual_gold":[{"uuid":"2bec975e-f1da-4946-9a26-5b1a23707fdc","name":"Piazza dei Signori","address":"Piazza dei Signori","locality":"Verona","region":"Verona","postcode":"37121","latitude":"45.4434","longitude":"10.9988","tel":"045 806 8680","website":"http:\/\/www.turismoverona.eu\/nqcontent.cfm?a_id=35987","category_ids":["110"]}]},{"canonical_uuid":"2df4ed80-8f09-4471-ad84-274c19bc96a0","nonDupes":"","factual_gold":[{"uuid":"2df4ed80-8f09-4471-ad84-274c19bc96a0","name":"Principi di Piemonte","address":"Via Piero Gobetti 15","locality":"Torino","region":"Torino","postcode":"10123","latitude":"45.064994197159315","longitude":"7.681754200459852","tel":"055 151","website":"http:\/\/www.atahotels.it\/hotel\/principi-di-piemonte\/","category_ids":["436"]}]},{"canonical_uuid":"2e9d9d55-42d4-47e2-8705-7f8d70f657ac","nonDupes":"","factual_gold":[{"uuid":"2e9d9d55-42d4-47e2-8705-7f8d70f657ac","name":"Ponte di Rialto","address":null,"locality":"Venezia","region":"Venezia","postcode":"30125","latitude":"45.43806230674328","longitude":"12.335912333469034","tel":"041 250 1801","website":"http:\/\/www.comune.venezia.it","category_ids":["108"]}]},{"canonical_uuid":"301ffb40-463f-45ea-9a9c-db3507c4258e","nonDupes":"","factual_gold":[{"uuid":"301ffb40-463f-45ea-9a9c-db3507c4258e","name":"Porta Ercolano - Scavi","address":"Via Consolare","locality":"Pompei","region":"Napoli","postcode":"80045","latitude":"40.75180111533972","longitude":"14.481198382284564","tel":null,"website":"http:\/\/www.pompeiisites.org\/Sezione.jsp?titolo=Necropolis+of+Porta+Ercolano&idSezione=686","category_ids":["108"]}]},{"canonical_uuid":"30d01814-b123-4c45-bfb0-fd268b80d30b","nonDupes":"","factual_gold":[{"uuid":"30d01814-b123-4c45-bfb0-fd268b80d30b","name":"Museo Archeologico Nazionale delle Marche","address":"Via Gabriele Ferretti 1","locality":"Ancona","region":"Ancona","postcode":"60121","latitude":"43.6227103328684","longitude":"13.510629870637926","tel":"071 202602","website":"http:\/\/www.archeomarche.beniculturali.it","category_ids":["311"]}]},{"canonical_uuid":"31546c68-7f7c-451e-bc8f-9fbe189db2a0","nonDupes":"","factual_gold":[{"uuid":"31546c68-7f7c-451e-bc8f-9fbe189db2a0","name":"David Inn","address":"Via Ricasoli 31 N","locality":"Firenze","region":"Firenze","postcode":"50122","latitude":"43.77615262423104","longitude":"11.257848741810893","tel":"055 213707","website":null,"category_ids":["435"]}]},{"canonical_uuid":"31ceb9de-101d-444c-8ce1-6f28678cc84c","nonDupes":"","factual_gold":[{"uuid":"31ceb9de-101d-444c-8ce1-6f28678cc84c","name":"Galleria Umberto I","address":"Via San Carlo 15","locality":"Napoli","region":"Napoli","postcode":"80132","latitude":"40.83844326370782","longitude":"14.249233796819516","tel":"081 795 1111","website":null,"category_ids":["108","169"]}]},{"canonical_uuid":"320131f7-f4a4-452d-b0d4-8c32d9266840","nonDupes":"","factual_gold":[{"uuid":"320131f7-f4a4-452d-b0d4-8c32d9266840","name":"Museo Nazionale Del Cinema Fondazione Maria Adriana Prolo","address":"Via Montebello 20","locality":"Torino","region":"Torino","postcode":"10124","latitude":"45.06900865800587","longitude":"7.693267368412537","tel":"081 38511","website":"http:\/\/www.museocinema.it","category_ids":["311"]}]},{"canonical_uuid":"35c3c438-f8d4-4381-8c0a-a4abae9b08f7","nonDupes":"","factual_gold":[{"uuid":"35c3c438-f8d4-4381-8c0a-a4abae9b08f7","name":"Piazza Castello","address":"Piazza Castello","locality":"Torino","region":"Torino","postcode":"10123","latitude":"45.07135659806926","longitude":"7.685164370935615","tel":"011 436 1455","website":null,"category_ids":["108"]}]},{"canonical_uuid":"36e63255-ea2e-40e8-8a7c-715d99dddb72","nonDupes":"","factual_gold":[{"uuid":"36e63255-ea2e-40e8-8a7c-715d99dddb72","name":"Museo delle Sinopie","address":"Piazza Duomo 17","locality":"Vicopisano","region":"Pisa","postcode":"56010","latitude":"43.722268674177556","longitude":"10.394830964487435","tel":"050 835011","website":"http:\/\/www.opapisa.it","category_ids":["311"]}]},{"canonical_uuid":"38d7dc44-acbe-4774-aa29-fcd7aeea0f14","nonDupes":"","factual_gold":[{"uuid":"38d7dc44-acbe-4774-aa29-fcd7aeea0f14","name":"Duomo","address":"Piazza Duomo","locality":"Torino","region":"Torino","postcode":"10122","latitude":"45.073646","longitude":"7.684594","tel":null,"website":"http:\/\/www.duomoditorino.it\/","category_ids":["55"]}]},{"canonical_uuid":"3944ac37-e081-4f7b-b862-aa6f91513be1","nonDupes":"","factual_gold":[{"uuid":"3944ac37-e081-4f7b-b862-aa6f91513be1","name":"Grand Hotel Tiziano e dei Congressi","address":"Viale Porta d'Europa","locality":"Lecce","region":"Lecce","postcode":"73100","latitude":"40.36128206072015","longitude":"18.168821632968765","tel":"0832 272111","website":"http:\/\/www.grandhoteltiziano.it","category_ids":["436"]}]},{"canonical_uuid":"3eef7248-5b88-4f7c-89cd-eb7ea56224f1","nonDupes":"","factual_gold":[{"uuid":"3eef7248-5b88-4f7c-89cd-eb7ea56224f1","name":"Borgo Egnazia","address":null,"locality":"Fasano","region":"Brindisi","postcode":"72015","latitude":"40.87519260627768","longitude":"17.395873271793864","tel":"080 225 5000","website":"http:\/\/borgoegnazia.com","category_ids":["436"]}]},{"canonical_uuid":"3ff8cf36-dd95-4d77-92d3-21d3a5a23d18","nonDupes":"","factual_gold":[{"uuid":"3ff8cf36-dd95-4d77-92d3-21d3a5a23d18","name":"Chiesa di San Cataldo","address":"Via Matteo Bonello 2","locality":"Palermo","region":"Palermo","postcode":"90134","latitude":"38.11475393656691","longitude":"13.362481677876705","tel":"091 607 7111","website":"http:\/\/www.diocesipa.it\/","category_ids":["55"]}]},{"canonical_uuid":"4097e684-a705-45e8-b84d-49e125988d03","nonDupes":"","factual_gold":[{"uuid":"4097e684-a705-45e8-b84d-49e125988d03","name":"Verona Villafranca Airport","address":null,"locality":"Sommacampagna","region":"Verona","postcode":"37066","latitude":"45.402826344844776","longitude":"10.906844064937886","tel":"045 809 5666","website":"http:\/\/www.aeroportoverona.it","category_ids":["425"]}]},{"canonical_uuid":"418875f2-04a0-4f59-85ea-689c6ada1115","nonDupes":"","factual_gold":[{"uuid":"418875f2-04a0-4f59-85ea-689c6ada1115","name":"Gole di Alcantara","address":"Via Nazionale 5","locality":"Motta Camastra","region":"Messina","postcode":"98030","latitude":"37.87864379229031","longitude":"15.175420691843808","tel":"0942 985010","website":"http:\/\/www.golealcantara.it\/","category_ids":["112"]}]},{"canonical_uuid":"432f7a8d-7a27-4177-821a-82d04a59ce6c","nonDupes":"","factual_gold":[{"uuid":"432f7a8d-7a27-4177-821a-82d04a59ce6c","name":"Foro triangolare - Scavi","address":null,"locality":"Pompei","region":"Napoli","postcode":"80045","latitude":"40.74825027745986","longitude":"14.486566086010773","tel":null,"website":null,"category_ids":["110"]}]},{"canonical_uuid":"458a5f40-c236-4231-9a7a-645af9a60dc7","nonDupes":"","factual_gold":[{"uuid":"458a5f40-c236-4231-9a7a-645af9a60dc7","name":"Palazzo Reale di Napoli","address":"Piazza del Plebiscito 1","locality":"Napoli","region":"Napoli","postcode":"80132","latitude":"40.836535","longitude":"14.250441","tel":"081 580 8111","website":"http:\/\/palazzorealenapoli.it","category_ids":["110"]}]},{"canonical_uuid":"49889620-997e-4b18-9d66-e40e4310e419","nonDupes":"","factual_gold":[{"uuid":"49889620-997e-4b18-9d66-e40e4310e419","name":"Castello Sforzesco","address":"Piazza Castello","locality":"Milano","region":"Milano","postcode":"20121","latitude":"45.47067543298964","longitude":"9.179001500386304","tel":"02 8846 3700","website":"http:\/\/www.milanocastello.it","category_ids":["311"]}]},{"canonical_uuid":"4c2cf957-6c2c-4d4b-8a85-bde54304ef4a","nonDupes":"","factual_gold":[{"uuid":"4c2cf957-6c2c-4d4b-8a85-bde54304ef4a","name":"San Donato","address":"Via San Donato 10","locality":"Genova","region":"Genova","postcode":"16123","latitude":"44.40595307717713","longitude":"8.931506648089504","tel":"010 246 8869","website":"http:\/\/www.sandonato.org\/","category_ids":["55"]}]},{"canonical_uuid":"4d48343e-0607-42f2-80bc-6cafdf1e3f82","nonDupes":"","factual_gold":[{"uuid":"4d48343e-0607-42f2-80bc-6cafdf1e3f82","name":"Discoteca BELVEDERE","address":"Localit\u00e0 Pocol 38","locality":"Cortina d'Ampezzo","region":"Belluno","postcode":"32043","latitude":"46.52516111273099","longitude":"12.117481424684797","tel":"333 279 3363","website":"http:\/\/www.belvederecortina.com","category_ids":["334"]}]},{"canonical_uuid":"4e6240ac-dd56-4659-86f8-045505cedb32","nonDupes":"","factual_gold":[{"uuid":"4e6240ac-dd56-4659-86f8-045505cedb32","name":"Aeroporto di Parma","address":"Via Licinio Ferretti 50A","locality":"Parma","region":"Parma","postcode":"43126","latitude":"44.82141000333207","longitude":"10.297579028537431","tel":"0521 9515","website":"http:\/\/www.parma-airport.it","category_ids":["425"]}]},{"canonical_uuid":"4e981151-996b-4a73-bd51-df358478764a","nonDupes":"","factual_gold":[{"uuid":"4e981151-996b-4a73-bd51-df358478764a","name":"Bologna Guglielmo Marconi Airport","address":"Via del Triumvirato 84","locality":"Bologna","region":"Bologna","postcode":"40132","latitude":"44.53440227465088","longitude":"11.28880838697208","tel":"051 647 9615","website":"http:\/\/www.bologna-airport.it","category_ids":["462"]}]},{"canonical_uuid":"4efb3059-11b9-435f-91c3-f1f92ebae090","nonDupes":"","factual_gold":[{"uuid":"4efb3059-11b9-435f-91c3-f1f92ebae090","name":"Museo Nazionale di Castel Sant'Angelo","address":"Lungotevere Castello 50","locality":"Roma","region":"Roma","postcode":"00193","latitude":"41.90308082562007","longitude":"12.46633695969595","tel":"06 689 6003","website":"http:\/\/castelsantangelo.beniculturali.it\/","category_ids":["311"]}]},{"canonical_uuid":"50e1d2dc-8e17-4bea-918e-fe7005b3c189","nonDupes":"","factual_gold":[{"uuid":"50e1d2dc-8e17-4bea-918e-fe7005b3c189","name":"Basilica S. Maria Assunta","address":"Piazza Pecori 2","locality":"San Gimignano","region":"Siena","postcode":"53037","latitude":"43.467605","longitude":"11.042519","tel":"0577 940316","website":null,"category_ids":["55"]}]},{"canonical_uuid":"51853db8-a273-47f8-bb7e-51058e292992","nonDupes":"","factual_gold":[{"uuid":"51853db8-a273-47f8-bb7e-51058e292992","name":"Badia Vecchia - Badiazza","address":"Via Piazza Cappuccini","locality":"Taormina","region":"Messina","postcode":"98039","latitude":"37.855206997440085","longitude":"15.287963141152199","tel":null,"website":null,"category_ids":["111"]}]},{"canonical_uuid":"535825f1-3188-4a9f-825f-db77bcd7dedf","nonDupes":"","factual_gold":[{"uuid":"535825f1-3188-4a9f-825f-db77bcd7dedf","name":"Aeroporto di Capodichino","address":null,"locality":"Napoli","region":"Napoli","postcode":"80144","latitude":"40.87750657989188","longitude":"14.282705220437153","tel":"081 789 6111","website":"http:\/\/www.gesac.it","category_ids":["462"]}]},{"canonical_uuid":"536b0a3f-ab0b-4796-b6e6-7a0bf5c807c4","nonDupes":"","factual_gold":[{"uuid":"536b0a3f-ab0b-4796-b6e6-7a0bf5c807c4","name":"Piazza San Marco","address":"Piazza San Marco","locality":"Venezia","region":"Venezia","postcode":"30100","latitude":"45.4340596103497","longitude":"12.338681571237519","tel":"041 724 1040","website":null,"category_ids":["110"]}]},{"canonical_uuid":"53c89f70-80a4-40c4-9c2a-f0b138668cc6","nonDupes":"","factual_gold":[{"uuid":"53c89f70-80a4-40c4-9c2a-f0b138668cc6","name":"Aeroporto d'Abruzzo","address":"Via Tiburtina Km 229.100","locality":"Pescara","region":"Pescara","postcode":"65131","latitude":"42.431672","longitude":"14.185202","tel":"895 898 9512","website":"http:\/\/www.abruzzoairport.com\/","category_ids":["462"]}]},{"canonical_uuid":"558ec0ee-3f65-4671-8aec-6a8a3b51f6f9","nonDupes":"","factual_gold":[{"uuid":"558ec0ee-3f65-4671-8aec-6a8a3b51f6f9","name":"Cagliari Elmas Airport","address":"Via dei Trasvolatori","locality":"Diamante","region":"Cagliari","postcode":"09030","latitude":"39.25391626114676","longitude":"9.060298631032925","tel":"070 211211","website":"http:\/\/www.sogaer.it","category_ids":["425"]}]},{"canonical_uuid":"55978d4c-a058-4348-9fb5-047ba90f830c","nonDupes":"","factual_gold":[{"uuid":"55978d4c-a058-4348-9fb5-047ba90f830c","name":"Pisa International Airport","address":"Piazzale d'Ascanio 1","locality":"Pisa","region":"Pisa","postcode":"56121","latitude":"43.69832613380951","longitude":"10.400127132787654","tel":"050 849111","website":"http:\/\/www.pisa-airport.com","category_ids":["425"]}]},{"canonical_uuid":"559fcf6d-8d04-4753-9655-8691ad1682f9","nonDupes":"","factual_gold":[{"uuid":"559fcf6d-8d04-4753-9655-8691ad1682f9","name":"Pantheon","address":"Piazza della Rotonda","locality":"Roma","region":"Roma","postcode":"00186","latitude":"41.898613927794344","longitude":"12.47687651888188","tel":"06 6830 0230","website":"http:\/\/www.polomusealelazio.beniculturali.it\/index.php?it\/232\/pantheon","category_ids":["111"]}]},{"canonical_uuid":"58500f20-b758-41ee-8bbf-1e2c7b6cb372","nonDupes":"","factual_gold":[{"uuid":"58500f20-b758-41ee-8bbf-1e2c7b6cb372","name":"Aeroporto dello Stretto","address":"Via Ravagnese 11","locality":"Reggio Calabria","region":"Reggio Calabria","postcode":"89131","latitude":"38.071944","longitude":"15.653333","tel":"0965 640517","website":"http:\/\/www.aeroportodellostretto.it\/","category_ids":["425"]}]},{"canonical_uuid":"59b356b3-da08-40b7-b369-b28d79a79492","nonDupes":"","factual_gold":[{"uuid":"59b356b3-da08-40b7-b369-b28d79a79492","name":"Duomo di Milano","address":"Piazza del Duomo","locality":"Milano","region":"Milano","postcode":"20122","latitude":"45.464188406280535","longitude":"9.191566047297634","tel":"02 7202 2656","website":"http:\/\/www.duomomilano.it","category_ids":["108"]}]},{"canonical_uuid":"5cc79d4e-fd29-46a5-8370-35c834dda2c9","nonDupes":"","factual_gold":[{"uuid":"5cc79d4e-fd29-46a5-8370-35c834dda2c9","name":"Palazzo Carignano","address":"Via Accademia delle Scienze 5","locality":"Torino","region":"Torino","postcode":"10123","latitude":"45.068949446874356","longitude":"7.6856546168731095","tel":"0564 1711","website":"http:\/\/polomusealepiemonte.beniculturali.it","category_ids":["110","311"]}]},{"canonical_uuid":"5f3cf58d-2c73-4078-b391-7309f4567e2f","nonDupes":"","factual_gold":[{"uuid":"5f3cf58d-2c73-4078-b391-7309f4567e2f","name":"San Piero a Grado","address":"Via Vecchia di Marina 5","locality":"Vicopisano","region":"Pisa","postcode":"56010","latitude":"43.679698911949544","longitude":"10.34681873623966","tel":"050 960065","website":null,"category_ids":["55"]}]},{"canonical_uuid":"5f6c3b2c-6a99-495e-8f4a-fd89aa98ca48","nonDupes":"","factual_gold":[{"uuid":"5f6c3b2c-6a99-495e-8f4a-fd89aa98ca48","name":"San Geremia","address":"Campo S. Geremia 334","locality":"Venezia","region":"Venezia","postcode":"30121","latitude":"45.443287360050654","longitude":"12.324549162845209","tel":null,"website":null,"category_ids":["55"]}]},{"canonical_uuid":"6005ebbe-bd2e-4b0f-8175-c282806c7038","nonDupes":"","factual_gold":[{"uuid":"6005ebbe-bd2e-4b0f-8175-c282806c7038","name":"Piccolo Teatro Grassi","address":"Via Rovello 2","locality":"Milano","region":"Milano","postcode":"20121","latitude":"45.46659294509646","longitude":"9.185083822735585","tel":"02 4241 1889","website":"http:\/\/www.piccoloteatro.org\/","category_ids":["333"]}]},{"canonical_uuid":"636a70a2-7249-464e-825e-1c616fbb93ff","nonDupes":"","factual_gold":[{"uuid":"636a70a2-7249-464e-825e-1c616fbb93ff","name":"La Cattedrale di San Rufino","address":"Piazza San Rufino 3","locality":"Assisi","region":"Perugia","postcode":"06081","latitude":"43.07033523995771","longitude":"12.617771940480834","tel":"075 812712","website":"http:\/\/www.assisimuseodiocesano.it\/","category_ids":["55","311"]}]},{"canonical_uuid":"63e2d2df-5134-4640-96a7-b6f5d6df3e0a","nonDupes":"","factual_gold":[{"uuid":"63e2d2df-5134-4640-96a7-b6f5d6df3e0a","name":"Da Gelsomina","address":"Via Migliara 72","locality":"Anacapri","region":"Napoli","postcode":"80071","latitude":"40.54080649395585","longitude":"14.210050549832225","tel":"081 837 1499","website":"http:\/\/www.dagelsomina.com","category_ids":["433","436"]}]},{"canonical_uuid":"641fe4d5-0adf-4f89-a671-774f1b797519","nonDupes":"","factual_gold":[{"uuid":"641fe4d5-0adf-4f89-a671-774f1b797519","name":"Museo Nazionale di S. Matteo","address":"Piazza S. Matteo In Soarta 1","locality":"Pisa","region":"Pisa","postcode":"56126","latitude":"43.714635868378174","longitude":"10.407897106307471","tel":"050 541865","website":"http:\/\/www.grafica.arti.beniculturali.it","category_ids":["311"]}]},{"canonical_uuid":"65a608b7-2a8a-431e-8a91-8e89ef2e915c","nonDupes":"","factual_gold":[{"uuid":"65a608b7-2a8a-431e-8a91-8e89ef2e915c","name":"Fiumicino \u2013 Leonardo da Vinci International Airport","address":"Via dell'Aeroporto di Fiumicino 320","locality":"Fiumicino","region":"Roma","postcode":"00054","latitude":"41.795107727369384","longitude":"12.254300916546903","tel":"06 65951","website":"http:\/\/www.adr.it\/fiumicino","category_ids":["425"]}]},{"canonical_uuid":"665669d5-72d8-467f-9e48-80bc3a8a489a","nonDupes":"","factual_gold":[{"uuid":"665669d5-72d8-467f-9e48-80bc3a8a489a","name":"Aeroporto di Crotone S. Anna","address":"Strada Statale 106","locality":"Isola di Capo Rizzuto","region":"Crotone","postcode":"88841","latitude":"38.995311","longitude":"17.079504","tel":"0962 794388","website":"http:\/\/www.aeroporto.kr.it\/","category_ids":["425"]}]},{"canonical_uuid":"6bd6509d-ce81-4805-9e55-5a7e124131ec","nonDupes":"","factual_gold":[{"uuid":"6bd6509d-ce81-4805-9e55-5a7e124131ec","name":"Battistero di San Giovanni","address":"Piazza di San Giovanni","locality":"Firenze","region":"Firenze","postcode":"50122","latitude":"43.723284291887516","longitude":"10.394182628522227","tel":"055 230 2885","website":"http:\/\/www.opapisa.it","category_ids":["108"]}]},{"canonical_uuid":"6eb8a9c7-0876-4924-b9ff-635e5328b1ea","nonDupes":"","factual_gold":[{"uuid":"6eb8a9c7-0876-4924-b9ff-635e5328b1ea","name":"Villa di Giulia Felice - Scavi","address":null,"locality":"Pompei","region":"Napoli","postcode":"80045","latitude":"40.75184880630661","longitude":"14.493371333773505","tel":null,"website":null,"category_ids":["110"]}]},{"canonical_uuid":"6fb0c38b-2d93-460f-a0d3-7bffa3c4f1ab","nonDupes":"","factual_gold":[{"uuid":"6fb0c38b-2d93-460f-a0d3-7bffa3c4f1ab","name":"Zattere","address":"Campo Santa Agnese, Dorsoduro 809","locality":"Venezia","region":"Venezia","postcode":"30123","latitude":"45.429954088339535","longitude":"12.324501946316582","tel":null,"website":"http:\/\/www.officinadellezattere.it\/","category_ids":["117"]}]},{"canonical_uuid":"70b084d5-47b7-4ab0-8b7c-5adc6fde1c48","nonDupes":"","factual_gold":[{"uuid":"70b084d5-47b7-4ab0-8b7c-5adc6fde1c48","name":"Tempio di Giove - Scavi","address":"Via degli Augustali","locality":"Pompei","region":"Napoli","postcode":"80045","latitude":"40.74920545399606","longitude":"14.488650796770095","tel":null,"website":"http:\/\/www.pompeiisites.org\/Sezione.jsp?titolo=Tempio+di+Giove+(VII,8,1)&idSezione=133","category_ids":["110"]}]},{"canonical_uuid":"7102080e-eb32-4fbe-9bcb-8e1221c298ea","nonDupes":"","factual_gold":[{"uuid":"7102080e-eb32-4fbe-9bcb-8e1221c298ea","name":"Torre di Mercurio","address":"Via di Mercurio","locality":"Pompei","region":"Napoli","postcode":"80045","latitude":"40.75276649383866","longitude":"14.482851495625415","tel":null,"website":"http:\/\/viaggi.michelin.it\/web\/destinazione\/Italia-Italia_Centro_Sud-Napoli_e_la_Campania-Pompei\/sito-Torre_di_Mercurio-v_i_Mercurio","category_ids":["110"]}]},{"canonical_uuid":"72687d26-77c4-4453-886a-26a607e19b1a","nonDupes":"","factual_gold":[{"uuid":"72687d26-77c4-4453-886a-26a607e19b1a","name":"Hotel Piazza di Spagna","address":"Via Mario D\u00e8 Fiori 61","locality":"Roma","region":"Roma","postcode":"00187","latitude":"41.90619237824162","longitude":"12.48092795439905","tel":"06 679 6412","website":null,"category_ids":["436"]}]},{"canonical_uuid":"726a467b-622e-45ba-8436-a561e35fea1c","nonDupes":"","factual_gold":[{"uuid":"726a467b-622e-45ba-8436-a561e35fea1c","name":"Castello Normanno-Svevo","address":"Piazza Federico II di Svevia","locality":"Cosenza","region":"Cosenza","postcode":"87100","latitude":"39.2864062719024","longitude":"16.257546020512027","tel":"0984 27485","website":"http:\/\/www.castellocosenza.it","category_ids":["110"]}]},{"canonical_uuid":"7349966c-9084-462e-98f0-adbdb47679f0","nonDupes":"","factual_gold":[{"uuid":"7349966c-9084-462e-98f0-adbdb47679f0","name":"Palazzo Reale di Torino","address":"Piazzetta Reale 1","locality":"Torino","region":"Torino","postcode":"10122","latitude":"45.072834","longitude":"7.686332","tel":"0436 1455","website":"http:\/\/www.ilpalazzorealeditorino.it","category_ids":["311"]}]},{"canonical_uuid":"73761b1d-2cbf-4d21-8a5a-b426cfe80b13","nonDupes":"","factual_gold":[{"uuid":"73761b1d-2cbf-4d21-8a5a-b426cfe80b13","name":"Eremo delle Carceri","address":"Via Eremo delle Carceri 1A","locality":"Assisi","region":"Perugia","postcode":"06081","latitude":"43.06305251641615","longitude":"12.652128386412953","tel":"075 812301","website":"https:\/\/www.assisiofm.it\/eremo-delle-carceri-assisi-103-1.html","category_ids":["55"]}]},{"canonical_uuid":"770d13b8-a067-4c39-bbd6-8ec9ec135ce3","nonDupes":"","factual_gold":[{"uuid":"770d13b8-a067-4c39-bbd6-8ec9ec135ce3","name":"Reggia di Venaria Reale","address":"Piazza della Repubblica 4","locality":"Venaria Reale","region":"Torino","postcode":"10078","latitude":"45.13558028367006","longitude":"7.623819985879562","tel":"011 499 2333","website":"http:\/\/www.lavenaria.it","category_ids":["108","311"]}]},{"canonical_uuid":"77612a18-cd7d-4e22-8a90-463634c79621","nonDupes":"","factual_gold":[{"uuid":"77612a18-cd7d-4e22-8a90-463634c79621","name":"Terme di Caracalla","address":"Viale delle Terme di Caracalla 52","locality":"Roma","region":"Roma","postcode":"00153","latitude":"41.879049407186535","longitude":"12.492617708503557","tel":"06 3996 7700","website":"http:\/\/www.archeorm.arti.beniculturali.it\/siti-archeologici\/terme-caracalla","category_ids":["110"]}]},{"canonical_uuid":"7878917e-c180-42de-a672-6a58398639c2","nonDupes":"","factual_gold":[{"uuid":"7878917e-c180-42de-a672-6a58398639c2","name":"Curia Julia","address":"Via Sacra 1","locality":"Roma","region":"Roma","postcode":"00186","latitude":"41.89295375760887","longitude":"12.485396425496674","tel":null,"website":null,"category_ids":["110"]}]},{"canonical_uuid":"7bc20bca-f778-4db6-a6cd-b51795e5fed0","nonDupes":"","factual_gold":[{"uuid":"7bc20bca-f778-4db6-a6cd-b51795e5fed0","name":"Palazzo Rucellai","address":"Via della Vigna Nuova 18","locality":"Firenze","region":"Firenze","postcode":"50123","latitude":"43.771266974409066","longitude":"11.249527752880148","tel":null,"website":"http:\/\/isiflorence.org\/about\/facilities\/palazzo-rucellai-piano-nobile\/","category_ids":["110"]}]},{"canonical_uuid":"7bf67009-9fc9-4a86-b6cd-6cdabc03c568","nonDupes":"","factual_gold":[{"uuid":"7bf67009-9fc9-4a86-b6cd-6cdabc03c568","name":"Oratorio del Rosario di San Domenico","address":"Via dei Bambinai 18","locality":"Palermo","region":"Palermo","postcode":"90133","latitude":"38.11970244145533","longitude":"13.364006091673264","tel":"091 332779","website":"http:\/\/www.ilgeniodipalermo.com\/itinerari\/il-circuito-del-sacro\/oratorio-ss-rosario-in-s-domenico.html","category_ids":["110"]}]},{"canonical_uuid":"7eeecc7b-d18e-409d-a93c-4a18e1841b4b","nonDupes":"","factual_gold":[{"uuid":"7eeecc7b-d18e-409d-a93c-4a18e1841b4b","name":"Aeroporto di Pantelleria","address":"Contrada Margana","locality":"Pantelleria","region":"Trapani","postcode":"91017","latitude":"36.815033","longitude":"11.967049","tel":"0923 911398","website":"http:\/\/www.aeroportodipantelleria.it\/","category_ids":["425"]}]},{"canonical_uuid":"7f5bf76f-00ae-4c06-8049-bc049e54ec99","nonDupes":"","factual_gold":[{"uuid":"7f5bf76f-00ae-4c06-8049-bc049e54ec99","name":"Colonna Traiana","address":"Via dei Fori Imperiali","locality":"Roma","region":"Roma","postcode":"00187","latitude":"41.89582158824449","longitude":"12.48426407575582","tel":null,"website":"http:\/\/www.060608.it\/it\/cultura-e-svago\/beni-culturali\/beni-archeologici\/colonna-traiana.html","category_ids":["111"]}]},{"canonical_uuid":"804e0534-8e9c-4592-998f-e1cc1e323664","nonDupes":"","factual_gold":[{"uuid":"804e0534-8e9c-4592-998f-e1cc1e323664","name":"Aeroporto di Milano Linate","address":"Viale Enrico Forlanini","locality":"Segrate","region":"Milano","postcode":"20090","latitude":"45.452176","longitude":"9.276308","tel":"02 232323","website":"http:\/\/milanolinate-airport.com","category_ids":["462"]}]},{"canonical_uuid":"83272f0c-688e-4fd3-a7f1-6c6afcf24ee7","nonDupes":"","factual_gold":[{"uuid":"83272f0c-688e-4fd3-a7f1-6c6afcf24ee7","name":"Aeroporto di Brescia - Montichiari","address":"Via Aeroporto 34","locality":"Montichiari","region":"Brescia","postcode":"25018","latitude":"45.425581","longitude":"10.327008","tel":"045 809 5666","website":"http:\/\/www.aeroportobrescia.it","category_ids":["425"]}]},{"canonical_uuid":"8499bd88-a155-4bcc-9543-a272ee0a9d5d","nonDupes":"","factual_gold":[{"uuid":"8499bd88-a155-4bcc-9543-a272ee0a9d5d","name":"Basilica di San Giovanni in Laterano","address":"Piazza di San Giovanni in Laterano 4","locality":"Roma","region":"Roma","postcode":"00184","latitude":"41.8858869832485","longitude":"12.505605359815362","tel":"06 6988 6433","website":null,"category_ids":["55"]}]},{"canonical_uuid":"859d9c62-0ab1-491b-afe5-6da082da8733","nonDupes":"","factual_gold":[{"uuid":"859d9c62-0ab1-491b-afe5-6da082da8733","name":"Aeroporto di Treviso","address":"Via Noalese 63E","locality":"Treviso","region":"Treviso","postcode":"31100","latitude":"45.65474802678302","longitude":"12.204680836907077","tel":"0422 315111","website":"http:\/\/www.trevisoairport.it","category_ids":["425"]}]},{"canonical_uuid":"87d05af0-b657-462d-9255-3ca856b65989","nonDupes":"","factual_gold":[{"uuid":"87d05af0-b657-462d-9255-3ca856b65989","name":"Galleria Sabauda","address":"Piazzetta Reale 1","locality":"Torino","region":"Torino","postcode":"10122","latitude":"45.07412753716404","longitude":"7.686155764171746","tel":"011 521 1106","website":"https:\/\/www.museireali.beniculturali.it\/","category_ids":["310","311"]}]},{"canonical_uuid":"88d2fd15-9f87-47d8-9ff9-6c4ec6095008","nonDupes":"","factual_gold":[{"uuid":"88d2fd15-9f87-47d8-9ff9-6c4ec6095008","name":"Fiera Milano","address":"Strada Statale del Sempione 28","locality":"Rho","region":"Milano","postcode":"20017","latitude":"45.52010276483259","longitude":"9.07905809905704","tel":"800 820 029","website":"http:\/\/www.fieramilano.it","category_ids":["108","333"]}]},{"canonical_uuid":"898d26e1-dc1d-4e82-9712-12a624fea93a","nonDupes":"","factual_gold":[{"uuid":"898d26e1-dc1d-4e82-9712-12a624fea93a","name":"Chiesa dei Santi Giovanni e Reparata","address":"Piazza San Giovanni","locality":"Lucca","region":"Lucca","postcode":"55100","latitude":"43.841357876145985","longitude":"10.503672730717152","tel":"0583 480530","website":"http:\/\/comune.lucca.it","category_ids":["55"]}]},{"canonical_uuid":"8a371e90-417d-4317-b1cc-e0575ebf2126","nonDupes":"","factual_gold":[{"uuid":"8a371e90-417d-4317-b1cc-e0575ebf2126","name":"Giardino della Villa di Castello","address":"Via di Castello 47","locality":"Firenze","region":"Firenze","postcode":"50141","latitude":"43.819739045271305","longitude":"11.228498317410489","tel":"055 452691","website":"http:\/\/www.polomusealetoscana.beniculturali.it\/index.php?it\/174\/firenze-giardino-della-villa-di-castello","category_ids":["108"]}]},{"canonical_uuid":"8af36feb-78eb-491a-ac96-07ae7d33a3ce","nonDupes":"","factual_gold":[{"uuid":"8af36feb-78eb-491a-ac96-07ae7d33a3ce","name":"Museo archeologico regionale","address":"Contrada San Nicola 12","locality":"Agrigento","region":"Agrigento","postcode":"92100","latitude":"37.29695435230294","longitude":"13.589084727194559","tel":"0922 401565","website":"http:\/\/www.regione.sicilia.it\/","category_ids":["311"]}]},{"canonical_uuid":"8bed8d3e-5c42-4005-ba56-97628f99a414","nonDupes":"","factual_gold":[{"uuid":"8bed8d3e-5c42-4005-ba56-97628f99a414","name":"Palazzo Piccolomini","address":null,"locality":"Siena","region":"Siena","postcode":"53100","latitude":"43.3189020008656","longitude":"11.332839936223166","tel":"0577 40563","website":null,"category_ids":["110"]}]},{"canonical_uuid":"8cc5fe7e-a7b9-44a3-befa-10f4961dc101","nonDupes":"","factual_gold":[{"uuid":"8cc5fe7e-a7b9-44a3-befa-10f4961dc101","name":"Cattedrale di Santa Maria del Fiore","address":"Piazza del Duomo","locality":"Firenze","region":"Firenze","postcode":"50122","latitude":"43.773128048503516","longitude":"11.256621504619915","tel":"055 230 2885","website":"http:\/\/ilgrandemuseodelduomo.it\/#cattedrale","category_ids":["55","110"]}]},{"canonical_uuid":"8d2dea4d-f8fa-4f53-91f1-354124c4d91f","nonDupes":"","factual_gold":[{"uuid":"8d2dea4d-f8fa-4f53-91f1-354124c4d91f","name":"Museo delle Porcellane","address":"Piazza de Pitti","locality":"Firenze","region":"Firenze","postcode":"50125","latitude":"43.76190010885828","longitude":"11.252412216388251","tel":"055 238 8709","website":"http:\/\/www.polomuseale.firenze.it\/musei\/?m=porcellane","category_ids":["311"]}]},{"canonical_uuid":"8d89508e-a62f-4dfb-a97d-681c2a9ff52a","nonDupes":"","factual_gold":[{"uuid":"8d89508e-a62f-4dfb-a97d-681c2a9ff52a","name":"Cattedrale di Santa Maria","address":"Piazza Duomo","locality":"Alghero","region":"Sassari","postcode":"07041","latitude":"40.559096","longitude":"8.312667","tel":"079 979222","website":"http:\/\/www.diocesialghero-bosa.it","category_ids":["55"]}]},{"canonical_uuid":"8f045adc-0db0-4f09-9034-591ac0a77257","nonDupes":"","factual_gold":[{"uuid":"8f045adc-0db0-4f09-9034-591ac0a77257","name":"Castel Nuovo","address":"Via Vittorio Emanuele III","locality":"Napoli","region":"Napoli","postcode":"80133","latitude":"40.838344291905024","longitude":"14.253358504380092","tel":"081 795 7722","website":"http:\/\/www.comune.napoli.it","category_ids":["110"]}]},{"canonical_uuid":"91196666-2200-4deb-a8b6-01073919a663","nonDupes":"","factual_gold":[{"uuid":"91196666-2200-4deb-a8b6-01073919a663","name":"Scuola Grande di San Rocco","address":"San Polo 3052","locality":"Venezia","region":"Venezia","postcode":"30125","latitude":"45.436533773922356","longitude":"12.325302402437408","tel":"041 523 4864","website":"http:\/\/www.scuolagrandesanrocco.it","category_ids":["110","311"]}]},{"canonical_uuid":"91297002-4f75-472e-b763-bc068e31b9e5","nonDupes":"","factual_gold":[{"uuid":"91297002-4f75-472e-b763-bc068e31b9e5","name":"Trieste \u2013 Friuli Venezia Giulia Airport","address":"Via Aquileia 46","locality":"Ronchi dei Legionari","region":"Gorizia","postcode":"34077","latitude":"45.82134598048973","longitude":"13.485385227395259","tel":"0481 773224","website":"https:\/\/triesteairport.it\/it\/airport\/","category_ids":["425"]}]},{"canonical_uuid":"915d10af-f747-475c-bfd2-f46dafb03e7a","nonDupes":"","factual_gold":[{"uuid":"915d10af-f747-475c-bfd2-f46dafb03e7a","name":"Aeroporto Elba Marina di Campo","address":"Via dell'Aeroporto 208","locality":"Campo nell'Elba","region":"Livorno","postcode":"57034","latitude":"42.761462","longitude":"10.239621","tel":"0565 976011","website":"http:\/\/www.elbaisland-airport.it\/","category_ids":["425"]}]},{"canonical_uuid":"9206ae0c-d809-4068-b59d-6acbb29c77a5","nonDupes":"","factual_gold":[{"uuid":"9206ae0c-d809-4068-b59d-6acbb29c77a5","name":"Galleria Civica D'Arte Moderna Empedocle Restivo","address":"Via Sant'Anna 21","locality":"Palermo","region":"Palermo","postcode":"90135","latitude":"38.11799225622383","longitude":"13.340377864155295","tel":"091 843 1605","website":"http:\/\/www.galleriadartemodernapalermo.it","category_ids":["310"]}]},{"canonical_uuid":"922520bf-cacf-4296-b8cb-351de282409d","nonDupes":"","factual_gold":[{"uuid":"922520bf-cacf-4296-b8cb-351de282409d","name":"Aeroporto di Ancona-Falconara","address":"Piazzale Sordoni","locality":"Falconara Marittima","region":"Ancona","postcode":"60015","latitude":"43.61526062972748","longitude":"13.36185183411955","tel":"071 28271","website":"http:\/\/www.ancona-airport.com","category_ids":["425"]}]},{"canonical_uuid":"939a718b-fa89-4f13-8fb3-81e584d89b7b","nonDupes":"","factual_gold":[{"uuid":"939a718b-fa89-4f13-8fb3-81e584d89b7b","name":"Piazza della Cisterna","address":"Piazza della Cisterna","locality":"San Gimignano","region":"Siena","postcode":"53037","latitude":"43.46741089851884","longitude":"11.043684274601494","tel":"0577 940328","website":"http:\/\/www.hotelcisterna.it\/","category_ids":["110"]}]},{"canonical_uuid":"94ba0049-7bec-4e01-8536-3a7c8989c8a0","nonDupes":"","factual_gold":[{"uuid":"94ba0049-7bec-4e01-8536-3a7c8989c8a0","name":"Musei Vaticani","address":"Viale Vaticano","locality":"Roma","region":"Roma","postcode":"00165","latitude":"41.904520278947516","longitude":"12.454771182031829","tel":"06 6988 4676","website":"http:\/\/www.museivaticani.va\/","category_ids":["311"]}]},{"canonical_uuid":"95f356db-01bd-436d-80ee-dd4b9bab2a79","nonDupes":"","factual_gold":[{"uuid":"95f356db-01bd-436d-80ee-dd4b9bab2a79","name":"Foro Romano","address":"Via della Salaria Vecchia 5","locality":"Roma","region":"Roma","postcode":"00186","latitude":"41.89240170904846","longitude":"12.485109437567464","tel":"06 0608","website":null,"category_ids":["110"]}]},{"canonical_uuid":"99968bd8-c5f2-4828-a063-8c7089589ffe","nonDupes":"","factual_gold":[{"uuid":"99968bd8-c5f2-4828-a063-8c7089589ffe","name":"Palazzo Vecchio","address":"Piazza della Signoria","locality":"Firenze","region":"Firenze","postcode":"50122","latitude":"43.76970197195922","longitude":"11.255871314407374","tel":"055 276 8325","website":"http:\/\/museicivicifiorentini.comune.fi.it\/palazzovecchio","category_ids":["311"]}]},{"canonical_uuid":"a3bf8229-ddad-4fc3-acb8-428986b2e869","nonDupes":"","factual_gold":[{"uuid":"a3bf8229-ddad-4fc3-acb8-428986b2e869","name":"Battistero Neoniano","address":"Piazza Duomo 1","locality":"Ravenna","region":"Ravenna","postcode":"48121","latitude":"44.415624309254746","longitude":"12.197301639611181","tel":"0544 541688","website":"http:\/\/www.ravennamosaici.it\/?page_id=29","category_ids":["53"]}]},{"canonical_uuid":"a5711af0-01a7-4924-b430-21909215ec77","nonDupes":"","factual_gold":[{"uuid":"a5711af0-01a7-4924-b430-21909215ec77","name":"Palazzo della Cancelleria","address":"Piazza della Cancelleria 68","locality":"Roma","region":"Roma","postcode":"00186","latitude":"41.89669140113536","longitude":"12.471610173339995","tel":"06 6988 7616","website":null,"category_ids":["110"]}]},{"canonical_uuid":"a68beff6-f227-4559-aeed-fc7073c96bc3","nonDupes":"","factual_gold":[{"uuid":"a68beff6-f227-4559-aeed-fc7073c96bc3","name":"Villa Borghese","address":"Piazzale Napoleone I","locality":"Roma","region":"Roma","postcode":"00197","latitude":"41.9131459659223","longitude":"12.483342850487803","tel":"06 0608","website":"http:\/\/www.sovraintendenzaroma.it\/i_luoghi\/ville_e_parchi_storici\/ville_dei_nobili\/villa_borghese","category_ids":["109"]}]},{"canonical_uuid":"a7793761-573f-479e-bf3a-af019d4059b0","nonDupes":"","factual_gold":[{"uuid":"a7793761-573f-479e-bf3a-af019d4059b0","name":"Valle dei Templi","address":"Strada Panoramica dei Templi","locality":"Agrigento","region":"Agrigento","postcode":"92100","latitude":"37.29087716875601","longitude":"13.584298865320685","tel":"0922 621657","website":null,"category_ids":["110"]}]},{"canonical_uuid":"a8766e86-ceb3-43bf-8a4c-a9a5589b14e9","nonDupes":"","factual_gold":[{"uuid":"a8766e86-ceb3-43bf-8a4c-a9a5589b14e9","name":"Mausoleo di Teodorico","address":"Via delle Industrie 14","locality":"Ravenna","region":"Ravenna","postcode":"48122","latitude":"44.425044526083234","longitude":"12.20913758651724","tel":"0544 543710","website":"http:\/\/www.polomusealeemiliaromagna.beniculturali.it\/musei\/mausoleo-di-teodorico","category_ids":["111"]}]},{"canonical_uuid":"a95d9b22-8e61-463f-ac5d-55e05d82127f","nonDupes":"","factual_gold":[{"uuid":"a95d9b22-8e61-463f-ac5d-55e05d82127f","name":"Bastione di Santa Caterina","address":"Via San Giuseppe","locality":"Cagliari","region":"Cagliari","postcode":"09124","latitude":"39.21673320173957","longitude":"9.116468383185769","tel":null,"website":"http:\/\/www.cagliariturismo.it\/it\/luoghi\/i-luoghi-della-storia-316\/monumenti-80\/bastione-di-santa-caterina-280","category_ids":["108"]}]},{"canonical_uuid":"a999690f-8f92-487e-9f4b-c5e9d6d21f52","nonDupes":"","factual_gold":[{"uuid":"a999690f-8f92-487e-9f4b-c5e9d6d21f52","name":"Aeroporto di Firenze, Peretola","address":"Via del Termine 11","locality":"Firenze","region":"Firenze","postcode":"50127","latitude":"43.802529968017275","longitude":"11.201342149162542","tel":"055 30615","website":"http:\/\/www.aeroporto.firenze.it","category_ids":["425"]}]},{"canonical_uuid":"abc5a182-fb17-406c-8a34-635220edcf9c","nonDupes":"","factual_gold":[{"uuid":"abc5a182-fb17-406c-8a34-635220edcf9c","name":"Cattedrale di Bari","address":"Piazza dell'Odegitria 1","locality":"Bari","region":"Bari","postcode":"70122","latitude":"41.128545192279105","longitude":"16.86907938811076","tel":"080 521 0605","website":"http:\/\/www.arcidiocesibaribitonto.it\/luoghi-di-culto\/cattedrale\/view","category_ids":["55"]}]},{"canonical_uuid":"aca15a5a-bbbd-4ad9-a37a-dc59b6a1630e","nonDupes":"","factual_gold":[{"uuid":"aca15a5a-bbbd-4ad9-a37a-dc59b6a1630e","name":"Cenacolo Vinciano","address":"Piazza Santa Maria delle Grazie 2","locality":"Milano","region":"Milano","postcode":"20123","latitude":"45.465975459702975","longitude":"9.17113953456583","tel":"02 9280 0360","website":"http:\/\/www.cenacolovinciano.net","category_ids":["311"]}]},{"canonical_uuid":"adaebb3e-1810-4920-885d-99f3f4a1dc8e","nonDupes":"","factual_gold":[{"uuid":"adaebb3e-1810-4920-885d-99f3f4a1dc8e","name":"Biblioteca Nazionale Universitaria di Torino","address":"Piazza Carlo Alberto 3","locality":"Torino","region":"Torino","postcode":"10123","latitude":"45.06838620271174","longitude":"7.687107574200212","tel":"011 810 1111","website":"http:\/\/www.bnto.librari.beniculturali.it","category_ids":["44"]}]},{"canonical_uuid":"ae2708d5-9cb3-45a1-8ca6-2815b485cc32","nonDupes":"","factual_gold":[{"uuid":"ae2708d5-9cb3-45a1-8ca6-2815b485cc32","name":"Palazzo Pubblico","address":"Piazza del Campo 1","locality":"Siena","region":"Siena","postcode":"53100","latitude":"43.31803111144794","longitude":"11.332044618119975","tel":"0577 292111","website":null,"category_ids":["110"]}]},{"canonical_uuid":"b38962b4-8222-4da7-ae14-e0060d17ffa9","nonDupes":"","factual_gold":[{"uuid":"b38962b4-8222-4da7-ae14-e0060d17ffa9","name":"Aeroporto Marco Polo di Venezia","address":"Viale G. Galilei 30","locality":"Venezia","region":"Venezia","postcode":"30173","latitude":"45.50481279450948","longitude":"12.340260220522403","tel":"041 260 9260","website":"http:\/\/www.veniceairport.it","category_ids":["462"]}]},{"canonical_uuid":"b569a807-b81a-41db-bcf7-d2331dd19e80","nonDupes":"","factual_gold":[{"uuid":"b569a807-b81a-41db-bcf7-d2331dd19e80","name":"Nazionale Ferroviario di Pietrarsa","address":null,"locality":"Napoli","region":"Napoli","postcode":"80146","latitude":"40.82199307232635","longitude":"14.32010019324266","tel":"081 472003","website":"http:\/\/www.museodipietrarsa.it","category_ids":["311"]}]},{"canonical_uuid":"b6904939-42a7-4dd6-8b5f-990adbc290aa","nonDupes":"","factual_gold":[{"uuid":"b6904939-42a7-4dd6-8b5f-990adbc290aa","name":"Piazza della Signoria","address":null,"locality":"Firenze","region":"Firenze","postcode":"50122","latitude":"43.76968006994381","longitude":"11.255876559610513","tel":"010 8728 4615","website":null,"category_ids":["110"]}]},{"canonical_uuid":"b6a384a8-7ba5-4be6-abb8-1904c21449ee","nonDupes":"","factual_gold":[{"uuid":"b6a384a8-7ba5-4be6-abb8-1904c21449ee","name":"Anfiteatro Romano","address":null,"locality":"Siracusa","region":"Siracusa","postcode":"96100","latitude":"37.07405434129549","longitude":"15.27893430269187","tel":null,"website":null,"category_ids":["108"]}]},{"canonical_uuid":"b8478fe3-64cc-42b2-8342-48be08e236f6","nonDupes":"","factual_gold":[{"uuid":"b8478fe3-64cc-42b2-8342-48be08e236f6","name":"Palazzo dell'Ufficio Geologico","address":"Largo S. Susanna","locality":"Roma","region":"Roma","postcode":"00187","latitude":"41.90504426593165","longitude":"12.493907194907136","tel":null,"website":null,"category_ids":["108"]}]},{"canonical_uuid":"b94e8984-a475-44c7-a564-1671c4d35822","nonDupes":"","factual_gold":[{"uuid":"b94e8984-a475-44c7-a564-1671c4d35822","name":"Basilica di Massenzio","address":null,"locality":"Roma","region":"Roma","postcode":"00184","latitude":"41.89199581036664","longitude":"12.488307215974523","tel":"06 0608","website":"http:\/\/www.turismoroma.it\/cosa-fare\/basilica-di-massenzio","category_ids":["110"]}]},{"canonical_uuid":"bc0bf2be-79cb-47aa-b61f-f0140beeb525","nonDupes":"","factual_gold":[{"uuid":"bc0bf2be-79cb-47aa-b61f-f0140beeb525","name":"Parco del Valentino","address":"Corso Massimo d'Azeglio","locality":"Torino","region":"Torino","postcode":"10126","latitude":"45.05306479409423","longitude":"7.685918159176655","tel":null,"website":"http:\/\/www.comune.torino.it\/verdepubblico\/patrimonioverde\/parchi-giardini\/valentino\/valentino.shtml","category_ids":["122"]}]},{"canonical_uuid":"bfcf83c6-95ea-416c-b125-07297130d85f","nonDupes":"","factual_gold":[{"uuid":"bfcf83c6-95ea-416c-b125-07297130d85f","name":"Piazza delle Erbe","address":"Piazza delle Erbe","locality":"Verona","region":"Verona","postcode":"37121","latitude":"45.442989565604236","longitude":"10.997241726919276","tel":"045 927 3027","website":null,"category_ids":["107"]}]},{"canonical_uuid":"c2340d85-4d3f-4ced-853f-bee0ba117fe1","nonDupes":"","factual_gold":[{"uuid":"c2340d85-4d3f-4ced-853f-bee0ba117fe1","name":"Aeroporto di Lampedusa","address":"Contrada Cala Francese","locality":"Lampedusa e Linosa","region":"Agrigento","postcode":"92010","latitude":"35.498818","longitude":"12.61748","tel":"0922 970731","website":"http:\/\/www.aeroportodilampedusa.com","category_ids":["425"]}]},{"canonical_uuid":"c35cbe3a-e72f-41dc-958b-817572b05ed5","nonDupes":"","factual_gold":[{"uuid":"c35cbe3a-e72f-41dc-958b-817572b05ed5","name":"Aeroporto di Genova","address":"Via Pionieri e Aviatori d'Italia","locality":"Genova","region":"Genova","postcode":"16154","latitude":"44.413962","longitude":"8.846528","tel":"010 60151","website":"http:\/\/www.airport.genova.it\/","category_ids":["425"]}]},{"canonical_uuid":"c4e1fe33-1f0a-49b6-bc2b-ed7d08eff3d6","nonDupes":"","factual_gold":[{"uuid":"c4e1fe33-1f0a-49b6-bc2b-ed7d08eff3d6","name":"Porta Soprana o Urbica di Sant'Andrea","address":"Via di Porta Soprana","locality":"Genova","region":"Genova","postcode":"16123","latitude":"44.40553212067966","longitude":"8.934483436131963","tel":"010 246 5346","website":"http:\/\/www.coopculture.it\/heritage.cfm?id=174","category_ids":["111"]}]},{"canonical_uuid":"c5e59331-9ee4-483f-8ecd-99b81ce4059a","nonDupes":"","factual_gold":[{"uuid":"c5e59331-9ee4-483f-8ecd-99b81ce4059a","name":"Museo Civico Filangeri Palazzo Cuomo","address":"Via Duomo 288","locality":"Napoli","region":"Napoli","postcode":"80138","latitude":"40.848922678602385","longitude":"14.260779235009723","tel":"081 203175","website":"https:\/\/www.museofilangieri.org","category_ids":["311"]}]},{"canonical_uuid":"c734a052-7e12-4123-8d89-a004f6933340","nonDupes":"","factual_gold":[{"uuid":"c734a052-7e12-4123-8d89-a004f6933340","name":"Aeroporto Olbia Costa Smeralda","address":null,"locality":"Olbia","region":"Olbia-Tempio","postcode":"07026","latitude":"40.900928","longitude":"9.515127","tel":"0789 563444","website":"http:\/\/www.geasar.it\/eng\/airport","category_ids":["462"]}]},{"canonical_uuid":"c9b65b3c-5e9c-4f38-86ba-1643fcbc4f92","nonDupes":"","factual_gold":[{"uuid":"c9b65b3c-5e9c-4f38-86ba-1643fcbc4f92","name":"Bocca della Verit\u00e0","address":"Piazza della Bocca della Verit\u00e0 18","locality":"Roma","region":"Roma","postcode":"00186","latitude":"41.88793800460396","longitude":"12.48153654979811","tel":"06 0608","website":"http:\/\/www.turismoroma.it\/cosa-fare\/bocca-della-verita","category_ids":["111"]}]},{"canonical_uuid":"c9c3477b-256d-4098-a965-2d756146a9e4","nonDupes":"","factual_gold":[{"uuid":"c9c3477b-256d-4098-a965-2d756146a9e4","name":"Chiesa di Santa Maria della Vittoria","address":"Via XX Settembre 17","locality":"Roma","region":"Roma","postcode":"00187","latitude":"41.90477582244878","longitude":"12.494221277970508","tel":"06 4274 0571","website":"http:\/\/www.chiesasantamariavittoriaroma.it","category_ids":["55"]}]},{"canonical_uuid":"cac4ed66-4044-4e1a-b2d2-8b42d46d6a1f","nonDupes":"","factual_gold":[{"uuid":"cac4ed66-4044-4e1a-b2d2-8b42d46d6a1f","name":"Federico Fellini International Airport","address":"Via Flaminia 409","locality":"Rimini","region":"Rimini","postcode":"47924","latitude":"44.022667595834804","longitude":"12.619292935060596","tel":"0541 379800","website":"http:\/\/www.riminiairport.com","category_ids":["462"]}]},{"canonical_uuid":"cb0d934f-496b-41a2-ad65-888a5d413ebc","nonDupes":"","factual_gold":[{"uuid":"cb0d934f-496b-41a2-ad65-888a5d413ebc","name":"Pasticceria Castelvecchio","address":"Corso Castelvecchio 21","locality":"Verona","region":"Verona","postcode":"37121","latitude":"45.43897471803114","longitude":"10.987396455352455","tel":"045 595817","website":null,"category_ids":["343"]}]},{"canonical_uuid":"cbacb45c-aa76-40dc-a1f4-7f63a1e9015d","nonDupes":"","factual_gold":[{"uuid":"cbacb45c-aa76-40dc-a1f4-7f63a1e9015d","name":"Largo di Torre Argentina","address":"Largo di Torre Argentina","locality":"Roma","region":"Roma","postcode":"00186","latitude":"41.895407","longitude":"12.47686","tel":null,"website":"http:\/\/www.turismoroma.it\/cosa-fare\/teatro-argentina?lang=en","category_ids":["110"]}]},{"canonical_uuid":"ce11d613-74c6-40af-9df3-5cb500e9ec40","nonDupes":"","factual_gold":[{"uuid":"ce11d613-74c6-40af-9df3-5cb500e9ec40","name":"Aeroporto di Roma-Ciampino","address":"Via Appia Nuova 1651","locality":"Ciampino","region":"Roma","postcode":"00040","latitude":"41.799343","longitude":"12.59001","tel":"06 65951","website":"http:\/\/www.adr.it\/ciampino","category_ids":["462"]}]},{"canonical_uuid":"d23c1d16-07f3-476b-ab81-615a63abd82b","nonDupes":"","factual_gold":[{"uuid":"d23c1d16-07f3-476b-ab81-615a63abd82b","name":"Orto botanico di Palermo","address":"Via Lincoln 2","locality":"Palermo","region":"Palermo","postcode":"90133","latitude":"38.11149617612858","longitude":"13.373933379014895","tel":"091 2389 1236","website":"http:\/\/www.ortobotanico.unipa.it\/","category_ids":["109"]}]},{"canonical_uuid":"d5445399-b9e0-4460-9acd-de54881dde55","nonDupes":"","factual_gold":[{"uuid":"d5445399-b9e0-4460-9acd-de54881dde55","name":"Palazzo Ciampoli","address":null,"locality":"Taormina","region":"Messina","postcode":"98039","latitude":"37.851366830448896","longitude":"15.284361775635743","tel":null,"website":null,"category_ids":["110"]}]},{"canonical_uuid":"d5860183-71e2-4a69-944a-8422c3cc9532","nonDupes":"","factual_gold":[{"uuid":"d5860183-71e2-4a69-944a-8422c3cc9532","name":"Chiesa di Santa Maria della Catena","address":"Piazzetta delle Dogane","locality":"Palermo","region":"Palermo","postcode":"90133","latitude":"38.11919206168865","longitude":"13.369571974475488","tel":"091 607 7111","website":null,"category_ids":["55"]}]},{"canonical_uuid":"d7738e31-61e3-4845-9b8c-8141357b4275","nonDupes":"","factual_gold":[{"uuid":"d7738e31-61e3-4845-9b8c-8141357b4275","name":"Aeroporto del Salento","address":"Contrada Baroncino","locality":"Brindisi","region":"Brindisi","postcode":"72100","latitude":"40.66108202711101","longitude":"17.941151408566725","tel":"0831 411 7447","website":"http:\/\/www.aeroportidipuglia.it\/default.asp?idlingua=1&idcontenuto=29&page=Seap+Brindisi","category_ids":["425"]}]},{"canonical_uuid":"da2ea017-ae3b-4ccd-8312-37d58e4fb330","nonDupes":"","factual_gold":[{"uuid":"da2ea017-ae3b-4ccd-8312-37d58e4fb330","name":"Tempio della Concordia - Valle dei Templi","address":"Strada Panoramica dei Templi","locality":"Agrigento","region":"Agrigento","postcode":"92100","latitude":"37.28968950840831","longitude":"13.592073335689218","tel":"0922 621611","website":null,"category_ids":["110"]}]},{"canonical_uuid":"dba2c0f4-f57f-4d9f-9844-721dad811cba","nonDupes":"","factual_gold":[{"uuid":"dba2c0f4-f57f-4d9f-9844-721dad811cba","name":"Campeggio Torre Pendente","address":"Viale delle Cascine 86","locality":"Pisa","region":"Pisa","postcode":"56122","latitude":"43.72439017543943","longitude":"10.382697811836294","tel":"050 561704","website":"http:\/\/www.campingtorrependente.it","category_ids":["388"]}]},{"canonical_uuid":"dc04fd8f-1021-4f89-b2c1-69ac43319ba0","nonDupes":"","factual_gold":[{"uuid":"dc04fd8f-1021-4f89-b2c1-69ac43319ba0","name":"Aeroporto Internazionale di Bari-Karol Wojtyla","address":"Viale Enzo Ferrari","locality":"Bari","region":"Bari","postcode":"70128","latitude":"41.137508","longitude":"16.765202","tel":"080 580 0200","website":"http:\/\/www.aeroportidipuglia.it\/","category_ids":["425"]}]},{"canonical_uuid":"dcfaf29b-1def-46a4-af6d-17440a2c1031","nonDupes":"","factual_gold":[{"uuid":"dcfaf29b-1def-46a4-af6d-17440a2c1031","name":"Parco della Favorita","address":"Viale Diana","locality":"Palermo","region":"Palermo","postcode":"90146","latitude":"38.16304342143503","longitude":"13.340180375350712","tel":"091 740 1111","website":"http:\/\/www.parcodellafavorita.it\/storia_parco_favorita.html","category_ids":["119"]}]},{"canonical_uuid":"dd95c8ea-0bcc-4fb0-a791-093da5f779fa","nonDupes":"","factual_gold":[{"uuid":"dd95c8ea-0bcc-4fb0-a791-093da5f779fa","name":"Museo Archeologico Nazionale di Firenze","address":"Piazza della Santissima Annunziata 9","locality":"Firenze","region":"Firenze","postcode":"50121","latitude":"43.775809749636394","longitude":"11.26316932642974","tel":"055 23575","website":"http:\/\/www.archeotoscana.beniculturali.it\/index.php?it\/146\/firenze-museo-archeologico-nazionale","category_ids":["311"]}]},{"canonical_uuid":"dda809a5-5a9b-4061-82bc-64eb116c7d3a","nonDupes":"","factual_gold":[{"uuid":"dda809a5-5a9b-4061-82bc-64eb116c7d3a","name":"Casa di Livia - Palatino","address":"Via di San Gregorio on the Palatino","locality":"Roma","region":"Roma","postcode":"00186","latitude":"41.88923093531783","longitude":"12.485718493540496","tel":"06 699841","website":null,"category_ids":["110"]}]},{"canonical_uuid":"de58059b-f92f-4c40-8034-086101680569","nonDupes":"","factual_gold":[{"uuid":"de58059b-f92f-4c40-8034-086101680569","name":"Basilica di Santa Sabina all'Aventino","address":"Piazza Pietro d'Illiria 1","locality":"Roma","region":"Roma","postcode":"00153","latitude":"41.884521545708346","longitude":"12.47984014471693","tel":"06 579401","website":"http:\/\/www.060608.it\/it\/cultura-e-svago\/luoghi-di-culto-di-interesse-storico-artistico\/cattolici\/santa-sabina-all-aventino.html","category_ids":["55"]}]},{"canonical_uuid":"e061c145-143b-43df-a9ac-dfc2c7e52f8c","nonDupes":"","factual_gold":[{"uuid":"e061c145-143b-43df-a9ac-dfc2c7e52f8c","name":"Colonna di Foca - Fori Romani","address":"Via dei Fori Imperiali","locality":"Roma","region":"Roma","postcode":"00186","latitude":"41.89241058627426","longitude":"12.485106937614427","tel":"06 3996 7700","website":"http:\/\/archeoroma.beniculturali.it","category_ids":["111"]}]},{"canonical_uuid":"e4bd5218-32e2-47e4-bea0-0c1eb78a5a98","nonDupes":"","factual_gold":[{"uuid":"e4bd5218-32e2-47e4-bea0-0c1eb78a5a98","name":"Ponte dei Sospiri","address":"Piazza San Marco 1","locality":"Venezia","region":"Venezia","postcode":"30100","latitude":"45.43411319564657","longitude":"12.340842992839454","tel":"041 271 5911","website":"http:\/\/palazzoducale.visitmuve.it","category_ids":["110"]}]},{"canonical_uuid":"e65b072b-8d24-49e2-aebc-ca4e2ab75ba5","nonDupes":"","factual_gold":[{"uuid":"e65b072b-8d24-49e2-aebc-ca4e2ab75ba5","name":"S. Fermo Maggiore","address":"Corte S. Elena Piazza Duomo 35","locality":"Verona","region":"Fermo","postcode":"37121","latitude":"45.439199422089715","longitude":"11.000041434630276","tel":"045 592813","website":"http:\/\/www.museosanfermo-verona.it\/","category_ids":["55"]}]},{"canonical_uuid":"e774e517-6452-41a7-aff0-7f348a2c395e","nonDupes":"","factual_gold":[{"uuid":"e774e517-6452-41a7-aff0-7f348a2c395e","name":"Foro di Nerva","address":"Via dei Fori Imperiali","locality":"Roma","region":"Roma","postcode":"00184","latitude":"41.89305689620506","longitude":"12.486402770780295","tel":"06 0608","website":null,"category_ids":["313"]}]},{"canonical_uuid":"e8d333bc-dfad-470e-94e6-5e7856bf5631","nonDupes":"","factual_gold":[{"uuid":"e8d333bc-dfad-470e-94e6-5e7856bf5631","name":"Aeroporto di Comiso","address":"Strada Provinciale","locality":"Comiso","region":"Ragusa","postcode":"97013","latitude":"36.997419","longitude":"14.607433","tel":"0932 961467","website":"http:\/\/www.aeroportodicomiso.com\/","category_ids":["425"]}]},{"canonical_uuid":"e996c134-623e-4e7c-808c-1a71e2295830","nonDupes":"","factual_gold":[{"uuid":"e996c134-623e-4e7c-808c-1a71e2295830","name":"Cattedrale di Cagliari","address":"Piazza Palazzo 4","locality":"Cagliari","region":"Cagliari","postcode":"09124","latitude":"39.218727674195335","longitude":"9.116865176628908","tel":"070 663837","website":"http:\/\/www.duomodicagliari.it","category_ids":["55"]}]},{"canonical_uuid":"e9ca64ea-384b-4cde-a917-232696eada6a","nonDupes":"","factual_gold":[{"uuid":"e9ca64ea-384b-4cde-a917-232696eada6a","name":"Studio Aesse di Angelo Siclari - Consulenze demaniali marittime","address":"Via XXV Aprile 59","locality":"Santa Margherita Ligure","region":"Genova","postcode":"16038","latitude":"44.335221385912526","longitude":"9.210168208112083","tel":"328 699 8353","website":null,"category_ids":["108"]}]},{"canonical_uuid":"eaa63c63-4f76-4f8e-9922-bf1605b82473","nonDupes":"","factual_gold":[{"uuid":"eaa63c63-4f76-4f8e-9922-bf1605b82473","name":"Fori Imperiali","address":"Via Madonna dei Monti 96","locality":"Roma","region":"Roma","postcode":"00186","latitude":"41.892843142000494","longitude":"12.486245830657621","tel":"339 185 2600","website":"http:\/\/www.archeorm.arti.beniculturali.it","category_ids":["426"]}]},{"canonical_uuid":"edd415f2-304d-41a6-a566-c324c95835b4","nonDupes":"","factual_gold":[{"uuid":"edd415f2-304d-41a6-a566-c324c95835b4","name":"Basilica di San Nicola a Tolentino","address":"Piazza San Nicola","locality":"Tolentino","region":"Macerata","postcode":"62029","latitude":"43.20822724769247","longitude":"13.285805103355843","tel":"0733 976311","website":"http:\/\/www.sannicoladatolentino.it","category_ids":["110"]}]},{"canonical_uuid":"eeacaf6d-7462-4b0e-9096-f5098855dcac","nonDupes":"","factual_gold":[{"uuid":"eeacaf6d-7462-4b0e-9096-f5098855dcac","name":"Museo dell'automobile di Torino","address":"Corso Unit\u00e0 d'Italia 40","locality":"Torino","region":"Torino","postcode":"10126","latitude":"45.031918173869315","longitude":"7.673520006089602","tel":"06 77666","website":"http:\/\/www.museoauto.it","category_ids":["311"]}]},{"canonical_uuid":"f14823c2-f420-47ed-a10d-7dac1067ac0d","nonDupes":"","factual_gold":[{"uuid":"f14823c2-f420-47ed-a10d-7dac1067ac0d","name":"Aeroporto di Catania-Fontanarossa","address":"Via Fontanarossa","locality":"Catania","region":"Catania","postcode":"95121","latitude":"37.467305","longitude":"15.065775","tel":"095 723 9111","website":null,"category_ids":["425"]}]},{"canonical_uuid":"f2c4ef86-0757-4060-87c0-4bf6cb5de0cb","nonDupes":"","factual_gold":[{"uuid":"f2c4ef86-0757-4060-87c0-4bf6cb5de0cb","name":"Church of Santa Maria dei Miracoli","address":"Campo dei Miracoli Cannaregio 6074","locality":"Venezia","region":"Venezia","postcode":"30131","latitude":"45.439498471177316","longitude":"12.339242885373318","tel":"041 275 0462","website":"http:\/\/www.chorusvenezia.org","category_ids":["55"]}]},{"canonical_uuid":"f3952b68-36ac-4f46-8e74-d45221cbaf20","nonDupes":"","factual_gold":[{"uuid":"f3952b68-36ac-4f46-8e74-d45221cbaf20","name":"Basilica Palladiana","address":"Piazza dei Signori","locality":"Vicenza","region":"Vicenza","postcode":"36100","latitude":"45.54705443647794","longitude":"11.546843882703094","tel":"0444 222850","website":"http:\/\/www.museicivicivicenza.it","category_ids":["110"]}]},{"canonical_uuid":"f8679c83-dddc-4b29-a2c8-58c5a5b377b3","nonDupes":"","factual_gold":[{"uuid":"f8679c83-dddc-4b29-a2c8-58c5a5b377b3","name":"Basilica di Santa Maria della Salute","address":"Dorsoduro 1","locality":"Venezia","region":"Venezia","postcode":"30123","latitude":"45.43059785609765","longitude":"12.33472602855276","tel":"041 274 3928","website":"http:\/\/basilicasalutevenezia.it\/la-basilica\/","category_ids":["55"]}]},{"canonical_uuid":"f917ba2e-e0ca-4018-bc3a-e228bd9fa5e0","nonDupes":"","factual_gold":[{"uuid":"f917ba2e-e0ca-4018-bc3a-e228bd9fa5e0","name":"Teatro Greco","address":"Viale Paradiso","locality":"Siracusa","region":"Siracusa","postcode":"96100","latitude":"37.07588479847246","longitude":"15.275173386278269","tel":"0931 489511","website":"http:\/\/www.comune.siracusa.it\/index.php\/it\/itinerari-turistici-a-siracusa\/297-itinerario-archeologico\/teatro-greco","category_ids":["333"]}]},{"canonical_uuid":"f9e034f0-fdd5-4a24-b32c-2a0564802de0","nonDupes":"","factual_gold":[{"uuid":"f9e034f0-fdd5-4a24-b32c-2a0564802de0","name":"Costiera Amalfitana","address":null,"locality":"Amalfi","region":"Salerno","postcode":"84011","latitude":"40.63253311919187","longitude":"14.60090796398255","tel":null,"website":null,"category_ids":["113"]}]},{"canonical_uuid":"f9efc902-f97a-480e-b5cd-9d8a1e5a7f6e","nonDupes":"","factual_gold":[{"uuid":"f9efc902-f97a-480e-b5cd-9d8a1e5a7f6e","name":"Galleria Doria Pamphilj","address":"Via del Corso 305","locality":"Roma","region":"Roma","postcode":"00186","latitude":"41.89764567711215","longitude":"12.4811354312831","tel":"06 679 7323","website":"http:\/\/www.dopart.it","category_ids":["311"]}]},{"canonical_uuid":"fc54df1f-6609-455d-9a83-ffe18411db86","nonDupes":"","factual_gold":[{"uuid":"fc54df1f-6609-455d-9a83-ffe18411db86","name":"Palazzo Agostini","address":"Lungarno Antonio Pacinotti 26","locality":"Pisa","region":"Pisa","postcode":"56125","latitude":"43.71898187043537","longitude":"10.40341733567073","tel":"349 681 1415","website":null,"category_ids":["110"]}]},{"canonical_uuid":"fd77dbfb-7a76-452c-979f-78217ac79836","nonDupes":"","factual_gold":[{"uuid":"fd77dbfb-7a76-452c-979f-78217ac79836","name":"Basilica Giulia","address":null,"locality":"Roma","region":"Roma","postcode":"00186","latitude":"41.89203960220553","longitude":"12.484599582111104","tel":null,"website":null,"category_ids":["110"]}]},{"canonical_uuid":"fd7cf359-d9ba-436e-bd54-be80bbebd6ef","nonDupes":"","factual_gold":[{"uuid":"fd7cf359-d9ba-436e-bd54-be80bbebd6ef","name":"Piazza del Popolo","address":"Piazza del Popolo","locality":"Roma","region":"Roma","postcode":"00187","latitude":"41.910714660975096","longitude":"12.476366323961535","tel":null,"website":"http:\/\/www.turismoroma.it\/cosa-fare\/piazza-del-popolo","category_ids":["110"]}]},{"canonical_uuid":"fec2d05d-976d-41f6-ad0f-40641ceb85a9","nonDupes":"","factual_gold":[{"uuid":"fec2d05d-976d-41f6-ad0f-40641ceb85a9","name":"Aeroporto di Bolzano","address":"Via Aeroporto Francesco Baracca 1","locality":"Bolzano","region":"Bolzano","postcode":"39100","latitude":"46.461641","longitude":"11.328239","tel":"0471 255255","website":"http:\/\/www.abd-airport.it\/","category_ids":["425"]}]},{"canonical_uuid":"fedad4f2-9d6d-40e0-a4cb-b3df0e3ffbcb","nonDupes":"","factual_gold":[{"uuid":"fedad4f2-9d6d-40e0-a4cb-b3df0e3ffbcb","name":"Saint Louis des Fran\u00e7ais","address":"Piazza di S. Luigi de\u2019 Francesi","locality":"Roma","region":"Roma","postcode":"00186","latitude":"41.899599771229994","longitude":"12.474538469029127","tel":"06 688271","website":"http:\/\/saintlouis-rome.net","category_ids":["55"]}]}]