[{"canonical_uuid":"01624cd8-d54d-4c0c-831a-bb2180b6e0d4","nonDupes":"","factual_gold":[{"uuid":"01624cd8-d54d-4c0c-831a-bb2180b6e0d4","name":"Destin-Fort Walton Beach Airport","address":"1701 State Road 85 N","locality":"Eglin Afb","region":"FL","postcode":"32542","latitude":"30.4833","longitude":"-86.5253","tel":"(850) 651-7160","website":"http:\/\/www.flyvps.com","category_ids":["425"]}]},{"canonical_uuid":"0214c711-f56c-4b39-8191-ac89aa0cddb8","nonDupes":"","factual_gold":[{"uuid":"0214c711-f56c-4b39-8191-ac89aa0cddb8","name":"Target Field","address":"1 Twins Way","locality":"Minneapolis","region":"MN","postcode":"55403","latitude":"44.981754","longitude":"-93.277808","tel":"(612) 659-3654","website":"http:\/\/minnesota.twins.mlb.com\/min\/ballpark\/metropolitan_club.jsp","category_ids":["406"]}]},{"canonical_uuid":"025a621c-0812-4395-b368-55bbcda8909b","nonDupes":"","factual_gold":[{"uuid":"025a621c-0812-4395-b368-55bbcda8909b","name":"Greater Cleveland Aquarium","address":"2000 Sycamore St","locality":"Cleveland","region":"OH","postcode":"44113","latitude":"41.496459","longitude":"-81.703931","tel":"(216) 862-8803","website":"http:\/\/greaterclevelandaquarium.com","category_ids":["371"]}]},{"canonical_uuid":"025ddaf9-e851-4a18-bfeb-26836e256d3d","nonDupes":"","factual_gold":[{"uuid":"025ddaf9-e851-4a18-bfeb-26836e256d3d","name":"Yale-New Haven Children's Hospital","address":"1 Park St","locality":"New Haven","region":"CT","postcode":"06504","latitude":"41.304488400334066","longitude":"-72.93575387352351","tel":"(203) 688-4242","website":"http:\/\/www.ynhh.org\/yale-new-haven-childrens-hospital","category_ids":["74"]}]},{"canonical_uuid":"0306696e-e6eb-4b16-ae56-4ad1bb4654f6","nonDupes":"","factual_gold":[{"uuid":"0306696e-e6eb-4b16-ae56-4ad1bb4654f6","name":"Cotton Bowl Stadium","address":null,"locality":"Midway","region":"TX","postcode":"75215","latitude":"32.779018","longitude":"-96.760331","tel":"(214) 670-8400","website":"http:\/\/www.cottonbowlstadium.com","category_ids":["406"]}]},{"canonical_uuid":"03b5d84f-45b5-4512-b016-877eb735591c","nonDupes":"","factual_gold":[{"uuid":"03b5d84f-45b5-4512-b016-877eb735591c","name":"American Airlines Center","address":"2500 Victory Ave","locality":"Dallas","region":"TX","postcode":"75219","latitude":"32.790512044437236","longitude":"-96.81036822113899","tel":"(214) 665-4299","website":"http:\/\/www.americanairlinescenter.com","category_ids":["333","406"]}]},{"canonical_uuid":"0564ae3e-c2c7-42b8-aa54-4e2c72ae9739","nonDupes":"","factual_gold":[{"uuid":"0564ae3e-c2c7-42b8-aa54-4e2c72ae9739","name":"Molokai Airport","address":null,"locality":"Hoolehua","region":"HI","postcode":"96729","latitude":"21.1529","longitude":"-157.096","tel":"(808) 567-9660","website":"http:\/\/airports.hawaii.gov","category_ids":["425"]}]},{"canonical_uuid":"06be4180-fa58-4efe-8382-52d8a20980b2","nonDupes":"","factual_gold":[{"uuid":"06be4180-fa58-4efe-8382-52d8a20980b2","name":"Disneyland Resort","address":"1313 Disneyland Dr","locality":"Anaheim","region":"CA","postcode":"92802","latitude":"33.81161553588956","longitude":"-117.91970349135377","tel":"(714) 781-4565","website":"http:\/\/disneyland.disney.go.com\/?CMP=OKC-dlr_pl_25","category_ids":["313","438"]}]},{"canonical_uuid":"06d8c9f3-bcfc-4f25-af67-8918bc27d590","nonDupes":"","factual_gold":[{"uuid":"06d8c9f3-bcfc-4f25-af67-8918bc27d590","name":"United Center","address":"1901 W Madison St","locality":"Chicago","region":"IL","postcode":"60612","latitude":"41.88069","longitude":"-87.67426","tel":"(312) 455-4500","website":null,"category_ids":["406"]}]},{"canonical_uuid":"06f42b34-147a-4d43-a4fc-287d9d3bb0c1","nonDupes":"","factual_gold":[{"uuid":"06f42b34-147a-4d43-a4fc-287d9d3bb0c1","name":"The Mirage","address":"3400 Las Vegas Blvd S","locality":"Las Vegas","region":"NV","postcode":"89109","latitude":"36.12167313392434","longitude":"-115.17576928215628","tel":"(702) 791-7111","website":"http:\/\/www.mirage.com","category_ids":["436"]}]},{"canonical_uuid":"07b71686-e80e-4bcb-a94d-52cfce0bcfb2","nonDupes":"","factual_gold":[{"uuid":"07b71686-e80e-4bcb-a94d-52cfce0bcfb2","name":"Perry's Victory and International Peace Memorial","address":"93 Delaware St","locality":"Put In Bay","region":"OH","postcode":"43456","latitude":"41.65410986267101","longitude":"-82.81133499236137","tel":"(419) 285-2184","website":"http:\/\/www.nps.gov\/pevi\/index.htm","category_ids":["111"]}]},{"canonical_uuid":"084c0e3f-6c79-40e7-8476-c916a656facb","nonDupes":"","factual_gold":[{"uuid":"084c0e3f-6c79-40e7-8476-c916a656facb","name":"Books","address":"1005 W Burnside St","locality":"Portland","region":"OR","postcode":"97209","latitude":"45.523127","longitude":"-122.681322","tel":"(800) 878-7323","website":"http:\/\/www.powells.com\/","category_ids":["130"]}]},{"canonical_uuid":"0863e4a5-9240-4aba-842e-51420f3e0609","nonDupes":"","factual_gold":[{"uuid":"0863e4a5-9240-4aba-842e-51420f3e0609","name":"Skinner Butte Park","address":"248 Cheshire Ave","locality":"Eugene","region":"OR","postcode":"97401","latitude":"44.059667859287764","longitude":"-123.09423705222508","tel":"(541) 682-4800","website":"https:\/\/www.eugene-or.gov\/Facilities\/Facility\/Details\/55","category_ids":["119"]}]},{"canonical_uuid":"08d8071d-1da0-4045-b2f3-1eb00d46cec4","nonDupes":"","factual_gold":[{"uuid":"08d8071d-1da0-4045-b2f3-1eb00d46cec4","name":"Stanford Stadium","address":"625 Nelson Rd","locality":"Stanford","region":"CA","postcode":"94305","latitude":"37.43448445511034","longitude":"-122.16116369790625","tel":"(650) 723-5665","website":"http:\/\/gostanford.com\/facilities\/?id=16","category_ids":["406"]}]},{"canonical_uuid":"0a0fc847-1695-494b-962a-442ba4160959","nonDupes":"","factual_gold":[{"uuid":"0a0fc847-1695-494b-962a-442ba4160959","name":"Vivint Smart Home Arena","address":"301 W South Temple","locality":"Salt Lake City","region":"UT","postcode":"84101","latitude":"40.768301","longitude":"-111.901083","tel":"(801) 325-2000","website":"http:\/\/www.vivintarena.com","category_ids":["406"]}]},{"canonical_uuid":"0afddcef-eeff-41d8-8dee-668144146297","nonDupes":"","factual_gold":[{"uuid":"0afddcef-eeff-41d8-8dee-668144146297","name":"Pecos National Historic Park","address":null,"locality":"Pecos","region":"NM","postcode":"87552","latitude":"35.537447","longitude":"-105.682312","tel":"(505) 757-7241","website":"http:\/\/www.nps.gov\/peco\/index.htm","category_ids":["118"]}]},{"canonical_uuid":"0b40bdbb-8f4d-4f66-81d4-b4e1705a4320","nonDupes":"","factual_gold":[{"uuid":"0b40bdbb-8f4d-4f66-81d4-b4e1705a4320","name":"Jordan Schnitzer Museum of Art","address":null,"locality":"Eugene","region":"OR","postcode":"97403","latitude":"44.044291","longitude":"-123.076937","tel":"(541) 346-3027","website":null,"category_ids":["311"]}]},{"canonical_uuid":"0b54ae95-087e-4b79-8814-633d4e1c6f74","nonDupes":"","factual_gold":[{"uuid":"0b54ae95-087e-4b79-8814-633d4e1c6f74","name":"Fisher Mansion","address":"383 Lenox St","locality":"Detroit","region":"MI","postcode":"48215","latitude":"42.361722","longitude":"-82.946653","tel":"(313) 331-6740","website":null,"category_ids":["110"]}]},{"canonical_uuid":"0bbbe919-693e-4115-8710-0bd8c036afb4","nonDupes":"","factual_gold":[{"uuid":"0bbbe919-693e-4115-8710-0bd8c036afb4","name":"Jockey's Ridge State Park","address":null,"locality":"Nags Head","region":"NC","postcode":"27959","latitude":"35.962405","longitude":"-75.633902","tel":"(252) 441-7132","website":"http:\/\/www.jockeysridgestatepark.com\/","category_ids":["119"]}]},{"canonical_uuid":"0c6d4949-5f1b-43d8-a003-b5f212420c4b","nonDupes":"","factual_gold":[{"uuid":"0c6d4949-5f1b-43d8-a003-b5f212420c4b","name":"National Museum of Natural History","address":"10TH St","locality":"Washington","region":"DC","postcode":"20560","latitude":"38.891266","longitude":"-77.026065","tel":"(202) 633-1000","website":"https:\/\/naturalhistory.si.edu\/","category_ids":["311"]}]},{"canonical_uuid":"0df57d73-d2e5-45d7-ac1c-aa66c5e7d5ba","nonDupes":"","factual_gold":[{"uuid":"0df57d73-d2e5-45d7-ac1c-aa66c5e7d5ba","name":"Los Angeles City Hall","address":"200 N Spring St","locality":"Los Angeles","region":"CA","postcode":"90012","latitude":"34.05370315879651","longitude":"-118.24278530573588","tel":"(213) 473-3231","website":"http:\/\/www.lacity.org","category_ids":["37"]}]},{"canonical_uuid":"0f2f6bb7-182e-4920-81a6-da164dc5d4dd","nonDupes":"","factual_gold":[{"uuid":"0f2f6bb7-182e-4920-81a6-da164dc5d4dd","name":"Galena Edward G. Pitka Sr Airport","address":null,"locality":"Galena","region":"AK","postcode":"99741","latitude":"64.7362","longitude":"-156.937","tel":"(907) 656-1236","website":"http:\/\/dot.alaska.gov\/stwdav\/airports_public_northern.shtml","category_ids":["462"]}]},{"canonical_uuid":"0f37e151-a94f-4b22-a2b0-8d471e57adec","nonDupes":"","factual_gold":[{"uuid":"0f37e151-a94f-4b22-a2b0-8d471e57adec","name":"J. A. Skinner State Park","address":null,"locality":"Hadley","region":"MA","postcode":"01035","latitude":"42.29313000326723","longitude":"-72.5862156881102","tel":"(413) 586-0350","website":"http:\/\/www.mass.gov\/eea\/agencies\/dcr\/massparks\/region-west\/skinner-state-park-generic.html","category_ids":["118"]}]},{"canonical_uuid":"0f6fc304-8f08-4180-9432-7af1c08f1a30","nonDupes":"","factual_gold":[{"uuid":"0f6fc304-8f08-4180-9432-7af1c08f1a30","name":"Roger Dean Stadium","address":"4751 Main St","locality":"Jupiter","region":"FL","postcode":"33458","latitude":"26.890801844787163","longitude":"-80.11695265564406","tel":"(561) 775-1818","website":"http:\/\/www.rogerdeanchevroletstadium.com","category_ids":["406"]}]},{"canonical_uuid":"105249e6-69e3-466a-a118-829f06e4b3af","nonDupes":"","factual_gold":[{"uuid":"105249e6-69e3-466a-a118-829f06e4b3af","name":"Eisenhower National Historic Site","address":"1195 Baltimore Pike","locality":"Gettysburg","region":"PA","postcode":"17325","latitude":"39.794491","longitude":"-77.263262","tel":"(717) 338-9114","website":"http:\/\/www.nps.gov\/eise\/index.htm","category_ids":["110","311"]}]},{"canonical_uuid":"1119b4a3-ca07-4903-bf0d-82f9103e6d1c","nonDupes":"","factual_gold":[{"uuid":"1119b4a3-ca07-4903-bf0d-82f9103e6d1c","name":"Columbia University","address":"116TH St","locality":"New York","region":"NY","postcode":"10027","latitude":"40.807536","longitude":"-73.962573","tel":"(212) 854-1754","website":"http:\/\/www.columbia.edu","category_ids":["29"]}]},{"canonical_uuid":"1186015b-8213-49f5-b991-000015e7aae0","nonDupes":"","factual_gold":[{"uuid":"1186015b-8213-49f5-b991-000015e7aae0","name":"Dodger Stadium","address":"1000 Vin Scully Ave","locality":"Los Angeles","region":"CA","postcode":"90090","latitude":"34.073642652585136","longitude":"-118.24012732531185","tel":"(866) 363-4377","website":"https:\/\/www.mlb.com\/dodgers\/ballpark","category_ids":["406"]}]},{"canonical_uuid":"11f1d69c-d884-4475-82c7-12d3df1b13cd","nonDupes":"","factual_gold":[{"uuid":"11f1d69c-d884-4475-82c7-12d3df1b13cd","name":"Bureau of Engraving and Printing","address":null,"locality":"Washington","region":"DC","postcode":"20228","latitude":"38.885469","longitude":"-77.031636","tel":"(202) 874-4000","website":"http:\/\/bep.gov\/","category_ids":["37"]}]},{"canonical_uuid":"122278f0-cc01-43dd-a94a-60cf72d23930","nonDupes":"","factual_gold":[{"uuid":"122278f0-cc01-43dd-a94a-60cf72d23930","name":"Drake Park","address":"777 NW Riverside Blvd","locality":"Bend","region":"OR","postcode":"97703","latitude":"44.059472","longitude":"-121.320265","tel":"(541) 389-7275","website":"https:\/\/www.bendparksandrec.org\/park\/drake-park-and-mirror-pond\/","category_ids":["122"]}]},{"canonical_uuid":"13ad9998-f4bb-410b-aca0-23947b2e98c2","nonDupes":"","factual_gold":[{"uuid":"13ad9998-f4bb-410b-aca0-23947b2e98c2","name":"Youngstown-Warren Regional Airport","address":"1453 Youngstown Kingsville Rd NE","locality":"Vienna","region":"OH","postcode":"44473","latitude":"41.2573354","longitude":"-80.6637915","tel":"(330) 856-1537","website":"http:\/\/www.yngairport.com\/","category_ids":["425"]}]},{"canonical_uuid":"14536a98-6286-4393-b443-65c0f8866003","nonDupes":"","factual_gold":[{"uuid":"14536a98-6286-4393-b443-65c0f8866003","name":"University of Southern California","address":null,"locality":"Los Angeles","region":"CA","postcode":"90089","latitude":"34.022338","longitude":"-118.285123","tel":"(213) 740-2311","website":"http:\/\/usc.edu","category_ids":["29"]}]},{"canonical_uuid":"15dbd518-3093-4c8d-a9f8-e8b40db6bd6a","nonDupes":"","factual_gold":[{"uuid":"15dbd518-3093-4c8d-a9f8-e8b40db6bd6a","name":"Cave of the Winds","address":null,"locality":"Manitou Springs","region":"CO","postcode":"80829","latitude":"38.872432","longitude":"-104.920302","tel":"(719) 685-5444","website":"http:\/\/www.caveofthewinds.com","category_ids":["118"]}]},{"canonical_uuid":"17e2d808-4835-4501-9db5-c1cf32e06515","nonDupes":"","factual_gold":[{"uuid":"17e2d808-4835-4501-9db5-c1cf32e06515","name":"Dead Horse Point State Park","address":null,"locality":"Moab","region":"UT","postcode":"84532","latitude":"38.508333","longitude":"-109.742222","tel":"(435) 259-2614","website":"http:\/\/www.stateparks.utah.gov\/parks\/dead-horse","category_ids":["119"]}]},{"canonical_uuid":"18057b41-38af-4fee-8c85-f48ea4be80aa","nonDupes":"","factual_gold":[{"uuid":"18057b41-38af-4fee-8c85-f48ea4be80aa","name":"The Cathedral Church of St John the Divine","address":"1047 Amsterdam Ave","locality":"New York","region":"NY","postcode":"10025","latitude":"40.804188","longitude":"-73.962497","tel":"(212) 316-7540","website":"http:\/\/www.stjohndivine.org","category_ids":["55"]}]},{"canonical_uuid":"180bb7d2-5522-4a8a-a28c-1faa8e970fc5","nonDupes":"","factual_gold":[{"uuid":"180bb7d2-5522-4a8a-a28c-1faa8e970fc5","name":"Maui Ocean Center","address":null,"locality":"Wailuku","region":"HI","postcode":"96793","latitude":"20.792437","longitude":"-156.512534","tel":"(808) 270-7000","website":"http:\/\/www.mauioceancenter.com","category_ids":["371"]}]},{"canonical_uuid":"18a7dd63-ff0e-4a09-8105-5928217fcd2b","nonDupes":"","factual_gold":[{"uuid":"18a7dd63-ff0e-4a09-8105-5928217fcd2b","name":"Smithsonian American Art Museum","address":"8TH St","locality":"Washington","region":"DC","postcode":"20004","latitude":"38.898276","longitude":"-77.023048","tel":"(202) 633-1000","website":"http:\/\/americanart.si.edu","category_ids":["311"]}]},{"canonical_uuid":"18c366c6-2004-4796-9a4d-39e791bf3cc9","nonDupes":"","factual_gold":[{"uuid":"18c366c6-2004-4796-9a4d-39e791bf3cc9","name":"Walnut Woods State Park","address":"3155 SE Walnut Woods Dr","locality":"West Des Moines","region":"IA","postcode":"50265","latitude":"41.54515097054039","longitude":"-93.7338974865273","tel":"(515) 285-4502","website":"http:\/\/www.iowadnr.gov\/Destinations\/StateParksRecAreas\/IowasStateParks\/ParkDetails.aspx?ParkID=610133&idAdminBoundary=217","category_ids":["118","119"]}]},{"canonical_uuid":"197c0987-41b1-4d15-a30b-c4a0a9e4be95","nonDupes":"","factual_gold":[{"uuid":"197c0987-41b1-4d15-a30b-c4a0a9e4be95","name":"Excalibur Hotel and Casino","address":"3850 Las Vegas Blvd S","locality":"Las Vegas","region":"NV","postcode":"89109","latitude":"36.098982","longitude":"-115.175471","tel":"(702) 597-7777","website":"http:\/\/www.excalibur.com","category_ids":["436"]}]},{"canonical_uuid":"1a4e4d42-7046-4b42-822a-a59e75cd3834","nonDupes":"","factual_gold":[{"uuid":"1a4e4d42-7046-4b42-822a-a59e75cd3834","name":"Pepsi Center","address":"1000 Chopper Cir","locality":"Denver","region":"CO","postcode":"80204","latitude":"39.748678920797616","longitude":"-105.00763094165575","tel":"(303) 405-1100","website":"http:\/\/www.pepsicenter.com","category_ids":["333","406"]}]},{"canonical_uuid":"1a7e94d4-9c62-438a-a2dd-7b982679ada7","nonDupes":"","factual_gold":[{"uuid":"1a7e94d4-9c62-438a-a2dd-7b982679ada7","name":"Very Large Array","address":null,"locality":"Socorro","region":"NM","postcode":"87825","latitude":"34.078611","longitude":"-107.618316","tel":"(575) 835-7410","website":"http:\/\/www.vla.nrao.edu","category_ids":["107"]}]},{"canonical_uuid":"1b4491a0-c374-4144-a177-e1e59356d2df","nonDupes":"","factual_gold":[{"uuid":"1b4491a0-c374-4144-a177-e1e59356d2df","name":"Brooklyn Bridge","address":null,"locality":"New York","region":"NY","postcode":"10038","latitude":"40.70623273614527","longitude":"-73.99698910070269","tel":null,"website":"http:\/\/www.nyc.gov\/html\/dot\/html\/infrastructure\/brooklyn-bridge.shtml","category_ids":["110"]}]},{"canonical_uuid":"1c5385c6-0d3a-4e69-947f-bbfdc08788ed","nonDupes":"","factual_gold":[{"uuid":"1c5385c6-0d3a-4e69-947f-bbfdc08788ed","name":"Grand Canyon National Park","address":null,"locality":"Grand Canyon","region":"AZ","postcode":"86023","latitude":"36.058781","longitude":"-112.109295","tel":"(928) 638-7888","website":"https:\/\/www.nps.gov\/grca\/planyourvisit\/basicinfo.htm","category_ids":["119"]}]},{"canonical_uuid":"1c7202c4-8c9a-444c-867e-db19ad2a2f6a","nonDupes":"","factual_gold":[{"uuid":"1c7202c4-8c9a-444c-867e-db19ad2a2f6a","name":"FedExForum","address":"191 Beale St","locality":"Memphis","region":"TN","postcode":"38103","latitude":"35.13827","longitude":"-90.050579","tel":"(901) 205-1234","website":"http:\/\/www.fedexforum.com","category_ids":["333","406"]}]},{"canonical_uuid":"1d6a1d85-be73-4b6c-aba0-3a364f5eda8b","nonDupes":"","factual_gold":[{"uuid":"1d6a1d85-be73-4b6c-aba0-3a364f5eda8b","name":"Winterthur Museum, Garden and Library","address":"5105 Kennett Pike","locality":"Winterthur","region":"DE","postcode":"19735","latitude":"39.808883","longitude":"-75.603695","tel":"(800) 448-3883","website":"http:\/\/www.winterthur.org","category_ids":["311"]}]},{"canonical_uuid":"1d906822-3452-47d9-b839-f6ba15a8aabd","nonDupes":"","factual_gold":[{"uuid":"1d906822-3452-47d9-b839-f6ba15a8aabd","name":"Arlington National Cemetery","address":null,"locality":"Arlington","region":"VA","postcode":"22211","latitude":"38.87572661153101","longitude":"-77.05976416269156","tel":"(877) 907-8585","website":"http:\/\/www.arlingtoncemetery.mil","category_ids":["22"]}]},{"canonical_uuid":"1e059ce9-b57d-474d-a3b0-c433e208e350","nonDupes":"","factual_gold":[{"uuid":"1e059ce9-b57d-474d-a3b0-c433e208e350","name":"Nye Library","address":"1640 Randolph Rd","locality":"Fort Sill","region":"OK","postcode":"73503","latitude":"34.673181","longitude":"-98.403724","tel":"(580) 442-3806","website":"https:\/\/sill.armymwr.com\/programs\/nye-library","category_ids":["44"]}]},{"canonical_uuid":"1eecc187-25e2-4f65-882e-b17c83f45e4f","nonDupes":"","factual_gold":[{"uuid":"1eecc187-25e2-4f65-882e-b17c83f45e4f","name":"Fremont Street Experience","address":"425 Fremont St","locality":"Las Vegas","region":"NV","postcode":"89101","latitude":"36.170788","longitude":"-115.14427","tel":"(702) 678-5600","website":"http:\/\/vegasexperience.com","category_ids":["107","436"]}]},{"canonical_uuid":"1f52e8f2-5cf0-4fc0-b0c0-70e2910c951e","nonDupes":"","factual_gold":[{"uuid":"1f52e8f2-5cf0-4fc0-b0c0-70e2910c951e","name":"Independence National Historical Park","address":"143 S 3rd St","locality":"Philadelphia","region":"PA","postcode":"19106","latitude":"39.949288151884154","longitude":"-75.14940355250936","tel":"(215) 965-2305","website":"http:\/\/www.nps.gov\/inde\/index.htm","category_ids":["110"]}]},{"canonical_uuid":"1f6636be-4dbe-47fd-bc01-04139021f638","nonDupes":"","factual_gold":[{"uuid":"1f6636be-4dbe-47fd-bc01-04139021f638","name":"Los Angeles County Museum of Art","address":"5905 Wilshire Blvd","locality":"Los Angeles","region":"CA","postcode":"90036","latitude":"34.06365619653739","longitude":"-118.35928379372305","tel":"(323) 857-6000","website":"http:\/\/www.lacma.org","category_ids":["311"]}]},{"canonical_uuid":"1fb9c4bb-fc43-4fd9-a752-3bb006b6da20","nonDupes":"","factual_gold":[{"uuid":"1fb9c4bb-fc43-4fd9-a752-3bb006b6da20","name":"Ronald Reagan Washington National Airport","address":null,"locality":"Arlington","region":"VA","postcode":"22202","latitude":"38.85186561426386","longitude":"-77.04189419746399","tel":"(703) 417-8600","website":"http:\/\/www.metwashairports.com\/reagan\/reagan.htm","category_ids":["425"]}]},{"canonical_uuid":"21289e4c-0d1e-4b0e-9572-63ba9da5db3b","nonDupes":"","factual_gold":[{"uuid":"21289e4c-0d1e-4b0e-9572-63ba9da5db3b","name":"Mayflower II","address":"State Pier","locality":"Plymouth","region":"MA","postcode":"02361","latitude":"41.959809","longitude":"-70.662174","tel":"(508) 746-1622","website":"http:\/\/www.plimoth.org\/what-see-do\/mayflower-ii","category_ids":["311"]}]},{"canonical_uuid":"2299f133-ed96-467d-9581-a7eb3ea45ac3","nonDupes":"","factual_gold":[{"uuid":"2299f133-ed96-467d-9581-a7eb3ea45ac3","name":"Del Norte County Regional Airport","address":"150 Dale Rupert Rd","locality":"Crescent City","region":"CA","postcode":"95531","latitude":"41.7802","longitude":"-124.237","tel":"(707) 464-7288","website":"https:\/\/www.flycrescentcity.com\/","category_ids":["425"]}]},{"canonical_uuid":"22e42bd0-6aa0-43ed-be48-bffeb846dc5f","nonDupes":"","factual_gold":[{"uuid":"22e42bd0-6aa0-43ed-be48-bffeb846dc5f","name":"Little Bighorn Battlefield","address":null,"locality":"Crow Agency","region":"MT","postcode":"59022","latitude":"45.570709","longitude":"-107.433945","tel":"(406) 638-2621","website":"http:\/\/www.nps.gov\/libi\/planyourvisit\/directions.htm","category_ids":["110","111"]}]},{"canonical_uuid":"25ccc3c8-e2b4-4e26-8727-4ae41f2cfb6a","nonDupes":"","factual_gold":[{"uuid":"25ccc3c8-e2b4-4e26-8727-4ae41f2cfb6a","name":"Sloulin Fld International Airport","address":"421 Airport Rd","locality":"Williston","region":"ND","postcode":"58801","latitude":"48.1779","longitude":"-103.642","tel":"(701) 774-8594","website":"http:\/\/www.flywilliston.net\/","category_ids":["462"]}]},{"canonical_uuid":"26d2f803-9c47-4c30-93f1-01ca1c96fe00","nonDupes":"","factual_gold":[{"uuid":"26d2f803-9c47-4c30-93f1-01ca1c96fe00","name":"Flagstaff Pulliam Airport","address":"6200 S Pulliam Dr","locality":"Flagstaff","region":"AZ","postcode":"86005","latitude":"35.1403","longitude":"-111.669","tel":"(928) 213-2930","website":"http:\/\/www.flagstaff.az.gov\/1541\/Flagstaff-Airport","category_ids":["425"]}]},{"canonical_uuid":"272dab46-9f8c-4b34-86f7-8170a6bed5ae","nonDupes":"","factual_gold":[{"uuid":"272dab46-9f8c-4b34-86f7-8170a6bed5ae","name":"Yampa Valley Regional Airport","address":"11005 County Road 51A","locality":"Hayden","region":"CO","postcode":"81639","latitude":"40.4812","longitude":"-107.218","tel":"(970) 276-5000","website":"http:\/\/www.yampavalleyregionalairport.com","category_ids":["425"]}]},{"canonical_uuid":"273faa80-d2e8-4c17-a2d1-3c60be3be816","nonDupes":"","factual_gold":[{"uuid":"273faa80-d2e8-4c17-a2d1-3c60be3be816","name":"Cathedral Basilica of Saint Peter and Paul","address":"18TH St","locality":"Philadelphia","region":"PA","postcode":"19103","latitude":"39.957223","longitude":"-75.168267","tel":"(215) 561-1313","website":"http:\/\/www.cathedralphila.org","category_ids":["55"]}]},{"canonical_uuid":"28a068f3-78c6-48cb-bdef-ffd76092f00e","nonDupes":"","factual_gold":[{"uuid":"28a068f3-78c6-48cb-bdef-ffd76092f00e","name":"Anacortes Museum","address":"1305 8th St","locality":"Anacortes","region":"WA","postcode":"98221","latitude":"48.515639799935805","longitude":"-122.61774789547799","tel":"(360) 293-1915","website":"https:\/\/www.anacorteswa.gov\/333\/Museum","category_ids":["311"]}]},{"canonical_uuid":"28a78e01-17a0-448d-9197-e41f1f0c6d31","nonDupes":"","factual_gold":[{"uuid":"28a78e01-17a0-448d-9197-e41f1f0c6d31","name":"de Young Museum","address":"50 Hagiwara Tea Garden Dr","locality":"San Francisco","region":"CA","postcode":"94118","latitude":"37.77145688704077","longitude":"-122.46872746685824","tel":"(415) 750-3600","website":"http:\/\/www.deyoungmuseum.org","category_ids":["311"]}]},{"canonical_uuid":"29739a5d-fc99-442f-b240-b21df2ebc54a","nonDupes":"","factual_gold":[{"uuid":"29739a5d-fc99-442f-b240-b21df2ebc54a","name":"Black Canyon of the Gunnison National Park","address":null,"locality":"Montrose","region":"CO","postcode":"81401","latitude":"38.61822103378865","longitude":"-107.69382192960398","tel":"(970) 641-2337","website":"http:\/\/www.nps.gov\/blca\/index.htm","category_ids":["119"]}]},{"canonical_uuid":"298975c4-19df-4a37-a007-1a050a574b27","nonDupes":"","factual_gold":[{"uuid":"298975c4-19df-4a37-a007-1a050a574b27","name":"Sehome Hill Arboretum","address":null,"locality":"Bellingham","region":"WA","postcode":"98225","latitude":"48.73445","longitude":"-122.480384","tel":null,"website":"http:\/\/www.wwu.edu\/share\/index.html","category_ids":["115","119"]}]},{"canonical_uuid":"29d4ffb9-3f6d-4e79-80e9-02c3e572ef57","nonDupes":"","factual_gold":[{"uuid":"29d4ffb9-3f6d-4e79-80e9-02c3e572ef57","name":"Bridge of the Gods","address":null,"locality":"Cascade Locks","region":"OR","postcode":"97014","latitude":"45.662979","longitude":"-121.904657","tel":"(541) 374-8619","website":"http:\/\/portofcascadelocks.org\/bridge-of-the-gods","category_ids":["108"]}]},{"canonical_uuid":"2a319980-be45-400a-9cc8-7eeb16ecdfa5","nonDupes":"","factual_gold":[{"uuid":"2a319980-be45-400a-9cc8-7eeb16ecdfa5","name":"Kahanu Garden","address":null,"locality":"Hana","region":"HI","postcode":"96713","latitude":"20.79664440750923","longitude":"-156.0341052229943","tel":"(808) 248-8912","website":"https:\/\/ntbg.org\/gardens\/kahanu","category_ids":["109"]}]},{"canonical_uuid":"2a5b8607-77cf-419b-9fcf-0ae6097e68bc","nonDupes":"","factual_gold":[{"uuid":"2a5b8607-77cf-419b-9fcf-0ae6097e68bc","name":"Jack London Square","address":null,"locality":"Oakland","region":"CA","postcode":"94607","latitude":"37.795245","longitude":"-122.27743","tel":"(510) 645-9292","website":"http:\/\/www.jacklondonsquare.com","category_ids":["347"]}]},{"canonical_uuid":"2b9c912b-462c-4633-9453-d1f4affd5803","nonDupes":"","factual_gold":[{"uuid":"2b9c912b-462c-4633-9453-d1f4affd5803","name":"Coastal Carolina Regional Airport","address":"200 Terminal Dr","locality":"New Bern","region":"NC","postcode":"28562","latitude":"35.073","longitude":"-77.0429","tel":"(252) 638-8591","website":"http:\/\/www.newbernairport.com","category_ids":["425"]}]},{"canonical_uuid":"2c2a1ddf-5bda-4b81-a9fa-cb20062753ca","nonDupes":"","factual_gold":[{"uuid":"2c2a1ddf-5bda-4b81-a9fa-cb20062753ca","name":"Quaker Bridge Mall","address":"3320 US Highway 1","locality":"Lawrenceville","region":"NJ","postcode":"08648","latitude":"40.29081922685592","longitude":"-74.68192248527741","tel":"(609) 799-8177","website":"http:\/\/www.quakerbridgemall.com","category_ids":["169"]}]},{"canonical_uuid":"2c543119-c70e-433d-a50c-301ef38bd012","nonDupes":"","factual_gold":[{"uuid":"2c543119-c70e-433d-a50c-301ef38bd012","name":"Factual","address":"650 California St","locality":"San Francisco","region":"CA","postcode":"94108","latitude":"37.787764","longitude":"-122.406394","tel":"(415) 603-4070","website":"http:\/\/www.factual.com","category_ids":["209","460"]}]},{"canonical_uuid":"2db6b299-e5d3-407d-9cab-34fa6257f092","nonDupes":"","factual_gold":[{"uuid":"2db6b299-e5d3-407d-9cab-34fa6257f092","name":"Kennedy Gold Mine Tours","address":null,"locality":"Jackson","region":"CA","postcode":"95642","latitude":"38.367222","longitude":"-120.779167","tel":"(209) 223-9542","website":"http:\/\/www.kennedygoldmine.com","category_ids":["108"]}]},{"canonical_uuid":"2e357ac3-6300-4528-8b0b-0b886cd03376","nonDupes":"","factual_gold":[{"uuid":"2e357ac3-6300-4528-8b0b-0b886cd03376","name":"Memorial to Japanese-American Patriotism in World War II","address":"4200 Wisconsin Ave NW","locality":"Washington","region":"DC","postcode":"20016","latitude":"38.894582","longitude":"-77.010565","tel":"(202) 643-8204","website":"https:\/\/www.njamemorial.org","category_ids":["111"]}]},{"canonical_uuid":"30cfe159-df42-47d0-9117-bd6f0d7a8e07","nonDupes":"","factual_gold":[{"uuid":"30cfe159-df42-47d0-9117-bd6f0d7a8e07","name":"Santa Fe Municipal Airport","address":"121 Aviation Dr","locality":"Santa Fe","region":"NM","postcode":"87507","latitude":"35.6171","longitude":"-106.089","tel":"(505) 955-2900","website":"http:\/\/www.santafenm.gov\/airport","category_ids":["425"]}]},{"canonical_uuid":"31d654bb-abfe-4e4b-9c38-92379635d000","nonDupes":"","factual_gold":[{"uuid":"31d654bb-abfe-4e4b-9c38-92379635d000","name":"Nationals Park","address":"1500 S Capitol St SE","locality":"Washington","region":"DC","postcode":"20003","latitude":"38.872929","longitude":"-77.007542","tel":"(202) 675-6287","website":"https:\/\/www.mlb.com\/nationals\/ballpark","category_ids":["374","406"]}]},{"canonical_uuid":"32085b14-9b28-47fc-b43a-a81e40a111a3","nonDupes":"","factual_gold":[{"uuid":"32085b14-9b28-47fc-b43a-a81e40a111a3","name":"Salem Common","address":"Washington Square","locality":"Salem","region":"MA","postcode":"01970","latitude":"42.52397048831607","longitude":"-70.88911046727286","tel":"(978) 744-0180","website":"http:\/\/www.salemweb.com\/guide\/arch\/wdistrict.shtml","category_ids":["118"]}]},{"canonical_uuid":"339d08cc-d17e-41b2-96f0-d94e2bd4f67a","nonDupes":"","factual_gold":[{"uuid":"339d08cc-d17e-41b2-96f0-d94e2bd4f67a","name":"Spring Mountain Ranch State Park","address":null,"locality":"Blue Diamond","region":"NV","postcode":"89004","latitude":"36.071207","longitude":"-115.454105","tel":"(702) 875-4141","website":"http:\/\/parks.nv.gov\/parks\/spring-mountain-ranch","category_ids":["118"]}]},{"canonical_uuid":"348f62f9-2308-44e5-a2df-1b52ce86d076","nonDupes":"","factual_gold":[{"uuid":"348f62f9-2308-44e5-a2df-1b52ce86d076","name":"Madison Square Garden","address":"Two Pennsylvania Plaza","locality":"New York","region":"NY","postcode":"10121","latitude":"40.749688","longitude":"-73.991566","tel":"(212) 465-6741","website":"http:\/\/www.msg.com","category_ids":["333","406"]}]},{"canonical_uuid":"34afafba-94d1-4d41-9cbe-80dc15545049","nonDupes":"","factual_gold":[{"uuid":"34afafba-94d1-4d41-9cbe-80dc15545049","name":"BMO Harris Bradley Center","address":"1001 N 4th St","locality":"Milwaukee","region":"WI","postcode":"53203","latitude":"43.04373","longitude":"-87.916974","tel":"(414) 227-0400","website":"http:\/\/www.bmoharrisbradleycenter.com","category_ids":["333","406"]}]},{"canonical_uuid":"358b3cd8-49bf-4a0c-9fbb-4fb5f61f5728","nonDupes":"","factual_gold":[{"uuid":"358b3cd8-49bf-4a0c-9fbb-4fb5f61f5728","name":"Golden 1 Center","address":"500 David J Stern Walk","locality":"Sacramento","region":"CA","postcode":"95814","latitude":"38.58005","longitude":"-121.500199","tel":"(888) 915-4647","website":"http:\/\/www.golden1center.com\/","category_ids":["333","406"]}]},{"canonical_uuid":"35fb2aff-54e4-4756-b14e-2dce91a7d82d","nonDupes":"","factual_gold":[{"uuid":"35fb2aff-54e4-4756-b14e-2dce91a7d82d","name":"Museum of Natural and Cultural History","address":"1680 E 15TH Ave","locality":"Eugene","region":"OR","postcode":"97403","latitude":"44.043012720027725","longitude":"-123.06808155431123","tel":"(541) 346-3024","website":null,"category_ids":["311"]}]},{"canonical_uuid":"36078e47-68b4-458c-8da9-b619cf18d7e4","nonDupes":"","factual_gold":[{"uuid":"36078e47-68b4-458c-8da9-b619cf18d7e4","name":"New Era Field","address":"1 Bills Dr","locality":"Orchard Park","region":"NY","postcode":"14127","latitude":"42.7737","longitude":"-78.786983","tel":"(716) 648-1800","website":"http:\/\/www.buffalobills.com\/stadium\/","category_ids":["406"]}]},{"canonical_uuid":"366154f5-09cb-43ed-9308-a9432eed8196","nonDupes":"","factual_gold":[{"uuid":"366154f5-09cb-43ed-9308-a9432eed8196","name":"Fitzgerald Theater","address":"10 Exchange St E","locality":"Saint Paul","region":"MN","postcode":"55101","latitude":"44.94921871381144","longitude":"-93.09690918412814","tel":"(651) 290-1200","website":"http:\/\/www.fitzgeraldtheater.org","category_ids":["333"]}]},{"canonical_uuid":"369265e7-817e-45e1-ad92-087424ee169b","nonDupes":"","factual_gold":[{"uuid":"369265e7-817e-45e1-ad92-087424ee169b","name":"New York Public Library","address":"476 5th Ave","locality":"New York","region":"NY","postcode":"10018","latitude":"40.75318745364301","longitude":"-73.98224111648707","tel":"(917) 275-6975","website":"http:\/\/www.nypl.org","category_ids":["44"]}]},{"canonical_uuid":"37e00667-02ab-424e-b488-a4d57b004be7","nonDupes":"","factual_gold":[{"uuid":"37e00667-02ab-424e-b488-a4d57b004be7","name":"Chaco Culture National Historical Park","address":null,"locality":"Nageezi","region":"NM","postcode":"87037","latitude":"36.060736","longitude":"-107.961517","tel":"(505) 786-7014","website":"http:\/\/www.nps.gov\/chcu\/index.htm","category_ids":["118"]}]},{"canonical_uuid":"383d48a8-fa91-4b84-b196-ba5272b100cd","nonDupes":"","factual_gold":[{"uuid":"383d48a8-fa91-4b84-b196-ba5272b100cd","name":"TD Garden","address":"100 Legends Way","locality":"Boston","region":"MA","postcode":"02114","latitude":"42.366274","longitude":"-71.062226","tel":"(617) 624-1050","website":"http:\/\/www.tdgarden.com","category_ids":["333","406"]}]},{"canonical_uuid":"38cc7579-d0f7-472a-9c6a-4fce34253597","nonDupes":"","factual_gold":[{"uuid":"38cc7579-d0f7-472a-9c6a-4fce34253597","name":"Trenton Mercer Airport","address":"1100 Terminal Circle Dr","locality":"Ewing","region":"NJ","postcode":"08628","latitude":"40.2767","longitude":"-74.8135","tel":"(609) 882-1601","website":"http:\/\/www.mercercounty.org\/departments\/transportation-and-infrastructure\/trenton-mercer-airport","category_ids":["425"]}]},{"canonical_uuid":"38e6896c-fd94-45fd-a69c-61f8cd8ebb54","nonDupes":"","factual_gold":[{"uuid":"38e6896c-fd94-45fd-a69c-61f8cd8ebb54","name":"Twitter HQ","address":"1355 Market St","locality":"San Francisco","region":"CA","postcode":"94103","latitude":"37.77647600161121","longitude":"-122.4168909592024","tel":"(415) 222-9670","website":"http:\/\/www.twitter.com","category_ids":["308"]}]},{"canonical_uuid":"392275f3-2247-4687-8480-a3fcba08e9bf","nonDupes":"","factual_gold":[{"uuid":"392275f3-2247-4687-8480-a3fcba08e9bf","name":"Natural Bridges National Monument","address":null,"locality":"Lake Powell","region":"UT","postcode":"84533","latitude":"37.60502722983331","longitude":"-110.00378219417992","tel":"(435) 692-1234","website":"http:\/\/www.nps.gov\/nabr","category_ids":["119"]}]},{"canonical_uuid":"394882c3-841d-4c35-9f54-0f25751e9f6a","nonDupes":"","factual_gold":[{"uuid":"394882c3-841d-4c35-9f54-0f25751e9f6a","name":"Lost City Museum","address":"721 S Moapa Valley Blvd","locality":"Overton","region":"NV","postcode":"89040","latitude":"36.531526848543365","longitude":"-114.44095508051186","tel":"(702) 397-2193","website":"http:\/\/nvculture.org\/lostcitymuseum\/","category_ids":["311"]}]},{"canonical_uuid":"3a101ea1-519d-4d0b-983d-88f1e0ac6a7c","nonDupes":"","factual_gold":[{"uuid":"3a101ea1-519d-4d0b-983d-88f1e0ac6a7c","name":"Bentley Mall","address":"32 College Rd","locality":"Fairbanks","region":"AK","postcode":"99701","latitude":"64.851557","longitude":"-147.700984","tel":"(907) 456-3900","website":null,"category_ids":["169"]}]},{"canonical_uuid":"3ab4fd4b-7085-437f-881a-87f76f2efb7c","nonDupes":"","factual_gold":[{"uuid":"3ab4fd4b-7085-437f-881a-87f76f2efb7c","name":"Morgantown Municipal-Walter L. Bill Hart Fld Airport","address":"100 Hart Field Rd","locality":"Morgantown","region":"WV","postcode":"26505","latitude":"39.6429","longitude":"-79.9163","tel":"(304) 291-7461","website":null,"category_ids":["425"]}]},{"canonical_uuid":"3acf1358-8c2c-4e15-9c1f-a3df31d9ec05","nonDupes":"","factual_gold":[{"uuid":"3acf1358-8c2c-4e15-9c1f-a3df31d9ec05","name":"Crystal Springs Rhododendron Garden","address":null,"locality":"Portland","region":"OR","postcode":"97202","latitude":"45.478862","longitude":"-122.634585","tel":"(503) 771-8386","website":"http:\/\/www.portlandonline.com\/parks\/finder\/index.cfm?PropertyID=27&action=ViewPark","category_ids":["109"]}]},{"canonical_uuid":"3b4f8c02-d5c7-413b-a7cc-fb338e067278","nonDupes":"","factual_gold":[{"uuid":"3b4f8c02-d5c7-413b-a7cc-fb338e067278","name":"Rose Hill Mansion","address":"3373 State Route 96A","locality":"Geneva","region":"NY","postcode":"14456","latitude":"42.860786","longitude":"-76.936069","tel":"(315) 789-3848","website":"http:\/\/genevahistoricalsociety.com\/visit\/rose-hill-mansion\/","category_ids":["110"]}]},{"canonical_uuid":"3d22d62e-30a6-4447-abdd-d82728782f36","nonDupes":"","factual_gold":[{"uuid":"3d22d62e-30a6-4447-abdd-d82728782f36","name":"The Gateway Arch","address":"11 N 4th St","locality":"St. Louis","region":"MO","postcode":"63102","latitude":"38.624692","longitude":"-90.184774","tel":"(877) 982-1410","website":"http:\/\/www.gatewayarch.com","category_ids":["111"]}]},{"canonical_uuid":"3e570660-1ff5-4a2c-aefd-fadd9abdec83","nonDupes":"","factual_gold":[{"uuid":"3e570660-1ff5-4a2c-aefd-fadd9abdec83","name":"Ketchikan International Airport","address":"1000 Airport Terminal Way","locality":"Ketchikan","region":"AK","postcode":"99901","latitude":"55.3556","longitude":"-131.714","tel":"(907) 225-6800","website":"http:\/\/www.borough.ketchikan.ak.us","category_ids":["462"]}]},{"canonical_uuid":"3e7c2f2b-f965-461c-9cc4-0948ca145c4d","nonDupes":"","factual_gold":[{"uuid":"3e7c2f2b-f965-461c-9cc4-0948ca145c4d","name":"TCF Bank Stadium","address":"420 23rd Ave SE","locality":"Minneapolis","region":"MN","postcode":"55455","latitude":"44.976562","longitude":"-93.224379","tel":"(612) 624-5072","website":"http:\/\/www.gophersports.com\/facilities\/tcf-bank-stadium.html","category_ids":["406"]}]},{"canonical_uuid":"3e92dcd5-2c26-4d7e-8f5b-03d63bf08498","nonDupes":"","factual_gold":[{"uuid":"3e92dcd5-2c26-4d7e-8f5b-03d63bf08498","name":"Chico Municipal Airport","address":"150 Airpark Blvd","locality":"Chico","region":"CA","postcode":"95973","latitude":"39.7954","longitude":"-121.858","tel":"(530) 896-7699","website":"http:\/\/www.chico.ca.us\/airport\/home_page.asp","category_ids":["425"]}]},{"canonical_uuid":"3ea755e8-8b6f-48e3-8c87-093eb9d2e0d2","nonDupes":"","factual_gold":[{"uuid":"3ea755e8-8b6f-48e3-8c87-093eb9d2e0d2","name":"Poipu Beach","address":null,"locality":"Koloa","region":"HI","postcode":"96756","latitude":"21.873330001443385","longitude":"-159.45294273008722","tel":"(808) 742-7444","website":"http:\/\/www.sheraton-kauai.com\/dining\/rumfire\/","category_ids":["113"]}]},{"canonical_uuid":"3eb45677-069f-4eb9-9575-8a0004e0ad88","nonDupes":"","factual_gold":[{"uuid":"3eb45677-069f-4eb9-9575-8a0004e0ad88","name":"Japanese American Historical Plaza","address":null,"locality":"Portland","region":"OR","postcode":"97209","latitude":"45.523939","longitude":"-122.669585","tel":"(503) 823-2223","website":"http:\/\/www.oregon.com\/history\/japanese_american_heritage","category_ids":["110"]}]},{"canonical_uuid":"3f639965-3024-4438-823c-bdf039c8179e","nonDupes":"","factual_gold":[{"uuid":"3f639965-3024-4438-823c-bdf039c8179e","name":"University of California","address":null,"locality":"Berkeley","region":"CA","postcode":"94720","latitude":"37.873913","longitude":"-122.250563","tel":"(510) 642-6000","website":"http:\/\/www.berkeley.edu","category_ids":["29"]}]},{"canonical_uuid":"3fe50eef-2299-4e1e-9051-397a226bc465","nonDupes":"","factual_gold":[{"uuid":"3fe50eef-2299-4e1e-9051-397a226bc465","name":"Navajo National Monument","address":null,"locality":"Shonto","region":"AZ","postcode":"86054","latitude":"36.6856871683135","longitude":"-110.5368165282803","tel":"(928) 672-2700","website":"http:\/\/www.nps.gov\/nava\/index.htm","category_ids":["119"]}]},{"canonical_uuid":"402611d4-6623-4b99-90be-d3d8a32f9fa6","nonDupes":"","factual_gold":[{"uuid":"402611d4-6623-4b99-90be-d3d8a32f9fa6","name":"John F. Kennedy International Airport","address":null,"locality":"Jamaica","region":"NY","postcode":"11430","latitude":"40.643844","longitude":"-73.782304","tel":"(718) 244-4444","website":"http:\/\/www.panynj.gov\/airports\/jfk.html","category_ids":["462"]}]},{"canonical_uuid":"40c63461-e6c4-4a30-be75-3d9fcd77df12","nonDupes":"","factual_gold":[{"uuid":"40c63461-e6c4-4a30-be75-3d9fcd77df12","name":"Wendover Airport","address":null,"locality":"Wendover","region":"UT","postcode":"84083","latitude":"40.7187","longitude":"-114.031","tel":"(435) 665-2308","website":"http:\/\/www.wendoverairbase.com","category_ids":["425"]}]},{"canonical_uuid":"410637e2-162d-4af3-af2c-8779c50dfa3c","nonDupes":"","factual_gold":[{"uuid":"410637e2-162d-4af3-af2c-8779c50dfa3c","name":"Coors Field","address":"2001 Blake St","locality":"Denver","region":"CO","postcode":"80205","latitude":"39.756164","longitude":"-104.994083","tel":"(303) 292-0200","website":"http:\/\/colorado.rockies.mlb.com\/col\/ballpark\/index.jsp","category_ids":["333","406"]}]},{"canonical_uuid":"4384c0e8-5673-4398-aafc-f8589a332364","nonDupes":"","factual_gold":[{"uuid":"4384c0e8-5673-4398-aafc-f8589a332364","name":"Klondike Gold Rush","address":"291 Broadway St","locality":"Skagway","region":"AK","postcode":"99840","latitude":"59.446602","longitude":"-135.284995","tel":"(907) 983-9200","website":"http:\/\/www.nps.gov\/klgo\/index.htm","category_ids":["110"]}]},{"canonical_uuid":"4573b47a-92fb-411e-8e13-7551d76c93a3","nonDupes":"","factual_gold":[{"uuid":"4573b47a-92fb-411e-8e13-7551d76c93a3","name":"Capital One Arena","address":"601 F St NW","locality":"Washington","region":"DC","postcode":"20004","latitude":"38.89807629880903","longitude":"-77.02099244364899","tel":"(202) 628-3200","website":"http:\/\/www.capitalonearena.com\/","category_ids":["333","406"]}]},{"canonical_uuid":"45db592a-964c-4a87-b3dc-dd0d638382fc","nonDupes":"","factual_gold":[{"uuid":"45db592a-964c-4a87-b3dc-dd0d638382fc","name":"Jerome State Historic Park","address":null,"locality":"Jerome","region":"AZ","postcode":"86331","latitude":"34.753998","longitude":"-112.111262","tel":"(928) 634-5381","website":"http:\/\/azstateparks.com\/parks\/jero\/index.html","category_ids":["110"]}]},{"canonical_uuid":"46ca761c-d0fe-4d5b-babe-3c51ab681525","nonDupes":"","factual_gold":[{"uuid":"46ca761c-d0fe-4d5b-babe-3c51ab681525","name":"Willamette Mission State Park","address":null,"locality":"Salem","region":"OR","postcode":"97303","latitude":"45.07454952621422","longitude":"-123.05227994649523","tel":"(503) 393-1172","website":"http:\/\/www.oregonstateparks.org\/park_139.php","category_ids":["119"]}]},{"canonical_uuid":"46d7a245-0527-4e28-af4c-bb641bbc81cb","nonDupes":"","factual_gold":[{"uuid":"46d7a245-0527-4e28-af4c-bb641bbc81cb","name":"Thomas Jefferson Memorial","address":"16 East Basin Drive","locality":"Washington","region":"DC","postcode":"20242","latitude":"38.881183","longitude":"-77.035577","tel":"(202) 426-6841","website":"http:\/\/www.nps.gov\/thje\/index.htm","category_ids":["111"]}]},{"canonical_uuid":"47649f4f-dce1-41a8-9db2-c19edc04ac4a","nonDupes":"","factual_gold":[{"uuid":"47649f4f-dce1-41a8-9db2-c19edc04ac4a","name":"Cincinnati\/Northern Kentucky International Airport","address":"3087 Terminal Drive","locality":"Hebron","region":"KY","postcode":"41048","latitude":"39.0488","longitude":"-84.6678","tel":"(859) 767-3151","website":"http:\/\/www.cvgairport.com","category_ids":["462"]}]},{"canonical_uuid":"488816a0-b12f-4dba-8739-29c39bbe7f4b","nonDupes":"","factual_gold":[{"uuid":"488816a0-b12f-4dba-8739-29c39bbe7f4b","name":"Greenbrier Valley Airport","address":"584 Airport Rd","locality":"Lewisburg","region":"WV","postcode":"24901","latitude":"37.8583","longitude":"-80.3995","tel":"(304) 645-3961","website":"http:\/\/www.gvairport.com\/","category_ids":["425"]}]},{"canonical_uuid":"491a2c88-0d94-4986-874a-1e3c87e266a3","nonDupes":"","factual_gold":[{"uuid":"491a2c88-0d94-4986-874a-1e3c87e266a3","name":"Rockefeller Memorial Chapel","address":"5850 S Woodlawn Ave","locality":"Chicago","region":"IL","postcode":"60637","latitude":"41.78852933593511","longitude":"-87.59704407910831","tel":"(773) 702-2100","website":"http:\/\/www.uchicago.edu","category_ids":["53","333"]}]},{"canonical_uuid":"492454ef-0400-474e-965a-07e5b88d9608","nonDupes":"","factual_gold":[{"uuid":"492454ef-0400-474e-965a-07e5b88d9608","name":"Ecola State Park","address":null,"locality":"Cannon Beach","region":"OR","postcode":"97110","latitude":"45.931015","longitude":"-123.978354","tel":"(503) 436-2844","website":"http:\/\/www.oregonstateparks.org\/index.cfm?do=parkPage.dsp_parkPage&parkId=136","category_ids":["119"]}]},{"canonical_uuid":"49859545-68b5-45b0-a151-9f9af4054558","nonDupes":"","factual_gold":[{"uuid":"49859545-68b5-45b0-a151-9f9af4054558","name":"Dillingham Airport","address":null,"locality":"Dillingham","region":"AK","postcode":"99576","latitude":"59.0447","longitude":"-158.506","tel":"(907) 842-5511","website":null,"category_ids":["425"]}]},{"canonical_uuid":"4a0a8369-9a30-44f2-8c5f-7fc3e4c579f3","nonDupes":"","factual_gold":[{"uuid":"4a0a8369-9a30-44f2-8c5f-7fc3e4c579f3","name":"Hoover Dam","address":null,"locality":"Boulder City","region":"NV","postcode":"89005","latitude":"36.016067","longitude":"-114.7377312","tel":"(702) 494-2517","website":"http:\/\/www.usbr.gov\/lc\/hooverdam\/","category_ids":["108"]}]},{"canonical_uuid":"4bbc39a3-f89c-4639-bcd4-68da5dfc36db","nonDupes":"","factual_gold":[{"uuid":"4bbc39a3-f89c-4639-bcd4-68da5dfc36db","name":"Waikiki Aquarium","address":"2777 Kalakaua Ave","locality":"Honolulu","region":"HI","postcode":"96815","latitude":"21.265812298059096","longitude":"-157.82178191564535","tel":"(808) 923-9741","website":null,"category_ids":["371"]}]},{"canonical_uuid":"4bf0f82e-4e64-4614-a432-0ded76a4303b","nonDupes":"","factual_gold":[{"uuid":"4bf0f82e-4e64-4614-a432-0ded76a4303b","name":"Fakahatchee Strand Preserve State Park","address":null,"locality":"Copeland","region":"FL","postcode":"34137","latitude":"25.998304","longitude":"-81.405919","tel":"(239) 695-4593","website":"http:\/\/www.floridastateparks.org\/fakahatcheestrand","category_ids":["119"]}]},{"canonical_uuid":"4c54a294-587e-4a6a-9358-ddcf6b4f2f4a","nonDupes":"","factual_gold":[{"uuid":"4c54a294-587e-4a6a-9358-ddcf6b4f2f4a","name":null,"address":"Dartmouth College","locality":"Hanover","region":"NH","postcode":"03755","latitude":"43.704441","longitude":"-72.288693","tel":"(603) 646-1110","website":"http:\/\/www.dartmouth.edu","category_ids":["29"]}]},{"canonical_uuid":"4cf8e5fa-12f7-46ff-aeca-3ca379476e29","nonDupes":"","factual_gold":[{"uuid":"4cf8e5fa-12f7-46ff-aeca-3ca379476e29","name":"Oregon Trail Interpretive Center","address":"22267 Oregon Hwy 86","locality":"Baker City","region":"OR","postcode":"97814","latitude":"44.81484373823015","longitude":"-117.72867708664376","tel":"(541) 523-1827","website":"https:\/\/www.trailtenders.org","category_ids":["107"]}]},{"canonical_uuid":"4d39f622-d8ff-456b-bdd4-fcf862d71540","nonDupes":"","factual_gold":[{"uuid":"4d39f622-d8ff-456b-bdd4-fcf862d71540","name":"Marian Koshland Science Museum","address":null,"locality":"Washington","region":"DC","postcode":"20001","latitude":"38.89626","longitude":"-77.019702","tel":"(202) 334-1201","website":"https:\/\/koshland-science-museum.org","category_ids":["311"]}]},{"canonical_uuid":"4dbe8326-6620-46a6-963b-7b6552d129df","nonDupes":"","factual_gold":[{"uuid":"4dbe8326-6620-46a6-963b-7b6552d129df","name":"Birch Aquarium at Scripps","address":null,"locality":"La Jolla","region":"CA","postcode":"92037","latitude":"32.8659742","longitude":"-117.2507356","tel":"(858) 534-3474","website":"http:\/\/aquarium.ucsd.edu\/","category_ids":["371"]}]},{"canonical_uuid":"4dca5ed2-d889-4dee-8d56-f58308023e65","nonDupes":"","factual_gold":[{"uuid":"4dca5ed2-d889-4dee-8d56-f58308023e65","name":"American Museum of Natural History","address":"Central Park","locality":"New York","region":"NY","postcode":"10024","latitude":"40.781324","longitude":"-73.973988","tel":"(212) 769-5100","website":"http:\/\/www.amnh.org","category_ids":["311"]}]},{"canonical_uuid":"4f31344a-8f72-4089-bd2f-fd905934920c","nonDupes":"","factual_gold":[{"uuid":"4f31344a-8f72-4089-bd2f-fd905934920c","name":null,"address":null,"locality":"Fort Knox","region":"KY","postcode":"40121","latitude":"37.916104","longitude":"-85.956247","tel":"(502) 624-2707","website":"http:\/\/www.knox.army.mil","category_ids":["45"]}]},{"canonical_uuid":"4f43e705-0835-4119-91ce-0eb84a465b5e","nonDupes":"","factual_gold":[{"uuid":"4f43e705-0835-4119-91ce-0eb84a465b5e","name":"Westchester County Airport","address":"240 Airport Rd","locality":"White Plains","region":"NY","postcode":"10604","latitude":"41.0669","longitude":"-73.7076","tel":"(914) 995-4860","website":"https:\/\/airport.westchestergov.com\/tact-us","category_ids":["425"]}]},{"canonical_uuid":"5196b5c8-cb9f-48fa-a4af-2b3c48439246","nonDupes":"","factual_gold":[{"uuid":"5196b5c8-cb9f-48fa-a4af-2b3c48439246","name":"National Tropical Botanical Garden - Allerton and McBryde Garden","address":"4425 Lawai Rd","locality":"Koloa","region":"HI","postcode":"96756","latitude":"21.886409282406724","longitude":"-159.49273596596245","tel":"(808) 742-2623","website":"http:\/\/www.ntbg.org","category_ids":["109"]}]},{"canonical_uuid":"51dcaf54-48ff-4237-9c1e-18ad74eeed8e","nonDupes":"","factual_gold":[{"uuid":"51dcaf54-48ff-4237-9c1e-18ad74eeed8e","name":null,"address":null,"locality":"Stennis Space Center","region":"MS","postcode":"39529","latitude":"30.382723","longitude":"-89.605951","tel":"(228) 688-2211","website":"http:\/\/www.ssc.nasa.gov","category_ids":["37"]}]},{"canonical_uuid":"528bc8e7-d0e9-4c94-b15c-e242b10a06a0","nonDupes":"","factual_gold":[{"uuid":"528bc8e7-d0e9-4c94-b15c-e242b10a06a0","name":"Korean War Veterans Memorial","address":null,"locality":"Washington","region":"DC","postcode":"20002","latitude":"38.888009522107616","longitude":"-77.04793161052238","tel":"(202) 426-6841","website":"https:\/\/www.nps.gov\/kowa\/index.htm","category_ids":["111"]}]},{"canonical_uuid":"52cd2956-5f14-4554-86ae-64f2079b9612","nonDupes":"","factual_gold":[{"uuid":"52cd2956-5f14-4554-86ae-64f2079b9612","name":"Admiralty National Monument","address":"8510 Mendenhall Loop Rd","locality":"Juneau","region":"AK","postcode":"99801","latitude":"58.398766","longitude":"-134.569731","tel":"(907) 586-8800","website":"https:\/\/www.fs.usda.gov\/detail\/tongass\/about-forest\/offices","category_ids":["119"]}]},{"canonical_uuid":"55ce0d9e-544d-447b-b361-8d2d43d5e9fc","nonDupes":"","factual_gold":[{"uuid":"55ce0d9e-544d-447b-b361-8d2d43d5e9fc","name":"Kodiak Airport","address":null,"locality":"Kodiak","region":"AK","postcode":"99615","latitude":"57.7543769","longitude":"-152.5143588","tel":"(907) 487-4363","website":null,"category_ids":["425"]}]},{"canonical_uuid":"56697a25-9de1-45a3-8dd9-e45853711037","nonDupes":"","factual_gold":[{"uuid":"56697a25-9de1-45a3-8dd9-e45853711037","name":"Horseshoe Bend Campgrounds","address":null,"locality":"Lovell","region":"WY","postcode":"82431","latitude":"44.96249","longitude":"-108.264534","tel":"(406) 666-2412","website":"https:\/\/www.nps.gov\/bica\/planyourvisit\/horseshoe-bend-campground.htm","category_ids":["388"]}]},{"canonical_uuid":"56cad208-19c5-421e-9f48-6dca55a740ae","nonDupes":"","factual_gold":[{"uuid":"56cad208-19c5-421e-9f48-6dca55a740ae","name":"Talking Stick Resort Arena","address":"201 E Jefferson St","locality":"Phoenix","region":"AZ","postcode":"85004","latitude":"33.445895","longitude":"-112.071284","tel":"(602) 379-2000","website":"http:\/\/talkingstickresortarena.com\/","category_ids":["333","406"]}]},{"canonical_uuid":"576670e8-1590-4849-8d13-283bf49535ce","nonDupes":"","factual_gold":[{"uuid":"576670e8-1590-4849-8d13-283bf49535ce","name":"ESPN Wide World of Sports","address":null,"locality":"Kissimmee","region":"FL","postcode":"34747","latitude":"28.340407848446343","longitude":"-81.55378060205939","tel":"(407) 939-1500","website":"https:\/\/disneyworld.disney.go.com\/destinations\/wide-world-of-sports","category_ids":["400"]}]},{"canonical_uuid":"57ac095f-111f-4718-b096-f9258baf31f8","nonDupes":"","factual_gold":[{"uuid":"57ac095f-111f-4718-b096-f9258baf31f8","name":"US Bank","address":"633 W 5th St","locality":"Los Angeles","region":"CA","postcode":"90071","latitude":"34.05096109999999","longitude":"-118.2543528","tel":"(213) 615-6300","website":"http:\/\/www.usbank.com\/","category_ids":["108"]}]},{"canonical_uuid":"57bc7925-1128-4e81-b13a-25f409a668a7","nonDupes":"","factual_gold":[{"uuid":"57bc7925-1128-4e81-b13a-25f409a668a7","name":"Flatiron Building","address":"175 5th Ave","locality":"New York","region":"NY","postcode":"10010","latitude":"40.74100856202785","longitude":"-73.98957695230183","tel":"(212) 477-0947","website":"http:\/\/www.historyvortex.org\/FlatironBuilding.html","category_ids":["108"]}]},{"canonical_uuid":"58660fcf-4993-4e5e-aab9-040cb62129f6","nonDupes":"","factual_gold":[{"uuid":"58660fcf-4993-4e5e-aab9-040cb62129f6","name":"Petrified Forest National Park","address":"1 Park Rd","locality":"Petrified Forest Natl Park","region":"AZ","postcode":"86028","latitude":"34.90999","longitude":"-109.806792","tel":"(928) 524-6228","website":"http:\/\/www.nps.gov\/pefo\/index.htm","category_ids":["115"]}]},{"canonical_uuid":"58c1813a-d450-4e40-aa8e-df3845271a53","nonDupes":"","factual_gold":[{"uuid":"58c1813a-d450-4e40-aa8e-df3845271a53","name":"Southwest Wyoming Regional Airport","address":"382 Hwy","locality":"Rock Springs","region":"WY","postcode":"82901","latitude":"41.5942","longitude":"-109.065","tel":"(307) 352-6880","website":"http:\/\/www.flyrks.com\/","category_ids":["425"]}]},{"canonical_uuid":"593ab158-07a5-4275-84b7-22ae5df8d759","nonDupes":"","factual_gold":[{"uuid":"593ab158-07a5-4275-84b7-22ae5df8d759","name":"Kalaupapa National Historical Park","address":null,"locality":"Kalaupapa","region":"HI","postcode":"96742","latitude":"21.20948","longitude":"-156.97477","tel":"(808) 567-6802","website":"http:\/\/www.nps.gov\/kala","category_ids":["119"]}]},{"canonical_uuid":"593d7362-4161-468a-83f5-d0095eaa530f","nonDupes":"","factual_gold":[{"uuid":"593d7362-4161-468a-83f5-d0095eaa530f","name":null,"address":"1220 5th Ave","locality":"New York","region":"NY","postcode":"10029","latitude":"40.792495","longitude":"-73.951905","tel":"(212) 534-1672","website":"http:\/\/www.mcny.org","category_ids":["311"]}]},{"canonical_uuid":"5a8fd511-2cc6-48df-b2fd-61bf63e4e3fd","nonDupes":"","factual_gold":[{"uuid":"5a8fd511-2cc6-48df-b2fd-61bf63e4e3fd","name":"University of California","address":null,"locality":"Santa Barbara","region":"CA","postcode":"93106","latitude":"34.413963","longitude":"-119.848947","tel":"(805) 893-8000","website":"http:\/\/www.ucsb.edu","category_ids":["29"]}]},{"canonical_uuid":"5a9126e6-8113-456d-98c3-3124a140c346","nonDupes":"","factual_gold":[{"uuid":"5a9126e6-8113-456d-98c3-3124a140c346","name":"Tacoma Narrows Bridge","address":null,"locality":"Tacoma","region":"WA","postcode":"98402","latitude":"47.268985","longitude":"-122.551657","tel":"(253) 591-5000","website":"http:\/\/www.wsdot.wa.gov\/TNBhistory\/","category_ids":["110"]}]},{"canonical_uuid":"5b0f14fd-0769-4b87-9502-893aaf596fb9","nonDupes":"","factual_gold":[{"uuid":"5b0f14fd-0769-4b87-9502-893aaf596fb9","name":"Woods Hole Science Aquarium","address":"166 Water St","locality":"Woods Hole","region":"MA","postcode":"02543","latitude":"41.525421696280816","longitude":"-70.67406605033769","tel":"(508) 495-2001","website":"http:\/\/www.nefsc.noaa.gov\/nefsc\/aquarium\/","category_ids":["371"]}]},{"canonical_uuid":"5be415cd-c8cf-4252-9d65-0671a004094c","nonDupes":"","factual_gold":[{"uuid":"5be415cd-c8cf-4252-9d65-0671a004094c","name":"Buffalo Niagara International Airport","address":"4200 Genesee St","locality":"Buffalo","region":"NY","postcode":"14225","latitude":"42.9404","longitude":"-78.7306","tel":"(716) 630-6000","website":"http:\/\/www.buffaloairport.com","category_ids":["462"]}]},{"canonical_uuid":"5c0df70c-cc32-4837-9410-901c691c1830","nonDupes":"","factual_gold":[{"uuid":"5c0df70c-cc32-4837-9410-901c691c1830","name":"Ross Park Mall","address":"1000 Ross Park Mall Dr","locality":"Pittsburgh","region":"PA","postcode":"15237","latitude":"40.543442","longitude":"-80.007885","tel":"(412) 369-4401","website":"http:\/\/www.simon.com\/mall\/ross-park-mall","category_ids":["169"]}]},{"canonical_uuid":"5e590d90-7e46-43fb-8233-7ac6c9fe0497","nonDupes":"","factual_gold":[{"uuid":"5e590d90-7e46-43fb-8233-7ac6c9fe0497","name":"Boyce Thompson Arboretum","address":"37615 E US Highway 60","locality":"Superior","region":"AZ","postcode":"85173","latitude":"33.280374","longitude":"-111.15985","tel":"(520) 689-2723","website":null,"category_ids":["109","119"]}]},{"canonical_uuid":"5e767c76-c7e4-47ca-a413-d7b82215938c","nonDupes":"","factual_gold":[{"uuid":"5e767c76-c7e4-47ca-a413-d7b82215938c","name":"Collin Creek Mall","address":"811 N Central Expy","locality":"Plano","region":"TX","postcode":"75075","latitude":"33.013864","longitude":"-96.712947","tel":"(972) 422-1070","website":"http:\/\/www.collincreekmall.com\/","category_ids":["169"]}]},{"canonical_uuid":"5f566d1d-3a4f-4fc7-967b-aa85d55439ba","nonDupes":"","factual_gold":[{"uuid":"5f566d1d-3a4f-4fc7-967b-aa85d55439ba","name":"Tin How Temple","address":"125 Waverly Pl","locality":"San Francisco","region":"CA","postcode":"94108","latitude":"37.79455467297302","longitude":"-122.40702599287769","tel":null,"website":"http:\/\/www.chinatownology.com\/tin_how_temple.html","category_ids":["54"]}]},{"canonical_uuid":"60237128-e597-4466-96bb-29f7c0c45fef","nonDupes":"","factual_gold":[{"uuid":"60237128-e597-4466-96bb-29f7c0c45fef","name":"Blanchard Springs Caverns","address":"704 Blanchard Springs","locality":"Fifty Six","region":"AR","postcode":"72533","latitude":"35.963939","longitude":"-92.17894","tel":"(870) 757-2211","website":"http:\/\/www.blanchardsprings.org","category_ids":["115"]}]},{"canonical_uuid":"613881aa-9d4c-46e5-8042-62191b4451c4","nonDupes":"","factual_gold":[{"uuid":"613881aa-9d4c-46e5-8042-62191b4451c4","name":"University of California","address":"405 Hilgard Ave","locality":"Los Angeles","region":"CA","postcode":"90095","latitude":"34.07110898192719","longitude":"-118.44556158793516","tel":"(310) 825-4321","website":"http:\/\/www.ucla.edu","category_ids":["29"]}]},{"canonical_uuid":"6278cde1-6134-468f-ad10-f89de2170e15","nonDupes":"","factual_gold":[{"uuid":"6278cde1-6134-468f-ad10-f89de2170e15","name":"Akaka Falls State Park","address":null,"locality":"Honomu","region":"HI","postcode":"96728","latitude":"19.853966","longitude":"-155.152236","tel":"(808) 974-6200","website":"https:\/\/hawaiistateparks.org\/parks\/hawaii\/akaka-falls-state-park\/","category_ids":["119"]}]},{"canonical_uuid":"6536990a-1730-4e43-8a1e-03af0c196676","nonDupes":"","factual_gold":[{"uuid":"6536990a-1730-4e43-8a1e-03af0c196676","name":"Ellis Island","address":"Ellis Island National Museum of Immigration Statue of Liberty National Monument","locality":"New York","region":"NY","postcode":"10004","latitude":"40.699472","longitude":"-74.03956","tel":"(212) 363-3200","website":"http:\/\/www.nps.gov\/elis\/index.htm","category_ids":["110"]}]},{"canonical_uuid":"6708e840-0c58-4bb9-8f59-71eb4ffb7ccd","nonDupes":"","factual_gold":[{"uuid":"6708e840-0c58-4bb9-8f59-71eb4ffb7ccd","name":"Rubin Museum of Art","address":"150 W 17th St","locality":"New York","region":"NY","postcode":"10011","latitude":"40.740114","longitude":"-73.997779","tel":"(212) 620-5000","website":null,"category_ids":["311"]}]},{"canonical_uuid":"67b900e3-fca3-48ca-b93c-f20ab58369c1","nonDupes":"","factual_gold":[{"uuid":"67b900e3-fca3-48ca-b93c-f20ab58369c1","name":"Housatonic Meadows State Park","address":"90 Route 7 North","locality":"Sharon","region":"CT","postcode":"06069","latitude":"41.84684952235704","longitude":"-73.38117875078837","tel":"(860) 927-3238","website":"http:\/\/www.ct.gov\/deep\/cwp\/view.asp?a=2716&q=325220","category_ids":["119"]}]},{"canonical_uuid":"69b57536-ca86-4ec4-a65e-e93b5e3fffe4","nonDupes":"","factual_gold":[{"uuid":"69b57536-ca86-4ec4-a65e-e93b5e3fffe4","name":"Plymouth Rock","address":"79 Water St","locality":"Plymouth","region":"MA","postcode":"02360","latitude":"41.958078","longitude":"-70.662132","tel":"(508) 747-5360","website":"https:\/\/www.mass.gov\/locations\/pilgrim-memorial-state-park","category_ids":["110"]}]},{"canonical_uuid":"69c3f7e5-2b50-4ae0-993f-df2190a4f178","nonDupes":"","factual_gold":[{"uuid":"69c3f7e5-2b50-4ae0-993f-df2190a4f178","name":"Longwood","address":"140 Lower Woodville Rd","locality":"Natchez","region":"MS","postcode":"39120","latitude":"31.536800083227917","longitude":"-91.40535233288422","tel":"(601) 442-5193","website":null,"category_ids":["110"]}]},{"canonical_uuid":"69f24ada-d93a-4df9-903c-7d2a318fa22e","nonDupes":"","factual_gold":[{"uuid":"69f24ada-d93a-4df9-903c-7d2a318fa22e","name":"Moda Center","address":"1 N Center Court St","locality":"Portland","region":"OR","postcode":"97227","latitude":"45.531565","longitude":"-122.666829","tel":"(503) 235-8771","website":"http:\/\/www.rosequarter.com","category_ids":["406"]}]},{"canonical_uuid":"6ae2673c-5fbb-4c09-8f36-ba42ef79f696","nonDupes":"","factual_gold":[{"uuid":"6ae2673c-5fbb-4c09-8f36-ba42ef79f696","name":"Rocky Reach Dam","address":"5000 State Hwy 97A","locality":"Wenatchee","region":"WA","postcode":"98801","latitude":"47.53220190048516","longitude":"-120.29742781117145","tel":"(509) 663-7522","website":"http:\/\/www.chelanpud.org\/parks-and-recreation\/our-parks\/day-use-parks\/rocky-reach-dam-park","category_ids":["108"]}]},{"canonical_uuid":"6bbed89d-e86b-462b-94f9-1dce9dc2f3d7","nonDupes":"","factual_gold":[{"uuid":"6bbed89d-e86b-462b-94f9-1dce9dc2f3d7","name":"M\u0101kaha Beach Park","address":"84-369 Farrington Hwy","locality":"Waianae","region":"HI","postcode":"96792","latitude":"21.47805316872722","longitude":"-158.22013902699592","tel":null,"website":null,"category_ids":["113"]}]},{"canonical_uuid":"6dd66aaa-ce50-4642-a45b-2229009d983e","nonDupes":"","factual_gold":[{"uuid":"6dd66aaa-ce50-4642-a45b-2229009d983e","name":"Ho'okipa Beach Park","address":null,"locality":"Paia","region":"HI","postcode":"96779","latitude":"20.933658","longitude":"-156.357404","tel":"(808) 572-8122","website":"http:\/\/www.co.maui.hi.us\/facilities.aspx?pagenum=33&RID=169&Page=detail","category_ids":["118"]}]},{"canonical_uuid":"6dff4e8b-7a1f-4d6a-8834-cec2e1ded3a1","nonDupes":"","factual_gold":[{"uuid":"6dff4e8b-7a1f-4d6a-8834-cec2e1ded3a1","name":"Valley of Fire State Park","address":"29450 Moapa Valley Blvd","locality":"Overton","region":"NV","postcode":"89040","latitude":"36.429747","longitude":"-114.515319","tel":"(702) 397-2088","website":"http:\/\/parks.nv.gov","category_ids":["119"]}]},{"canonical_uuid":"6f904a16-59e6-4d42-ab23-1e9745512ec9","nonDupes":"","factual_gold":[{"uuid":"6f904a16-59e6-4d42-ab23-1e9745512ec9","name":"Kodachrome Basin State Park","address":null,"locality":"Henrieville","region":"UT","postcode":"84736","latitude":"37.516149","longitude":"-111.993982","tel":"(435) 679-8562","website":"http:\/\/stateparks.utah.gov\/park\/kodachrome-basin-state-park","category_ids":["119"]}]},{"canonical_uuid":"6fe64e72-6d95-4ec7-a298-1026dc663ec1","nonDupes":"","factual_gold":[{"uuid":"6fe64e72-6d95-4ec7-a298-1026dc663ec1","name":"Washington Park","address":"4033 SW Canyon Rd","locality":"Portland","region":"OR","postcode":"97221","latitude":"45.51910335833913","longitude":"-122.7025622219533","tel":null,"website":"http:\/\/explorewashingtonpark.org","category_ids":["122"]}]},{"canonical_uuid":"7101ae86-e64d-435e-be4c-201335f0f188","nonDupes":"","factual_gold":[{"uuid":"7101ae86-e64d-435e-be4c-201335f0f188","name":"Detroit Metropolitan Wayne County Airport","address":"11050 Rogell Dr","locality":"Detroit","region":"MI","postcode":"48242","latitude":"42.2124","longitude":"-83.3534","tel":"(734) 247-7678","website":"http:\/\/www.metroairport.com\/","category_ids":["462"]}]},{"canonical_uuid":"7224f723-0ff1-4d0c-8905-c17fd0a173f4","nonDupes":"","factual_gold":[{"uuid":"7224f723-0ff1-4d0c-8905-c17fd0a173f4","name":"Rookery Building","address":"209 S La Salle St","locality":"Chicago","region":"IL","postcode":"60604","latitude":"41.87905709247567","longitude":"-87.63180640850531","tel":"(312) 553-6100","website":null,"category_ids":["108","110"]}]},{"canonical_uuid":"726016c6-dc6a-4163-8063-a4f97de4cfbf","nonDupes":"","factual_gold":[{"uuid":"726016c6-dc6a-4163-8063-a4f97de4cfbf","name":"Dallas Love Field Airport","address":null,"locality":"Dallas","region":"TX","postcode":"75235","latitude":"32.8471","longitude":"-96.8518","tel":"(214) 670-5683","website":"http:\/\/www.dallas-lovefield.com","category_ids":["425"]}]},{"canonical_uuid":"73ce9b39-203d-47c1-8337-6176b28884dc","nonDupes":"","factual_gold":[{"uuid":"73ce9b39-203d-47c1-8337-6176b28884dc","name":"Pu'uhonua o Honaunau National Historical Park","address":null,"locality":"Honaunau","region":"HI","postcode":"96726","latitude":"19.409681","longitude":"-155.893224","tel":"(808) 328-2326","website":"http:\/\/www.nps.gov\/puho\/index.htm","category_ids":["118"]}]},{"canonical_uuid":"748f8a74-c34f-4334-a08b-a195de3baece","nonDupes":"","factual_gold":[{"uuid":"748f8a74-c34f-4334-a08b-a195de3baece","name":"Cornell University","address":null,"locality":"Ithaca","region":"NY","postcode":"14853","latitude":"42.44899145524316","longitude":"-76.47292038301526","tel":"(607) 254-4636","website":"http:\/\/www.cornell.edu","category_ids":["29"]}]},{"canonical_uuid":"750d892b-5498-45d4-a42e-76948d4577c0","nonDupes":"","factual_gold":[{"uuid":"750d892b-5498-45d4-a42e-76948d4577c0","name":"Amway Center","address":"400 W Church St","locality":"Orlando","region":"FL","postcode":"32801","latitude":"28.539238","longitude":"-81.384028","tel":"(407) 440-7900","website":"http:\/\/www.amwaycenter.com","category_ids":["333","406"]}]},{"canonical_uuid":"77a99d24-e469-4d0a-bab5-ada5b3898045","nonDupes":"","factual_gold":[{"uuid":"77a99d24-e469-4d0a-bab5-ada5b3898045","name":"Barnstable Municipal Airport","address":"480 Barnstable Rd","locality":"Hyannis","region":"MA","postcode":"02601","latitude":"41.6693","longitude":"-70.2804","tel":"(508) 775-2020","website":"http:\/\/www.town.barnstable.ma.us\/airport\/","category_ids":["425"]}]},{"canonical_uuid":"780f6bea-804c-4512-88be-7e41dce902b4","nonDupes":"","factual_gold":[{"uuid":"780f6bea-804c-4512-88be-7e41dce902b4","name":"Hulihee Palace","address":"75-5718 Alii Dr","locality":"Kailua Kona","region":"HI","postcode":"96740","latitude":"19.639312227412","longitude":"-155.99441398949904","tel":"(808) 329-1877","website":"http:\/\/daughtersofhawaii.org\/","category_ids":["311"]}]},{"canonical_uuid":"788fc5e0-1e18-012f-0643-0030487f54d8","nonDupes":"","factual_gold":[{"uuid":"788fc5e0-1e18-012f-0643-0030487f54d8","name":"Pelham Bay Park","address":"Hutchinson River, Long Island Sound bet Bronc County Line and Middletown Rd, Watt Ave","locality":"Bronx","region":"NY","postcode":"10465","latitude":"40.8615","longitude":"-73.7972","tel":null,"website":"http:\/\/www.nycgovparks.org\/parks\/pelhambaypark","category_ids":["122"]}]},{"canonical_uuid":"794a59be-da37-4132-8a04-038d2fd51e2d","nonDupes":"","factual_gold":[{"uuid":"794a59be-da37-4132-8a04-038d2fd51e2d","name":"USS ALABAMA Battleship Memorial Park","address":"2703 Battleship Pkwy","locality":"Mobile","region":"AL","postcode":"36602","latitude":"30.68148627015947","longitude":"-88.01559605566477","tel":"(251) 433-2703","website":"http:\/\/www.ussalabama.com","category_ids":["111"]}]},{"canonical_uuid":"7a697ef0-1e18-012f-0643-0030487f54d8","nonDupes":"","factual_gold":[{"uuid":"7a697ef0-1e18-012f-0643-0030487f54d8","name":"Southern Methodist University","address":null,"locality":"Dallas","region":"TX","postcode":"75205","latitude":"32.841545942651656","longitude":"-96.78248713420933","tel":"(214) 768-2000","website":"http:\/\/www.smu.edu","category_ids":["29"]}]},{"canonical_uuid":"7ad1f830-74b5-4914-9ded-f76c74e61ecc","nonDupes":"","factual_gold":[{"uuid":"7ad1f830-74b5-4914-9ded-f76c74e61ecc","name":"Montezuma Castle National Monument","address":"Montezuma Castle Road","locality":"Camp Verde","region":"AZ","postcode":"86322","latitude":"34.610239021563935","longitude":"-111.83398076362931","tel":"(928) 567-3322","website":"http:\/\/www.nps.gov\/moca","category_ids":["119"]}]},{"canonical_uuid":"7aeb6c10-5047-4c6e-bd47-26649d472f25","nonDupes":"","factual_gold":[{"uuid":"7aeb6c10-5047-4c6e-bd47-26649d472f25","name":"Fort Columbia State Park","address":null,"locality":"Chinook","region":"WA","postcode":"98614","latitude":"46.26025559704829","longitude":"-123.91529383745349","tel":"(360) 777-8221","website":"http:\/\/parks.state.wa.us\/506\/Fort-Columbia","category_ids":["119"]}]},{"canonical_uuid":"7b6c8068-64a9-41d8-803e-1712927fee72","nonDupes":"","factual_gold":[{"uuid":"7b6c8068-64a9-41d8-803e-1712927fee72","name":"Denver International Airport","address":"8500 Pena Blvd","locality":"Denver","region":"CO","postcode":"80249","latitude":"39.8617","longitude":"-104.673","tel":"(303) 342-2000","website":"http:\/\/www.flydenver.com","category_ids":["462"]}]},{"canonical_uuid":"7c48e775-7639-4bb5-b767-39b12146d484","nonDupes":"","factual_gold":[{"uuid":"7c48e775-7639-4bb5-b767-39b12146d484","name":"Smith Rock State Park","address":null,"locality":"Terrebonne","region":"OR","postcode":"97760","latitude":"44.368523745288336","longitude":"-121.14054009744484","tel":"(800) 551-6949","website":"http:\/\/www.oregonstateparks.org\/index.cfm?do=parkPage.dsp_parkPage&parkId=36","category_ids":["119"]}]},{"canonical_uuid":"7cd5779e-5780-469a-8fe4-4364739ce34e","nonDupes":"","factual_gold":[{"uuid":"7cd5779e-5780-469a-8fe4-4364739ce34e","name":"Embassy of Brazil","address":"3006 Massachusetts Ave NW","locality":"Washington","region":"DC","postcode":"20008","latitude":"38.918970870367744","longitude":"-77.06081095312896","tel":"(202) 238-2700","website":"http:\/\/www.brasilemb.org\/","category_ids":["453"]}]},{"canonical_uuid":"7d1915e2-3cce-42cf-829d-961d69b836df","nonDupes":"","factual_gold":[{"uuid":"7d1915e2-3cce-42cf-829d-961d69b836df","name":"Phipps Plaza","address":"3500 Peachtree Rd NE","locality":"Atlanta","region":"GA","postcode":"30326","latitude":"33.852956","longitude":"-84.362782","tel":"(404) 261-7910","website":"http:\/\/www.simon.com\/mall\/phipps-plaza","category_ids":["169"]}]},{"canonical_uuid":"7d412e80-a0c3-4056-b885-a6964985c11c","nonDupes":"","factual_gold":[{"uuid":"7d412e80-a0c3-4056-b885-a6964985c11c","name":"Vietnam Veterans Memorial","address":null,"locality":"Washington","region":"DC","postcode":"20002","latitude":"38.891148961882664","longitude":"-77.04765910138255","tel":"(202) 426-6841","website":"http:\/\/www.nps.gov\/vive","category_ids":["111"]}]},{"canonical_uuid":"7e9f018e-7320-464c-90dd-7614854d3eb0","nonDupes":"","factual_gold":[{"uuid":"7e9f018e-7320-464c-90dd-7614854d3eb0","name":"Waianapanapa State Park","address":null,"locality":"Hana","region":"HI","postcode":"96713","latitude":"20.78249580807295","longitude":"-156.0009526777687","tel":"(808) 984-8109","website":"http:\/\/dlnr.hawaii.gov\/dsp\/parks\/maui\/waianapanapa-state-park\/","category_ids":["119"]}]},{"canonical_uuid":"7fff13a2-352f-4ea1-a565-b56111d5007a","nonDupes":"","factual_gold":[{"uuid":"7fff13a2-352f-4ea1-a565-b56111d5007a","name":"Oracle Arena","address":"7000 Coliseum Way","locality":"Oakland","region":"CA","postcode":"94621","latitude":"37.75028886686987","longitude":"-122.20282279797821","tel":"(510) 569-2121","website":"http:\/\/www.coliseum.com","category_ids":["333","406"]}]},{"canonical_uuid":"80898527-d673-4873-aaca-61d3bb420fc5","nonDupes":"","factual_gold":[{"uuid":"80898527-d673-4873-aaca-61d3bb420fc5","name":"Deadhorse Airport","address":null,"locality":"Prudhoe Bay","region":"AK","postcode":"99734","latitude":"70.19751","longitude":"-148.457855","tel":"(907) 659-2553","website":"https:\/\/www.alaskaair.com\/content\/airports\/alaska\/prudhoe-bay\/deadhorse?lid=travel:info-AirportsGuides-Prudhoe-bay&int=_AS_TRAVINFO_-prodID:AirportsGuides-Prudhoe-bay","category_ids":["425"]}]},{"canonical_uuid":"81205509-ab58-4e51-8eec-362136471045","nonDupes":"","factual_gold":[{"uuid":"81205509-ab58-4e51-8eec-362136471045","name":"Pikes Peak - America's Mountain","address":null,"locality":"Colorado Springs","region":"CO","postcode":"80809","latitude":"38.8417838","longitude":"-105.0438213","tel":"(719) 385-7325","website":"https:\/\/coloradosprings.gov\/pikes-peak-americas-mountain","category_ids":["114"]}]},{"canonical_uuid":"81880ec6-14d4-472e-b332-a74b08b00dce","nonDupes":"","factual_gold":[{"uuid":"81880ec6-14d4-472e-b332-a74b08b00dce","name":"Pike Place Market","address":"85 Pike St","locality":"Seattle","region":"WA","postcode":"98101","latitude":"47.608377","longitude":"-122.340589","tel":"(206) 682-7453","website":"http:\/\/www.pikeplacemarket.org","category_ids":["154"]}]},{"canonical_uuid":"81d28b7b-7000-4606-ae5b-a48e597b5c10","nonDupes":"","factual_gold":[{"uuid":"81d28b7b-7000-4606-ae5b-a48e597b5c10","name":"Globe Life Park","address":"1000 Ballpark Way","locality":"Arlington","region":"TX","postcode":"76011","latitude":"32.750168","longitude":"-97.081286","tel":"(817) 273-5222","website":"http:\/\/texas.rangers.mlb.com\/tex\/ballpark\/index.jsp","category_ids":["406"]}]},{"canonical_uuid":"823a4950-bef7-472a-a48e-5a65ea5fdb7f","nonDupes":"","factual_gold":[{"uuid":"823a4950-bef7-472a-a48e-5a65ea5fdb7f","name":"Presidio Park","address":"2811 Jackson St","locality":"San Diego","region":"CA","postcode":"92110","latitude":"32.758328","longitude":"-117.195767","tel":"(619) 692-4918","website":"http:\/\/www.sandiego.gov\/park-and-recreation\/parks\/regional\/presidio\/index.shtml","category_ids":["122"]}]},{"canonical_uuid":"824cd0c5-dfd8-4a08-98f4-8db37729fd21","nonDupes":"","factual_gold":[{"uuid":"824cd0c5-dfd8-4a08-98f4-8db37729fd21","name":"Crater Lake National Park","address":null,"locality":"Crater Lake","region":"OR","postcode":"97604","latitude":"42.86491800720105","longitude":"-122.15785514336244","tel":"(541) 594-3000","website":"http:\/\/www.nps.gov\/crla\/index.htm","category_ids":["119"]}]},{"canonical_uuid":"82591147-7e96-44ce-b558-4b0f26d8e1ad","nonDupes":"","factual_gold":[{"uuid":"82591147-7e96-44ce-b558-4b0f26d8e1ad","name":"Philips Arena","address":"1 Philips Dr NW","locality":"Atlanta","region":"GA","postcode":"30303","latitude":"33.757256424650755","longitude":"-84.39632737494041","tel":"(404) 878-3000","website":"http:\/\/www.philipsarena.com","category_ids":["333","406"]}]},{"canonical_uuid":"84161ebf-54ee-4dd2-bb95-14f663bca450","nonDupes":"","factual_gold":[{"uuid":"84161ebf-54ee-4dd2-bb95-14f663bca450","name":"Koke'e State Park","address":null,"locality":"Waimea","region":"HI","postcode":"96716","latitude":"22.139725137236535","longitude":"-159.63709085096534","tel":"(808) 335-8405","website":"http:\/\/kokee.org","category_ids":["119"]}]},{"canonical_uuid":"87a051c7-904f-41f9-a312-6a8d4d942de9","nonDupes":"","factual_gold":[{"uuid":"87a051c7-904f-41f9-a312-6a8d4d942de9","name":"Googleplex","address":"1600 Amphitheatre Pkwy","locality":"Mountain View","region":"CA","postcode":"94043","latitude":"37.422","longitude":"-122.084058","tel":"(650) 253-0000","website":"http:\/\/Google.com","category_ids":["210"]}]},{"canonical_uuid":"8876b15b-a896-4e4f-b847-a2765c7a62e0","nonDupes":"","factual_gold":[{"uuid":"8876b15b-a896-4e4f-b847-a2765c7a62e0","name":"Mission San Antonio de Padua","address":null,"locality":"Jolon","region":"CA","postcode":"93928","latitude":"36.015245","longitude":"-121.249925","tel":"(831) 385-4478","website":"http:\/\/missionsanantonio.net\/","category_ids":["53","108"]}]},{"canonical_uuid":"899392f8-efc6-4d75-894a-5019517331ac","nonDupes":"","factual_gold":[{"uuid":"899392f8-efc6-4d75-894a-5019517331ac","name":"Golden Spike","address":null,"locality":"Corinne","region":"UT","postcode":"84307","latitude":"41.619381","longitude":"-112.548792","tel":"(435) 471-2209","website":"http:\/\/www.nps.gov\/gosp\/index.htm","category_ids":["110"]}]},{"canonical_uuid":"89ffb35d-6d66-4380-9337-bb797d456a17","nonDupes":"","factual_gold":[{"uuid":"89ffb35d-6d66-4380-9337-bb797d456a17","name":"Fort Ross State Historic Park","address":null,"locality":"Jenner","region":"CA","postcode":"95450","latitude":"38.524525","longitude":"-123.230707","tel":"(707) 847-3437","website":"http:\/\/www.fortross.org","category_ids":["118"]}]},{"canonical_uuid":"8a3ca0e3-f8f4-4125-afca-905b0198c5ae","nonDupes":"","factual_gold":[{"uuid":"8a3ca0e3-f8f4-4125-afca-905b0198c5ae","name":"Kilauea Point National Wildlife Refuge","address":null,"locality":"Kilauea","region":"HI","postcode":"96754","latitude":"22.231634018692958","longitude":"-159.4020569122467","tel":"(808) 828-1413","website":"http:\/\/www.fws.gov\/refuge\/kilauea_point","category_ids":["371"]}]},{"canonical_uuid":"8bc7e641-f197-441a-9975-2fab23127f8d","nonDupes":"","factual_gold":[{"uuid":"8bc7e641-f197-441a-9975-2fab23127f8d","name":"Pocatello Regional Airport","address":"1950 Airport Way","locality":"Pocatello","region":"ID","postcode":"83204","latitude":"42.9098","longitude":"-112.596","tel":"(208) 234-6154","website":"http:\/\/iflypocatello.com\/","category_ids":["425"]}]},{"canonical_uuid":"8cbff9a3-92ea-4597-85a6-f2caffd42f4d","nonDupes":"","factual_gold":[{"uuid":"8cbff9a3-92ea-4597-85a6-f2caffd42f4d","name":"Grand Canyon National Park Airport","address":null,"locality":"Grand Canyon","region":"AZ","postcode":"86023","latitude":"35.959827","longitude":"-112.135591","tel":"(928) 638-2446","website":null,"category_ids":["425"]}]},{"canonical_uuid":"8d130b9b-7c73-4742-84e9-aa4a36c2e0cf","nonDupes":"","factual_gold":[{"uuid":"8d130b9b-7c73-4742-84e9-aa4a36c2e0cf","name":"National Museum of the American Indian","address":"4TH St","locality":"Washington","region":"DC","postcode":"20560","latitude":"38.888201","longitude":"-77.016528","tel":"(202) 633-6644","website":"http:\/\/americanindian.si.edu","category_ids":["311"]}]},{"canonical_uuid":"8dc3a02e-0f98-430d-9118-7f674ab76410","nonDupes":"","factual_gold":[{"uuid":"8dc3a02e-0f98-430d-9118-7f674ab76410","name":"Dothan Regional Airport","address":"800 Airport Dr","locality":"Dothan","region":"AL","postcode":"36303","latitude":"31.3213","longitude":"-85.4496","tel":"(334) 983-8100","website":"http:\/\/www.flydothan.com","category_ids":["425"]}]},{"canonical_uuid":"8e8f180c-03c6-43a1-af64-df563e13d237","nonDupes":"","factual_gold":[{"uuid":"8e8f180c-03c6-43a1-af64-df563e13d237","name":"Luxor Hotel and Casino","address":"3900 Las Vegas Blvd S","locality":"Las Vegas","region":"NV","postcode":"89119","latitude":"36.09587174723758","longitude":"-115.17599029330817","tel":"(702) 262-4000","website":"http:\/\/www.luxor.com","category_ids":["324","436"]}]},{"canonical_uuid":"8eab7718-d2d4-418e-80b9-efbcea90544b","nonDupes":"","factual_gold":[{"uuid":"8eab7718-d2d4-418e-80b9-efbcea90544b","name":"Hubbard Museum of the American West","address":"26301 US Highway 70","locality":"Ruidoso Downs","region":"NM","postcode":"88346","latitude":"33.33145","longitude":"-105.595612","tel":"(575) 378-4142","website":"http:\/\/www.hubbardmuseum.org","category_ids":["311"]}]},{"canonical_uuid":"9159dc8c-d6fb-4bad-8228-0ef8d7c87bed","nonDupes":"","factual_gold":[{"uuid":"9159dc8c-d6fb-4bad-8228-0ef8d7c87bed","name":"The Cannery","address":"2801 Leavenworth St","locality":"San Francisco","region":"CA","postcode":"94133","latitude":"37.807287","longitude":"-122.419395","tel":"(415) 771-3112","website":"http:\/\/the-cannery.visit-san-francisco.com\/#","category_ids":["169"]}]},{"canonical_uuid":"92f6e6ab-6951-4914-abfe-c8ce3706d8c5","nonDupes":"","factual_gold":[{"uuid":"92f6e6ab-6951-4914-abfe-c8ce3706d8c5","name":"Mandalay Bay Resort and Casino","address":"3950 Las Vegas Blvd S","locality":"Las Vegas","region":"NV","postcode":"89119","latitude":"36.09208237151564","longitude":"-115.17576930741308","tel":"(877) 632-7700","website":"http:\/\/www.mandalaybay.com","category_ids":["436"]}]},{"canonical_uuid":"9424d8b6-22b7-4b36-aa52-6296467770e3","nonDupes":"","factual_gold":[{"uuid":"9424d8b6-22b7-4b36-aa52-6296467770e3","name":"Tallgrass Prairie National Preserve","address":"2480B KS Highway 177","locality":"Strong City","region":"KS","postcode":"66869","latitude":"38.441535709954636","longitude":"-96.56758756849229","tel":"(620) 273-8494","website":"http:\/\/www.nps.gov\/tapr","category_ids":["119"]}]},{"canonical_uuid":"95679e65-db9e-4575-a1d2-1bbcd2a057b8","nonDupes":"","factual_gold":[{"uuid":"95679e65-db9e-4575-a1d2-1bbcd2a057b8","name":"Oriole Park at Camden Yards","address":"333 W Camden St","locality":"Baltimore","region":"MD","postcode":"21201","latitude":"39.283978","longitude":"-76.621803","tel":"(410) 685-9800","website":"http:\/\/baltimore.orioles.mlb.com\/","category_ids":["406"]}]},{"canonical_uuid":"957ece1b-2da8-4c5f-9b50-ab4052aaa6d5","nonDupes":"","factual_gold":[{"uuid":"957ece1b-2da8-4c5f-9b50-ab4052aaa6d5","name":"Emmanuel College","address":null,"locality":"Franklin Springs","region":"GA","postcode":"30639","latitude":"34.282463","longitude":"-83.147478","tel":"(800) 860-8800","website":"http:\/\/www.ec.edu","category_ids":["29"]}]},{"canonical_uuid":"9643679a-623e-4ad5-b96a-b637af6575e3","nonDupes":"","factual_gold":[{"uuid":"9643679a-623e-4ad5-b96a-b637af6575e3","name":"American Airlines Arena","address":"601 Biscayne Blvd","locality":"Miami","region":"FL","postcode":"33132","latitude":"25.781247","longitude":"-80.187915","tel":"(786) 777-1000","website":"http:\/\/www.aaarena.com","category_ids":["333","406"]}]},{"canonical_uuid":"97aa48cd-caff-4b11-bd60-7139c47569a9","nonDupes":"","factual_gold":[{"uuid":"97aa48cd-caff-4b11-bd60-7139c47569a9","name":"Midland International Airport","address":"9506 La Force Blvd","locality":"Midland","region":"TX","postcode":"79706","latitude":"31.9425","longitude":"-102.202","tel":"(432) 560-2200","website":"http:\/\/www.flymaf.com\/","category_ids":["462"]}]},{"canonical_uuid":"992b9255-2b85-4fb0-8687-97688c36a1de","nonDupes":"","factual_gold":[{"uuid":"992b9255-2b85-4fb0-8687-97688c36a1de","name":"Wells Fargo Center","address":"3601 S Broad St","locality":"Philadelphia","region":"PA","postcode":"19148","latitude":"39.901183","longitude":"-75.171845","tel":"(215) 336-3600","website":"http:\/\/www.wellsfargocenterphilly.com","category_ids":["333","406"]}]},{"canonical_uuid":"9a048c37-3547-4cf5-a404-daadf9fdbb45","nonDupes":"","factual_gold":[{"uuid":"9a048c37-3547-4cf5-a404-daadf9fdbb45","name":"Portland Building","address":"1120 SW 5th Ave","locality":"Portland","region":"OR","postcode":"97204","latitude":"45.515685317575766","longitude":"-122.67877574830914","tel":"(503) 823-4000","website":"http:\/\/www.portlandonline.com\/parks\/","category_ids":["20"]}]},{"canonical_uuid":"9a563fde-409d-411f-896f-b21c8caa667b","nonDupes":"","factual_gold":[{"uuid":"9a563fde-409d-411f-896f-b21c8caa667b","name":"Circle Centre Mall","address":"49 W Maryland St","locality":"Indianapolis","region":"IN","postcode":"46204","latitude":"39.764988373301435","longitude":"-86.1609391975615","tel":"(317) 681-5615","website":"http:\/\/www.simon.com\/mall\/circle-centre","category_ids":["332"]}]},{"canonical_uuid":"9f0ad045-32d7-429b-b5ae-9d065ba0f0c1","nonDupes":"","factual_gold":[{"uuid":"9f0ad045-32d7-429b-b5ae-9d065ba0f0c1","name":"Sunset Crater Volcano National Monument","address":null,"locality":"Flagstaff","region":"AZ","postcode":"86004","latitude":"35.371142","longitude":"-111.510376","tel":"(928) 526-0502","website":"http:\/\/www.nps.gov\/sucr\/index.htm","category_ids":["111","118"]}]},{"canonical_uuid":"a15b803a-bb95-4fd7-aa5d-7b836f086acf","nonDupes":"","factual_gold":[{"uuid":"a15b803a-bb95-4fd7-aa5d-7b836f086acf","name":"University of Wisconsin-Madison","address":null,"locality":"Madison","region":"WI","postcode":"53706","latitude":"43.07857800040233","longitude":"-89.42169756648984","tel":"(608) 263-2400","website":"http:\/\/www.wisc.edu","category_ids":["29"]}]},{"canonical_uuid":"a28e1be7-c348-4605-95fb-69b65a50a83c","nonDupes":"","factual_gold":[{"uuid":"a28e1be7-c348-4605-95fb-69b65a50a83c","name":"Hollywood Sign","address":"Griffith Park, Mount Lee","locality":"Los Angeles","region":"CA","postcode":"90048","latitude":"34.134101","longitude":"-118.321684","tel":"(323) 379-2110","website":"http:\/\/www.hollywoodsign.org","category_ids":["111"]}]},{"canonical_uuid":"a2930d48-8ffb-4e8e-a322-472ddf58d939","nonDupes":"","factual_gold":[{"uuid":"a2930d48-8ffb-4e8e-a322-472ddf58d939","name":"Lyndon B. Johnson National Historical Park","address":"199 State Park Road 52","locality":"Stonewall","region":"TX","postcode":"78671","latitude":"30.24148","longitude":"-98.613319","tel":"(830) 644-2252","website":null,"category_ids":["110","118"]}]},{"canonical_uuid":"a2fa32f0-32fa-4fa0-ab56-57dfe5a658b7","nonDupes":"","factual_gold":[{"uuid":"a2fa32f0-32fa-4fa0-ab56-57dfe5a658b7","name":"Holy Trinity Orthodox Cathedral","address":"1121 N Leavitt St","locality":"Chicago","region":"IL","postcode":"60622","latitude":"41.90202702131162","longitude":"-87.68177808484744","tel":"(773) 486-6064","website":"http:\/\/holytrinitycathedral.net","category_ids":["55"]}]},{"canonical_uuid":"a348d9ac-73f0-47cd-8619-f4779f7d6cbb","nonDupes":"","factual_gold":[{"uuid":"a348d9ac-73f0-47cd-8619-f4779f7d6cbb","name":"Iao Valley State Park","address":null,"locality":"Wailuku","region":"HI","postcode":"96793","latitude":"20.880449908979852","longitude":"-156.54550724346345","tel":null,"website":"http:\/\/dlnr.hawaii.gov\/dsp\/parks\/maui\/iao-valley-state-monument\/","category_ids":["119"]}]},{"canonical_uuid":"a35bf52d-8f28-4c60-885a-6db267361d50","nonDupes":"","factual_gold":[{"uuid":"a35bf52d-8f28-4c60-885a-6db267361d50","name":"Boston Public Garden","address":"4 Charles St S","locality":"Boston","region":"MA","postcode":"02116","latitude":"42.354471","longitude":"-71.068557","tel":"(617) 635-4505","website":"http:\/\/www.cityofboston.gov\/parks\/emerald\/public_garden.asp","category_ids":["109","119"]}]},{"canonical_uuid":"a384b547-df98-4e1a-b351-cbd471af6af2","nonDupes":"","factual_gold":[{"uuid":"a384b547-df98-4e1a-b351-cbd471af6af2","name":"Valley International Airport","address":"3002 Heritage Way","locality":"Harlingen","region":"TX","postcode":"78550","latitude":"26.2271","longitude":"-97.6551","tel":"(956) 430-8600","website":"http:\/\/flythevalley.com\/","category_ids":["462"]}]},{"canonical_uuid":"a38cf983-5a32-4525-bf95-37b5727c311c","nonDupes":"","factual_gold":[{"uuid":"a38cf983-5a32-4525-bf95-37b5727c311c","name":"AT&T Stadium","address":null,"locality":"Arlington","region":"TX","postcode":"76011","latitude":"32.74784","longitude":"-97.092917","tel":"(817) 892-4161","website":"http:\/\/www.attstadium.com","category_ids":["406"]}]},{"canonical_uuid":"a394bf92-a93e-44e1-bc1c-241bb62a109b","nonDupes":"","factual_gold":[{"uuid":"a394bf92-a93e-44e1-bc1c-241bb62a109b","name":"Yahoo HQ","address":"701 First Ave","locality":"Sunnyvale","region":"CA","postcode":"94089","latitude":"37.418242","longitude":"-122.025345","tel":"(408) 349-3300","website":null,"category_ids":["210"]}]},{"canonical_uuid":"a5f12127-8518-4ab0-96fe-57e6dff47beb","nonDupes":"","factual_gold":[{"uuid":"a5f12127-8518-4ab0-96fe-57e6dff47beb","name":"Malakoff Diggins State Historic Park","address":"23579 N Bloomfield Rd","locality":"Nevada City","region":"CA","postcode":"95959","latitude":"39.37212517153628","longitude":"-120.91748399273934","tel":"(530) 265-2740","website":"http:\/\/malakoffdigginsstatepark.org","category_ids":["118"]}]},{"canonical_uuid":"a6d84d2f-d6b2-4ad5-b300-f6e3303d7606","nonDupes":"","factual_gold":[{"uuid":"a6d84d2f-d6b2-4ad5-b300-f6e3303d7606","name":"Purdy's Natural Macadamia Nut Farm","address":null,"locality":"Hoolehua","region":"HI","postcode":"96729","latitude":"21.170508","longitude":"-157.05348","tel":"(808) 567-6601","website":"http:\/\/molokai-aloha.com\/macnuts\/","category_ids":["155"]}]},{"canonical_uuid":"a6fcba2e-b66c-4292-925e-02a54296c6c0","nonDupes":"","factual_gold":[{"uuid":"a6fcba2e-b66c-4292-925e-02a54296c6c0","name":"Colonel Allensworth State Historic Park","address":null,"locality":"Earlimart","region":"CA","postcode":"93219","latitude":"35.862742","longitude":"-119.390359","tel":"(661) 849-3433","website":"http:\/\/www.parks.ca.gov\/?page_id=583","category_ids":["110","118"]}]},{"canonical_uuid":"a79a8601-e469-4488-856d-42330d7762c2","nonDupes":"","factual_gold":[{"uuid":"a79a8601-e469-4488-856d-42330d7762c2","name":"Jordan River Utah Temple","address":"10200 S Temple Dr","locality":"South Jordan","region":"UT","postcode":"84095","latitude":"40.566186510705045","longitude":"-111.93138555867924","tel":"(801) 254-3003","website":"https:\/\/www.jordanrivertemple.com\/","category_ids":["53"]}]},{"canonical_uuid":"a7ddea0e-fac9-4ac0-85cd-3993b2f69b31","nonDupes":"","factual_gold":[{"uuid":"a7ddea0e-fac9-4ac0-85cd-3993b2f69b31","name":"AT&T Center","address":null,"locality":"San Antonio","region":"TX","postcode":"78219","latitude":"29.426978","longitude":"-98.43755","tel":"(210) 444-5000","website":"http:\/\/www.attcenter.com","category_ids":["406"]}]},{"canonical_uuid":"a82c3af7-5c16-4cc4-a373-177d72801b92","nonDupes":"","factual_gold":[{"uuid":"a82c3af7-5c16-4cc4-a373-177d72801b92","name":"Raleigh-Durham International Airport","address":null,"locality":"Morrisville","region":"NC","postcode":"27560","latitude":"35.8776","longitude":"-78.7875","tel":"(919) 840-7700","website":"http:\/\/rdu.com","category_ids":["462"]}]},{"canonical_uuid":"a89dd1e8-1ebc-4499-a81f-1b0f80d779cb","nonDupes":"","factual_gold":[{"uuid":"a89dd1e8-1ebc-4499-a81f-1b0f80d779cb","name":"Slide Rock State Park","address":"6871 N Highway 89A","locality":"Sedona","region":"AZ","postcode":"86336","latitude":"34.944251","longitude":"-111.753343","tel":"(928) 282-3034","website":"http:\/\/azstateparks.com\/Parks\/SLRO","category_ids":["118"]}]},{"canonical_uuid":"a9f06b9e-c394-4c8f-be1c-ef4f90dc887b","nonDupes":"","factual_gold":[{"uuid":"a9f06b9e-c394-4c8f-be1c-ef4f90dc887b","name":"Bankers Life Fieldhouse","address":"125 S Pennsylvania St","locality":"Indianapolis","region":"IN","postcode":"46204","latitude":"39.764088","longitude":"-86.155574","tel":"(317) 917-2500","website":"http:\/\/bankerslifefieldhouse.com","category_ids":["333","406"]}]},{"canonical_uuid":"aa23932f-a78e-4425-abef-1c613dd6b209","nonDupes":"","factual_gold":[{"uuid":"aa23932f-a78e-4425-abef-1c613dd6b209","name":"Robert Gould Shaw Memorial","address":"15 State St","locality":"Boston","region":"MA","postcode":"02109","latitude":"42.35748888650672","longitude":"-71.06348499579205","tel":"(617) 742-5415","website":"http:\/\/www.nps.gov\/boaf\/index.htm","category_ids":["111"]}]},{"canonical_uuid":"aca172b4-5e51-4cd1-b281-a38ff7df5412","nonDupes":"","factual_gold":[{"uuid":"aca172b4-5e51-4cd1-b281-a38ff7df5412","name":"Kauffman Stadium","address":"1 Royal Way","locality":"Kansas City","region":"MO","postcode":"64129","latitude":"39.051607","longitude":"-94.480332","tel":"(816) 504-4040","website":"http:\/\/kansascity.royals.mlb.com\/kc\/ballpark\/index.jsp","category_ids":["333","406"]}]},{"canonical_uuid":"acb0c0ea-7f3a-4221-aec1-a21fb78bb8c8","nonDupes":"","factual_gold":[{"uuid":"acb0c0ea-7f3a-4221-aec1-a21fb78bb8c8","name":"Botanical World Adventures","address":"31240 Old Mamalahoa Hwy","locality":"Hakalau","region":"HI","postcode":"96710","latitude":"19.904911523125726","longitude":"-155.13791294120855","tel":"(808) 963-5427","website":"http:\/\/botanicalworld.com\/","category_ids":["109","400"]}]},{"canonical_uuid":"acdefbd5-6d01-42be-a34f-4ffb4f524ab4","nonDupes":"","factual_gold":[{"uuid":"acdefbd5-6d01-42be-a34f-4ffb4f524ab4","name":"New Bedford Regional Airport","address":"1569 Airport Rd","locality":"New Bedford","region":"MA","postcode":"02746","latitude":"41.6761","longitude":"-70.9569","tel":"(508) 991-6161","website":"http:\/\/www.newbedford-ma.gov\/airport\/","category_ids":["425"]}]},{"canonical_uuid":"ae6dfea9-05c5-46ca-992d-1a4a65fe2dfc","nonDupes":"","factual_gold":[{"uuid":"ae6dfea9-05c5-46ca-992d-1a4a65fe2dfc","name":"Kualoa Ranch","address":"49-560 Kamehameha Hwy","locality":"Kaneohe","region":"HI","postcode":"96744","latitude":"21.520724573119026","longitude":"-157.83725892843879","tel":"(808) 237-7321","website":"http:\/\/www.kualoa.com","category_ids":["119","440"]}]},{"canonical_uuid":"ae9ead68-5bdb-4bd9-973c-6397a9bdebf8","nonDupes":"","factual_gold":[{"uuid":"ae9ead68-5bdb-4bd9-973c-6397a9bdebf8","name":"Chesapeake Energy Arena","address":"100 W Reno Ave","locality":"Oklahoma City","region":"OK","postcode":"73102","latitude":"35.463553","longitude":"-97.514919","tel":"(405) 602-8500","website":"http:\/\/www.chesapeakearena.com","category_ids":["333","406"]}]},{"canonical_uuid":"af3f7a55-cc44-4b63-853f-41c9edace849","nonDupes":"","factual_gold":[{"uuid":"af3f7a55-cc44-4b63-853f-41c9edace849","name":"Fowler Museum at UCLA","address":"308 Charles E Young Dr W","locality":"Los Angeles","region":"CA","postcode":"90024","latitude":"34.07295100909782","longitude":"-118.44313871735795","tel":"(310) 825-4361","website":"http:\/\/www.fowler.ucla.edu\/","category_ids":["311"]}]},{"canonical_uuid":"b021b379-ce41-4b27-b83f-b6d9293453f1","nonDupes":"","factual_gold":[{"uuid":"b021b379-ce41-4b27-b83f-b6d9293453f1","name":"Google Seattle","address":"601 N 34th St","locality":"Seattle","region":"WA","postcode":"98103","latitude":"47.649869","longitude":"-122.352678","tel":"(206) 876-1800","website":"http:\/\/google.com","category_ids":["210"]}]},{"canonical_uuid":"b0c050b7-a351-42c2-b1fb-0c3b3c8d0fe8","nonDupes":"","factual_gold":[{"uuid":"b0c050b7-a351-42c2-b1fb-0c3b3c8d0fe8","name":"Ma-Tsu Temple","address":"30 Beckett St","locality":"San Francisco","region":"CA","postcode":"94133","latitude":"37.79679053137891","longitude":"-122.40616175608973","tel":"(415) 986-8818","website":"http:\/\/www.matsuusa.org","category_ids":["53"]}]},{"canonical_uuid":"b1a1ebc0-3bc1-012f-4987-0030487f54d8","nonDupes":"","factual_gold":[{"uuid":"b1a1ebc0-3bc1-012f-4987-0030487f54d8","name":"Valdez Pioneer Field Airport","address":null,"locality":"Valdez","region":"AK","postcode":"99686","latitude":"61.1270361","longitude":"-146.2584593","tel":"(907) 835-4564","website":"http:\/\/www.ci.valdez.ak.us","category_ids":["425"]}]},{"canonical_uuid":"b1e90aec-9648-40aa-a642-963c084cac34","nonDupes":"","factual_gold":[{"uuid":"b1e90aec-9648-40aa-a642-963c084cac34","name":"China Town Convenience Store","address":"213 NW 3rd Ave","locality":"Portland","region":"OR","postcode":"97209","latitude":"45.524850236362774","longitude":"-122.67372989718676","tel":"(503) 222-6845","website":null,"category_ids":["138"]}]},{"canonical_uuid":"b4b13c79-633f-49e5-8644-88a86fb24252","nonDupes":"","factual_gold":[{"uuid":"b4b13c79-633f-49e5-8644-88a86fb24252","name":"Nome Airport","address":null,"locality":"Nome","region":"AK","postcode":"99762","latitude":"64.5122","longitude":"-165.445","tel":"(800) 654-5669","website":"http:\/\/www.alaskaair.com\/travelinfo\/destinations\/nome-alaska-airport","category_ids":["462"]}]},{"canonical_uuid":"b6b2f748-936d-4bd7-ad8f-11bde85d5857","nonDupes":"","factual_gold":[{"uuid":"b6b2f748-936d-4bd7-ad8f-11bde85d5857","name":"Sumpter Valley Dredge State Heritage Area","address":"441 Mill St","locality":"Sumpter","region":"OR","postcode":"97877","latitude":"44.73933","longitude":"-118.204751","tel":"(541) 894-2486","website":"http:\/\/www.oregonstateparks.org\/index.cfm?do=parkPage.dsp_parkPage&parkId=174","category_ids":["119"]}]},{"canonical_uuid":"b722000f-0d85-4f4f-92fc-4b946f1f390e","nonDupes":"","factual_gold":[{"uuid":"b722000f-0d85-4f4f-92fc-4b946f1f390e","name":"Papakolea Green Sand Beach","address":null,"locality":"Naalehu","region":"HI","postcode":"96772","latitude":"18.93613415151009","longitude":"-155.64632226094267","tel":null,"website":"http:\/\/www.greensandbeachhawaii.com\/","category_ids":["113"]}]},{"canonical_uuid":"b75f8dac-b835-46ca-b653-a7d36cb1c077","nonDupes":"","factual_gold":[{"uuid":"b75f8dac-b835-46ca-b653-a7d36cb1c077","name":"The Breakers Palm Beach","address":"1 S County Rd","locality":"Palm Beach","region":"FL","postcode":"33480","latitude":"26.714850392902267","longitude":"-80.03398887614576","tel":"(877) 724-3188","website":"http:\/\/www.thebreakers.com\/","category_ids":["434","438"]}]},{"canonical_uuid":"b97f8727-dcc0-44e7-9ed8-5e5a72be7ee5","nonDupes":"","factual_gold":[{"uuid":"b97f8727-dcc0-44e7-9ed8-5e5a72be7ee5","name":"Zion National Park","address":"1 Zion Park Blvd","locality":"Springdale","region":"UT","postcode":"84767","latitude":"37.295863135889306","longitude":"-112.94834804777577","tel":"(435) 772-3256","website":"http:\/\/www.nps.gov\/zion","category_ids":["119"]}]},{"canonical_uuid":"ba174ac2-7df5-4b8a-a3d6-2b1c5f4fb729","nonDupes":"","factual_gold":[{"uuid":"ba174ac2-7df5-4b8a-a3d6-2b1c5f4fb729","name":"Santa Barbara Municipal Airport","address":"500 Fowler Rd","locality":"Santa Barbara","region":"CA","postcode":"93117","latitude":"34.42543437287409","longitude":"-119.83624935150148","tel":"(805) 683-4011","website":"https:\/\/www.santabarbaraca.gov\/gov\/depts\/flysba\/default.asp","category_ids":["425"]}]},{"canonical_uuid":"bbd29797-ea86-4ebf-bc71-a28e4585083f","nonDupes":"","factual_gold":[{"uuid":"bbd29797-ea86-4ebf-bc71-a28e4585083f","name":"Institute of Texan Cultures","address":"801 E Cesar E Chavez Blvd","locality":"San Antonio","region":"TX","postcode":"78205","latitude":"29.416597","longitude":"-98.482278","tel":"(210) 458-2300","website":"http:\/\/texancultures.com","category_ids":["29"]}]},{"canonical_uuid":"bc963f34-d7b0-4e3a-8596-dc9d722a44a2","nonDupes":"","factual_gold":[{"uuid":"bc963f34-d7b0-4e3a-8596-dc9d722a44a2","name":"Oconaluftee Indian Village","address":null,"locality":"Cherokee","region":"NC","postcode":"28719","latitude":"35.484821","longitude":"-83.3231","tel":"(866) 554-4557","website":"http:\/\/visitcherokeenc.com\/play\/attractions\/oconaluftee-indian-village\/","category_ids":["110","311"]}]},{"canonical_uuid":"bd572592-7dd3-4dde-9dc1-9e1c62dad419","nonDupes":"","factual_gold":[{"uuid":"bd572592-7dd3-4dde-9dc1-9e1c62dad419","name":"National Portrait Gallery","address":null,"locality":"Washington","region":"DC","postcode":"20001","latitude":"38.897869","longitude":"-77.023053","tel":"(202) 633-8300","website":null,"category_ids":["311"]}]},{"canonical_uuid":"be8c09ed-634a-4e6f-b9ef-6c8859b9035e","nonDupes":"","factual_gold":[{"uuid":"be8c09ed-634a-4e6f-b9ef-6c8859b9035e","name":"Twitter NYC","address":"249 W 17th St","locality":"New York","region":"NY","postcode":"10011","latitude":"40.741324","longitude":"-73.999809","tel":"(718) 419-5252","website":"http:\/\/www.twitter.com","category_ids":["455"]}]},{"canonical_uuid":"bfa79138-ad70-4180-b5de-d50266233168","nonDupes":"","factual_gold":[{"uuid":"bfa79138-ad70-4180-b5de-d50266233168","name":"Greystone Mansion","address":"905 Loma Vista Dr","locality":"Beverly Hills","region":"CA","postcode":"90210","latitude":"34.09335849547839","longitude":"-118.40140875610156","tel":"(310) 285-6830","website":"http:\/\/www.beverlyhills.org\/greystone","category_ids":["108"]}]},{"canonical_uuid":"c19ed57a-01e6-4b3d-9174-d7cc42012f16","nonDupes":"","factual_gold":[{"uuid":"c19ed57a-01e6-4b3d-9174-d7cc42012f16","name":"Lawton-Fort Sill Regional Airport","address":"3401 SW 11th St","locality":"Lawton","region":"OK","postcode":"73501","latitude":"34.5677","longitude":"-98.4166","tel":"(580) 353-4869","website":"http:\/\/flylawton.org\/","category_ids":["425"]}]},{"canonical_uuid":"c1a9223d-1f34-4a64-9bbd-3b0b3d1af4b4","nonDupes":"","factual_gold":[{"uuid":"c1a9223d-1f34-4a64-9bbd-3b0b3d1af4b4","name":"Yellowstone Regional Airport","address":null,"locality":"Cody","region":"WY","postcode":"82414","latitude":"44.5170747","longitude":"-109.0226091","tel":"(307) 587-5096","website":"http:\/\/flyyra.com\/","category_ids":["425"]}]},{"canonical_uuid":"c385a940-79ed-4964-b3e4-466563edd51f","nonDupes":"","factual_gold":[{"uuid":"c385a940-79ed-4964-b3e4-466563edd51f","name":"Lanai Airport","address":null,"locality":"Lanai City","region":"HI","postcode":"96763","latitude":"20.7856","longitude":"-156.951","tel":"(808) 565-7942","website":"http:\/\/airports.hawaii.gov\/lny\/","category_ids":["425"]}]},{"canonical_uuid":"c56d9c6b-d27b-472e-9ca9-eaa0fd07bb79","nonDupes":"","factual_gold":[{"uuid":"c56d9c6b-d27b-472e-9ca9-eaa0fd07bb79","name":"Harvard University","address":null,"locality":"Cambridge","region":"MA","postcode":"02138","latitude":"42.374504500900656","longitude":"-71.11608693856917","tel":"(617) 495-1000","website":"http:\/\/www.harvard.edu","category_ids":["29"]}]},{"canonical_uuid":"c5813a73-9c37-4251-b2cb-f5f156c0436e","nonDupes":"","factual_gold":[{"uuid":"c5813a73-9c37-4251-b2cb-f5f156c0436e","name":"University of Virginia","address":null,"locality":"Charlottesville","region":"VA","postcode":"22902","latitude":"38.0387517994439","longitude":"-78.51507608212904","tel":"(434) 924-0311","website":"http:\/\/www.virginia.edu","category_ids":["29"]}]},{"canonical_uuid":"c5ccec86-3ac7-49fa-aca3-cf2067eb46cc","nonDupes":"","factual_gold":[{"uuid":"c5ccec86-3ac7-49fa-aca3-cf2067eb46cc","name":"Joplin Regional Airport","address":"7331 N Highway 43","locality":"Joplin","region":"MO","postcode":"64801","latitude":"37.1518","longitude":"-94.4983","tel":"(417) 624-0820","website":"http:\/\/www.joplinmo.org\/149\/Airport","category_ids":["425"]}]},{"canonical_uuid":"c6f34eee-2ef3-41e1-bf76-1e13f7692bd9","nonDupes":"","factual_gold":[{"uuid":"c6f34eee-2ef3-41e1-bf76-1e13f7692bd9","name":"Burlington International Airport","address":"1200 Airport Dr","locality":"South Burlington","region":"VT","postcode":"05403","latitude":"44.4719","longitude":"-73.1533","tel":"(802) 863-2874","website":"http:\/\/www.btv.aero\/","category_ids":["462"]}]},{"canonical_uuid":"c761d73d-9036-4541-b0fb-6bf46ca91599","nonDupes":"","factual_gold":[{"uuid":"c761d73d-9036-4541-b0fb-6bf46ca91599","name":"Kubota Garden","address":"9817 55th Ave S","locality":"Seattle","region":"WA","postcode":"98118","latitude":"47.513156","longitude":"-122.26628","tel":"(206) 725-5060","website":"http:\/\/www.kubotagarden.org","category_ids":["109","118"]}]},{"canonical_uuid":"cbee64bb-ef1c-4396-ab5e-88b2821cd459","nonDupes":"","factual_gold":[{"uuid":"cbee64bb-ef1c-4396-ab5e-88b2821cd459","name":"Wright Brothers National Memorial","address":null,"locality":"Kill Devil Hills","region":"NC","postcode":"27948","latitude":"36.020542","longitude":"-75.667493","tel":"(252) 473-2111","website":"http:\/\/www.nps.gov\/wrbr\/index.htm","category_ids":["111"]}]},{"canonical_uuid":"cea7ebfc-25ae-405a-b5b6-f0357355975b","nonDupes":"","factual_gold":[{"uuid":"cea7ebfc-25ae-405a-b5b6-f0357355975b","name":"Tuzigoot National Monument","address":null,"locality":"Clarkdale","region":"AZ","postcode":"86324","latitude":"34.77482335036452","longitude":"-112.02749711759883","tel":"(928) 634-5564","website":"https:\/\/www.nps.gov\/tuzi\/planyourvisit\/basicinfo.htm","category_ids":["119"]}]},{"canonical_uuid":"cf678790-dd14-4dc4-b527-b5cd65ec6471","nonDupes":"","factual_gold":[{"uuid":"cf678790-dd14-4dc4-b527-b5cd65ec6471","name":"Grand Coulee Dam","address":null,"locality":"Coulee Dam","region":"WA","postcode":"99116","latitude":"47.9563066","longitude":"-118.9816749","tel":"(509) 633-9265","website":"http:\/\/www.usbr.gov\/pn\/grandcoulee","category_ids":["108"]}]},{"canonical_uuid":"d05fe01d-b033-4e6c-aaf4-3f4222c49610","nonDupes":"","factual_gold":[{"uuid":"d05fe01d-b033-4e6c-aaf4-3f4222c49610","name":"The Parthenon","address":"2500 W End Ave","locality":"Nashville","region":"TN","postcode":"37232","latitude":"36.149674","longitude":"-86.813347","tel":"(615) 862-8431","website":"http:\/\/www.nashville.gov\/Parks-and-Recreation\/Parthenon.aspx","category_ids":["110"]}]},{"canonical_uuid":"d0ce582f-caa7-446f-940e-cb7f6b232e72","nonDupes":"","factual_gold":[{"uuid":"d0ce582f-caa7-446f-940e-cb7f6b232e72","name":"Rainbow Bridge National Monument","address":null,"locality":"Lake Powell","region":"UT","postcode":"84533","latitude":"37.077431","longitude":"-110.964292","tel":"(928) 608-6200","website":"http:\/\/www.nps.gov\/rabr","category_ids":["110"]}]},{"canonical_uuid":"d13c2c3c-9949-4f8f-a47f-238de8c6716e","nonDupes":"","factual_gold":[{"uuid":"d13c2c3c-9949-4f8f-a47f-238de8c6716e","name":"California Memorial Stadium","address":"2227 Piedmont Ave","locality":"Berkeley","region":"CA","postcode":"94720","latitude":"37.87100730295808","longitude":"-122.25071078456274","tel":"(510) 642-2730","website":"http:\/\/www.californiamemorialstadium.com\/","category_ids":["406"]}]},{"canonical_uuid":"d1c92081-6f28-40a2-8243-1262ed686361","nonDupes":"","factual_gold":[{"uuid":"d1c92081-6f28-40a2-8243-1262ed686361","name":"Lurie Garden","address":null,"locality":"Chicago","region":"IL","postcode":"60601","latitude":"41.881391464147256","longitude":"-87.62184144551433","tel":"(312) 228-1004","website":"http:\/\/www.luriegarden.org","category_ids":["109"]}]},{"canonical_uuid":"d4eb5bc0-cdc9-4bf8-b410-df7219403b48","nonDupes":"","factual_gold":[{"uuid":"d4eb5bc0-cdc9-4bf8-b410-df7219403b48","name":"San Miguel Chapel","address":"401 Old Santa Fe Trl","locality":"Santa Fe","region":"NM","postcode":"87501","latitude":"35.683446393174876","longitude":"-105.93749332784778","tel":"(505) 983-3974","website":"http:\/\/sanmiguelchapel.org","category_ids":["55"]}]},{"canonical_uuid":"d68e7b78-d156-4185-968c-5397329b8ccf","nonDupes":"","factual_gold":[{"uuid":"d68e7b78-d156-4185-968c-5397329b8ccf","name":"Baltimore\/Washington International Thurgood Marshall Airport","address":"7035 Elm Rd","locality":"Baltimore","region":"MD","postcode":"21240","latitude":"39.1754","longitude":"-76.6683","tel":"(410) 859-7111","website":"http:\/\/www.bwiairport.com\/","category_ids":["462"]}]},{"canonical_uuid":"d88a2a06-22c2-4d3d-9f83-d96176aac1db","nonDupes":"","factual_gold":[{"uuid":"d88a2a06-22c2-4d3d-9f83-d96176aac1db","name":"Big Beach","address":"Makena Rd","locality":"Kihei","region":"HI","postcode":"96753","latitude":"20.63166","longitude":"-156.44737","tel":null,"website":"http:\/\/www.gohawaii.com\/maui\/regions-neighborhoods\/south-maui\/makena-beach","category_ids":["113"]}]},{"canonical_uuid":"d8e4e3cb-29ba-4733-8f25-1ec5c68c2f20","nonDupes":"","factual_gold":[{"uuid":"d8e4e3cb-29ba-4733-8f25-1ec5c68c2f20","name":"Old Faithful","address":null,"locality":"Yellowstone National Park","region":"WY","postcode":"82190","latitude":"44.4596239772482","longitude":"-110.83136053115635","tel":"(307) 344-7381","website":"http:\/\/www.nps.gov\/yell\/index.htm","category_ids":["119"]}]},{"canonical_uuid":"d9518fd8-db60-467b-a963-96bd6d03470a","nonDupes":"","factual_gold":[{"uuid":"d9518fd8-db60-467b-a963-96bd6d03470a","name":"Oak Alley Plantation","address":"3645 Highway 18","locality":"Vacherie","region":"LA","postcode":"70090","latitude":"30.004213837552","longitude":"-90.77595714555561","tel":"(225) 265-2151","website":"http:\/\/www.oakalleyplantation.com","category_ids":["110"]}]},{"canonical_uuid":"d9d3c9e1-983d-438b-8970-ebaddaa71386","nonDupes":"","factual_gold":[{"uuid":"d9d3c9e1-983d-438b-8970-ebaddaa71386","name":"STAPLES Center","address":"1111 S Figueroa St","locality":"Los Angeles","region":"CA","postcode":"90015","latitude":"34.04310354739281","longitude":"-118.26706199990502","tel":"(213) 742-7100","website":"http:\/\/www.staplescenter.com","category_ids":["333","406"]}]},{"canonical_uuid":"d9e521dc-851c-4a38-8589-96bfa0d2e26c","nonDupes":"","factual_gold":[{"uuid":"d9e521dc-851c-4a38-8589-96bfa0d2e26c","name":"Staypineapple at The Alise Chicago","address":"1 W Washington St","locality":"Chicago","region":"IL","postcode":"60602","latitude":"41.8828017533448","longitude":"-87.62886368425994","tel":"(312) 940-7997","website":"http:\/\/www.thealisechicago.com","category_ids":["436"]}]},{"canonical_uuid":"da933010-0161-4fd1-80d1-3b9d55090be8","nonDupes":"","factual_gold":[{"uuid":"da933010-0161-4fd1-80d1-3b9d55090be8","name":"Franklin Delano Roosevelt Memorial","address":"400 W Basin Dr SW","locality":"Washington","region":"DC","postcode":"20002","latitude":"38.883425","longitude":"-77.042868","tel":"(202) 426-6841","website":"http:\/\/www.nps.gov\/frde\/index.htm","category_ids":["111"]}]},{"canonical_uuid":"daa9b9ef-01c1-4ac4-8658-de7f0c137c50","nonDupes":"","factual_gold":[{"uuid":"daa9b9ef-01c1-4ac4-8658-de7f0c137c50","name":"Naismith Memorial Basketball Hall of Fame","address":null,"locality":"Springfield","region":"MA","postcode":"01105","latitude":"42.093687230217704","longitude":"-72.5850662239415","tel":"(877) 446-6752","website":"http:\/\/www.hoophall.com","category_ids":["111"]}]},{"canonical_uuid":"de018370-d829-012e-561a-003048cad9da","nonDupes":"","factual_gold":[{"uuid":"de018370-d829-012e-561a-003048cad9da","name":"Washington Monument","address":"2 15th St NE","locality":"Washington","region":"DC","postcode":"20002","latitude":"38.889504","longitude":"-77.035208","tel":"(202) 426-6841","website":"https:\/\/www.nps.gov\/wamo\/index.htm","category_ids":["111"]}]},{"canonical_uuid":"de278250-94f3-4062-a9bb-63265a39afc3","nonDupes":"","factual_gold":[{"uuid":"de278250-94f3-4062-a9bb-63265a39afc3","name":"International Boxing Hall of Fame","address":null,"locality":"Canastota","region":"NY","postcode":"13032","latitude":"43.089331","longitude":"-75.749849","tel":"(315) 697-7095","website":"http:\/\/www.ibhof.com","category_ids":["311"]}]},{"canonical_uuid":"def17e78-f555-4907-ac2f-e7c0acd14722","nonDupes":"","factual_gold":[{"uuid":"def17e78-f555-4907-ac2f-e7c0acd14722","name":"Chapman Square","address":"SW 4TH Ave","locality":"Portland","region":"OR","postcode":"97204","latitude":"45.515365","longitude":"-122.677763","tel":"(503) 823-7529","website":"http:\/\/www.portlandoregon.gov\/parks\/finder\/index.cfm?action=ViewPark&PropertyID=99","category_ids":["122"]}]},{"canonical_uuid":"df59ad52-3b99-4c91-9650-52818399f131","nonDupes":"","factual_gold":[{"uuid":"df59ad52-3b99-4c91-9650-52818399f131","name":"General Downing - Peoria International Airport","address":null,"locality":"Peoria","region":"IL","postcode":"61607","latitude":"40.6642","longitude":"-89.6933","tel":"(309) 697-8272","website":"http:\/\/www.flypia.com","category_ids":["462"]}]},{"canonical_uuid":"e1f99a80-292b-46ba-b67a-d9cfcf6d5620","nonDupes":"","factual_gold":[{"uuid":"e1f99a80-292b-46ba-b67a-d9cfcf6d5620","name":"Ke'e State Beach Park","address":null,"locality":"Hanalei","region":"HI","postcode":"96714","latitude":"22.22056","longitude":"-159.583318","tel":null,"website":"http:\/\/www.hawaiistateparks.org\/parks\/kauai\/index.cfm?park_id=8","category_ids":["113"]}]},{"canonical_uuid":"e2413890-64e9-473f-9446-1e614fa01479","nonDupes":"","factual_gold":[{"uuid":"e2413890-64e9-473f-9446-1e614fa01479","name":"Avaya Stadium","address":"1123 Coleman Ave","locality":"San Jose","region":"CA","postcode":"95110","latitude":"37.351245","longitude":"-121.924691","tel":"(408) 556-7700","website":"http:\/\/www.sjearthquakes.com","category_ids":["406"]}]},{"canonical_uuid":"e569132d-172e-4279-9f8d-a58ab3fb6c1a","nonDupes":"","factual_gold":[{"uuid":"e569132d-172e-4279-9f8d-a58ab3fb6c1a","name":"Allerton Garden","address":"4425 Lawai Rd","locality":"Koloa","region":"HI","postcode":"96756","latitude":"21.889789190358854","longitude":"-159.5024990791969","tel":"(808) 742-2623","website":null,"category_ids":["109"]}]},{"canonical_uuid":"e5807c75-4f89-4bab-b58c-384693afc257","nonDupes":"","factual_gold":[{"uuid":"e5807c75-4f89-4bab-b58c-384693afc257","name":"University of California Santa Cruz","address":"1156 High St","locality":"Santa Cruz","region":"CA","postcode":"95064","latitude":"36.99430323675237","longitude":"-122.05933786054564","tel":"(831) 459-0111","website":"http:\/\/www.ucsc.edu\/","category_ids":["29"]}]},{"canonical_uuid":"e64a1b0d-0d13-499d-a1c6-1f5cb265ad92","nonDupes":"","factual_gold":[{"uuid":"e64a1b0d-0d13-499d-a1c6-1f5cb265ad92","name":"College of William and Mary","address":"200 Stadium Dr","locality":"Williamsburg","region":"VA","postcode":"23186","latitude":"37.272328","longitude":"-76.716903","tel":"(757) 221-4000","website":"http:\/\/www.wm.edu","category_ids":["29"]}]},{"canonical_uuid":"e746a29d-f4a0-4d24-8b9b-c17af09a3257","nonDupes":"","factual_gold":[{"uuid":"e746a29d-f4a0-4d24-8b9b-c17af09a3257","name":"Jack Brooks Regional Airport","address":null,"locality":"Nederland","region":"TX","postcode":"77705","latitude":"29.950833","longitude":"-94.020694","tel":"(409) 719-4900","website":"http:\/\/flysetx.com","category_ids":["425"]}]},{"canonical_uuid":"e7946a75-3eda-4c37-b2cb-298683069af9","nonDupes":"","factual_gold":[{"uuid":"e7946a75-3eda-4c37-b2cb-298683069af9","name":"Yale University","address":null,"locality":"New Haven","region":"CT","postcode":"06520","latitude":"41.31628871198435","longitude":"-72.92565959285629","tel":"(203) 432-4771","website":"http:\/\/www.yale.edu","category_ids":["29"]}]},{"canonical_uuid":"e8443272-556d-419c-b2bb-f85e5799fac3","nonDupes":"","factual_gold":[{"uuid":"e8443272-556d-419c-b2bb-f85e5799fac3","name":"Princeton University","address":null,"locality":"Princeton","region":"NJ","postcode":"08544","latitude":"40.343989","longitude":"-74.651448","tel":"(609) 258-3000","website":"http:\/\/www.princeton.edu","category_ids":["29"]}]},{"canonical_uuid":"eaeb8d93-c847-42b2-8d45-189e769c46fe","nonDupes":"","factual_gold":[{"uuid":"eaeb8d93-c847-42b2-8d45-189e769c46fe","name":"Crown Point State Park","address":null,"locality":"Grand Coulee","region":"WA","postcode":"99133","latitude":"47.970808","longitude":"-118.987813","tel":null,"website":null,"category_ids":["118"]}]},{"canonical_uuid":"ebb57015-efb3-4f62-825c-c8aee512989a","nonDupes":"","factual_gold":[{"uuid":"ebb57015-efb3-4f62-825c-c8aee512989a","name":"New Mexico Museum of Space History","address":"3198 State Route","locality":"Alamogordo","region":"NM","postcode":"88310","latitude":"32.9205871413238","longitude":"-105.9214223069326","tel":"(575) 437-2840","website":"http:\/\/www.nmspacemuseum.org","category_ids":["311"]}]},{"canonical_uuid":"ebbc38e7-1ddf-43a2-91cd-907198192d60","nonDupes":"","factual_gold":[{"uuid":"ebbc38e7-1ddf-43a2-91cd-907198192d60","name":"Bethel Airport","address":null,"locality":"Bethel","region":"AK","postcode":"99519","latitude":"60.7798","longitude":"-161.838","tel":"(907) 269-0747","website":null,"category_ids":["425"]}]},{"canonical_uuid":"eca6ffc3-d4d6-4630-9f34-4e3fa03c873c","nonDupes":"","factual_gold":[{"uuid":"eca6ffc3-d4d6-4630-9f34-4e3fa03c873c","name":"Barclays Center","address":"620 Atlantic Ave","locality":"Brooklyn","region":"NY","postcode":"11217","latitude":"40.682654","longitude":"-73.975359","tel":"(917) 618-6100","website":"http:\/\/www.barclayscenter.com","category_ids":["333","406"]}]},{"canonical_uuid":"ee7568c6-c521-4164-a3ec-be9cf61a9c9f","nonDupes":"","factual_gold":[{"uuid":"ee7568c6-c521-4164-a3ec-be9cf61a9c9f","name":"Bluff View Art District","address":"411 E 2nd St","locality":"Chattanooga","region":"TN","postcode":"37403","latitude":"35.054217817602265","longitude":"-85.3046436106513","tel":"(423) 265-5033","website":"http:\/\/www.bluffviewartdistrict.com","category_ids":["107","340","347"]}]},{"canonical_uuid":"eec3a01d-f3d9-4f0d-92f5-5dc27f339e19","nonDupes":"","factual_gold":[{"uuid":"eec3a01d-f3d9-4f0d-92f5-5dc27f339e19","name":"Haymarket","address":"106 Blackstone St","locality":"Boston","region":"MA","postcode":"02109","latitude":"42.362032","longitude":"-71.05668","tel":"(617) 723-8585","website":"http:\/\/haymarketboston.org","category_ids":["154"]}]},{"canonical_uuid":"efde6609-fa17-4433-b760-126efed57f9f","nonDupes":"","factual_gold":[{"uuid":"efde6609-fa17-4433-b760-126efed57f9f","name":"Leadbetter Point State Park","address":null,"locality":"Ocean Park","region":"WA","postcode":"98640","latitude":"46.601432285022995","longitude":"-124.04756911925172","tel":"(360) 642-3078","website":"http:\/\/www.parks.wa.gov\/537\/Leadbetter-Point","category_ids":["119"]}]},{"canonical_uuid":"efe71b47-fdd2-47c4-bd70-8ce84f9ce28b","nonDupes":"","factual_gold":[{"uuid":"efe71b47-fdd2-47c4-bd70-8ce84f9ce28b","name":"Lea County Regional Airport","address":"6601 W Carlsbad Hwy","locality":"Hobbs","region":"NM","postcode":"88240","latitude":"32.6875","longitude":"-103.217","tel":"(575) 391-2934","website":"http:\/\/www.flyhobbs.com\/","category_ids":["425"]}]},{"canonical_uuid":"f02a2c98-e1f2-48de-8c1e-c7250e676f9d","nonDupes":"","factual_gold":[{"uuid":"f02a2c98-e1f2-48de-8c1e-c7250e676f9d","name":"San Francisco De Asis Church","address":null,"locality":"Ranchos De Taos","region":"NM","postcode":"87557","latitude":"36.357793","longitude":"-105.608035","tel":"(575) 758-2754","website":"https:\/\/www.san-francisco-de-asis.org\/","category_ids":["55"]}]},{"canonical_uuid":"f12c554c-4bef-4af5-b5ce-b7376478fedd","nonDupes":"","factual_gold":[{"uuid":"f12c554c-4bef-4af5-b5ce-b7376478fedd","name":"Kelly Ingram Park","address":null,"locality":"Birmingham","region":"AL","postcode":"35203","latitude":"33.516294675100426","longitude":"-86.81350173176702","tel":null,"website":"http:\/\/www.nps.gov\/nr\/travel\/civilrights\/al10.htm","category_ids":["110"]}]},{"canonical_uuid":"f3f23647-aaf0-4161-8f84-e9cffbd428e7","nonDupes":"","factual_gold":[{"uuid":"f3f23647-aaf0-4161-8f84-e9cffbd428e7","name":"Fort Union National Monument","address":null,"locality":"Watrous","region":"NM","postcode":"87753","latitude":"35.907906","longitude":"-105.014066","tel":"(505) 425-8025","website":"http:\/\/www.nps.gov\/foun\/index.htm","category_ids":["111"]}]},{"canonical_uuid":"f4c2fc35-a295-480a-b206-fb0e3c4223a3","nonDupes":"","factual_gold":[{"uuid":"f4c2fc35-a295-480a-b206-fb0e3c4223a3","name":"Timpanogos Cave National Monument","address":"2038 Alpine Loop Rd","locality":"American Fork","region":"UT","postcode":"84003","latitude":"40.443584","longitude":"-111.7055","tel":"(801) 756-5238","website":"http:\/\/www.nps.gov\/tica\/index.htm","category_ids":["111"]}]},{"canonical_uuid":"f50ff4cd-6ddd-45d5-ac9f-0ab69e9b9f6a","nonDupes":"","factual_gold":[{"uuid":"f50ff4cd-6ddd-45d5-ac9f-0ab69e9b9f6a","name":"Lincoln Memorial","address":null,"locality":"Washington","region":"DC","postcode":"20002","latitude":"38.889254","longitude":"-77.050072","tel":"(202) 426-6841","website":"https:\/\/www.nps.gov\/linc\/planyourvisit\/basicinfo.htm","category_ids":["110"]}]},{"canonical_uuid":"f6f47741-ac62-4f83-8e99-ff325a90b3ad","nonDupes":"","factual_gold":[{"uuid":"f6f47741-ac62-4f83-8e99-ff325a90b3ad","name":"Crowne Plaza Miami International Airport","address":"950 NW 42nd Ave","locality":"Miami","region":"FL","postcode":"33126","latitude":"25.78118530299774","longitude":"-80.26488542911662","tel":"(305) 446-9000","website":"http:\/\/www.ihg.com\/crowneplaza\/hotels\/us\/en\/miami\/miaap\/hoteldetail?cm_mmc=GoogleMaps-_-cp-_-USEN-_-miaap","category_ids":["436"]}]},{"canonical_uuid":"f80b7896-e260-45de-a909-56a5cb94fbae","nonDupes":"","factual_gold":[{"uuid":"f80b7896-e260-45de-a909-56a5cb94fbae","name":"Smithsonian National Museum of American History","address":"14TH St","locality":"Washington","region":"DC","postcode":"20001","latitude":"38.891583","longitude":"-77.030071","tel":"(202) 633-1000","website":"http:\/\/americanhistory.si.edu","category_ids":["311"]}]},{"canonical_uuid":"f88209df-423c-45d6-bf11-e4009b82f1c1","nonDupes":"","factual_gold":[{"uuid":"f88209df-423c-45d6-bf11-e4009b82f1c1","name":"Burke Museum of Natural History and Culture","address":"17th Ave NE and NE 45th St","locality":"Seattle","region":"WA","postcode":"98195","latitude":"47.660678","longitude":"-122.310592","tel":"(206) 616-3962","website":"http:\/\/www.burkemuseum.org","category_ids":["311"]}]},{"canonical_uuid":"f892174d-45d4-4c8d-ae2a-8eb3503837a2","nonDupes":"","factual_gold":[{"uuid":"f892174d-45d4-4c8d-ae2a-8eb3503837a2","name":"Newspaper Rock State Historical Monument","address":null,"locality":"Monticello","region":"UT","postcode":"84535","latitude":"37.988329","longitude":"-109.518479","tel":"(435) 587-1500","website":"http:\/\/www.blm.gov\/ut\/st\/en\/prog\/more\/cultural\/archaeology\/places_to_visit\/Newspaper_Rock.html","category_ids":["110"]}]},{"canonical_uuid":"f9742f93-f318-4ac2-a6f7-ff16b7b782fc","nonDupes":"","factual_gold":[{"uuid":"f9742f93-f318-4ac2-a6f7-ff16b7b782fc","name":"McCarran International Airport","address":"5757 Wayne Newton Blvd","locality":"Las Vegas","region":"NV","postcode":"89111","latitude":"36.0849247625429","longitude":"-115.15117049217224","tel":"(702) 261-5211","website":"http:\/\/www.mccarran.com","category_ids":["462"]}]},{"canonical_uuid":"f99210da-b7f6-430b-b4bf-d555fdd5585a","nonDupes":"","factual_gold":[{"uuid":"f99210da-b7f6-430b-b4bf-d555fdd5585a","name":"Busch Stadium","address":"700 Clark Ave","locality":"St. Louis","region":"MO","postcode":"63102","latitude":"38.622561","longitude":"-90.192855","tel":"(314) 345-9600","website":"http:\/\/stlouis.cardinals.mlb.com\/stl\/ballpark\/","category_ids":["333","406"]}]},{"canonical_uuid":"fbf1c815-c663-45af-acb3-0d31815a9c42","nonDupes":"","factual_gold":[{"uuid":"fbf1c815-c663-45af-acb3-0d31815a9c42","name":"Tarantula Steam Train","address":"140 E Exchange Ave","locality":"Fort Worth","region":"TX","postcode":"76164","latitude":"32.788771","longitude":"-97.34839","tel":"(817) 625-7245","website":"http:\/\/www.grapevinetexasusa.com\/grapevine-vintage-railroad","category_ids":["110"]}]},{"canonical_uuid":"fca0a1f7-e2fd-45cd-adb8-7d4f1f820dd8","nonDupes":"","factual_gold":[{"uuid":"fca0a1f7-e2fd-45cd-adb8-7d4f1f820dd8","name":"Toyota Center","address":"1510 Polk St","locality":"Houston","region":"TX","postcode":"77002","latitude":"29.750795","longitude":"-95.362155","tel":"(713) 758-7200","website":"http:\/\/www.houstontoyotacenter.com","category_ids":["406"]}]},{"canonical_uuid":"fd07844e-ef5c-4300-abcd-065cec2cd05b","nonDupes":"","factual_gold":[{"uuid":"fd07844e-ef5c-4300-abcd-065cec2cd05b","name":"Berkeley Art Museum and Pacific Film Archive","address":"2155 Center St","locality":"Berkeley","region":"CA","postcode":"94720","latitude":"37.868797","longitude":"-122.255824","tel":"(510) 642-0808","website":"https:\/\/bampfa.org","category_ids":["311"]}]}]