[{"canonical_uuid":"041fef4f-5bc8-4407-bbd4-271fda44221e","nonDupes":"","Tide-Data":[{"uuid":"041fef4f-5bc8-4407-bbd4-271fda44221e","name":"low head tourist park","address":"136 low head rd","locality":"Low Head","region":"TAS","postcode":"7253","latitude":"-41.08409","longitude":"146.811997","tel":"0363821573","website":"http:\/\/www.lowheadtouristpark.com.au","category_ids":["434"]}]},{"canonical_uuid":"04c344d9-082b-4bfd-9c92-81c84c57033c","nonDupes":"","Tide-Data":[{"uuid":"04c344d9-082b-4bfd-9c92-81c84c57033c","name":"queen victoria building","address":"455 george st","locality":"Sydney","region":"NSW","postcode":"2000","latitude":"-33.870896","longitude":"151.206593","tel":"0292656800","website":"http:\/\/www.qvb.com.au","category_ids":["169"]}]},{"canonical_uuid":"0562e8c9-f378-4fb4-aeed-f49648feb117","nonDupes":"","Tide-Data":[{"uuid":"0562e8c9-f378-4fb4-aeed-f49648feb117","name":"mcclelland gallery","address":"390 mcclelland dr","locality":"Langwarrin","region":"VIC","postcode":"3910","latitude":"-38.14583162837111","longitude":"145.17659194787777","tel":"0397891671","website":"http:\/\/www.mcclellandgallery.com","category_ids":["310"]}]},{"canonical_uuid":"05e82291-790f-457a-9db4-b84face81343","nonDupes":"","Tide-Data":[{"uuid":"05e82291-790f-457a-9db4-b84face81343","name":"wrest point","address":"410 sandy bay rd","locality":"Sandy Bay","region":"TAS","postcode":"7005","latitude":"-42.902257","longitude":"147.337561","tel":"0361114628","website":"http:\/\/www.wrestpoint.com.au","category_ids":["436"]}]},{"canonical_uuid":"06dc4b1d-0653-4205-9093-4ab7462e3282","nonDupes":"","Tide-Data":[{"uuid":"06dc4b1d-0653-4205-9093-4ab7462e3282","name":"mildura plaza motor inn","address":"836 calder hwy","locality":"Mildura","region":"VIC","postcode":"3500","latitude":"-34.20934878190901","longitude":"142.13864899489656","tel":"0350211155","website":"http:\/\/www.milduraplaza.com.au","category_ids":["436"]}]},{"canonical_uuid":"0774c3fc-21d7-4f8d-99c3-52638deea3a6","nonDupes":"","Tide-Data":[{"uuid":"0774c3fc-21d7-4f8d-99c3-52638deea3a6","name":"national gallery of australia","address":"parkes pl","locality":"Canberra","region":"ACT","postcode":"2600","latitude":"-35.30051766238986","longitude":"149.1367045524839","tel":"0262406411","website":"http:\/\/nga.gov.au","category_ids":["311"]}]},{"canonical_uuid":"094507fb-06b5-4f0e-8b71-e9922d66ca7d","nonDupes":"","Tide-Data":[{"uuid":"094507fb-06b5-4f0e-8b71-e9922d66ca7d","name":"little creatures brewery","address":"40 mews rd","locality":"Fremantle","region":"WA","postcode":"6160","latitude":"-32.05936171695801","longitude":"115.74459397748056","tel":"0862151000","website":null,"category_ids":["341"]}]},{"canonical_uuid":"0a71e076-6c62-4622-85e6-8f00f5322286","nonDupes":"","Tide-Data":[{"uuid":"0a71e076-6c62-4622-85e6-8f00f5322286","name":"telstra tower","address":"100 black mountain dr","locality":"Acton","region":"ACT","postcode":"2601","latitude":"-35.275405589178","longitude":"149.09770991702453","tel":"0262196120","website":"http:\/\/www.telstratower.com.au\/","category_ids":["108"]}]},{"canonical_uuid":"0aae787f-e654-43b4-a1f8-135181c9b751","nonDupes":"","Tide-Data":[{"uuid":"0aae787f-e654-43b4-a1f8-135181c9b751","name":"royal botanic gardens","address":"mrs macquaries rd","locality":"Sydney","region":"NSW","postcode":"2000","latitude":"-33.86918","longitude":"151.215727","tel":"0292318111","website":"http:\/\/www.rbgsyd.nsw.gov.au","category_ids":["109"]}]},{"canonical_uuid":"0b04bf67-7e4d-4515-aafe-46fbe797dd35","nonDupes":"","Tide-Data":[{"uuid":"0b04bf67-7e4d-4515-aafe-46fbe797dd35","name":"brisbane arts theatre","address":"210 petrie tce","locality":"Petrie Terrace","region":"QLD","postcode":"4000","latitude":"-27.46150893927278","longitude":"153.01430348666753","tel":"0733692344","website":"http:\/\/www.artstheatre.com.au\/index.php?page_id=9","category_ids":["333"]}]},{"canonical_uuid":"0d04651b-0c75-49bb-9b6f-7563ff13db76","nonDupes":"","Tide-Data":[{"uuid":"0d04651b-0c75-49bb-9b6f-7563ff13db76","name":"national gallery of victoria","address":"180 st kilda rd","locality":"Melbourne","region":"VIC","postcode":"3006","latitude":"-37.822614349363576","longitude":"144.96887973522797","tel":"0386202222","website":"http:\/\/www.ngv.vic.gov.au","category_ids":["311"]}]},{"canonical_uuid":"0d4cf0cf-67bd-4b32-bb88-d1ac35c42649","nonDupes":"","Tide-Data":[{"uuid":"0d4cf0cf-67bd-4b32-bb88-d1ac35c42649","name":"westfield tuggerah","address":"50 wyong rd","locality":"Tuggerah","region":"NSW","postcode":"2259","latitude":"-33.308481","longitude":"151.412064","tel":"0243055351","website":"http:\/\/www.westfield.com.au\/tuggerah\/","category_ids":["169"]}]},{"canonical_uuid":"0e5a6bc5-ed03-4ed9-8899-6eb76fb0ccca","nonDupes":"","Tide-Data":[{"uuid":"0e5a6bc5-ed03-4ed9-8899-6eb76fb0ccca","name":"australian technology park","address":"2 locomotive st","locality":"Eveleigh","region":"NSW","postcode":"2015","latitude":"-33.8953495","longitude":"151.1952175","tel":"0283985710","website":"http:\/\/atp.com.au\/","category_ids":["108","299"]}]},{"canonical_uuid":"101fc090-4353-49c5-ba5b-7530bcb53792","nonDupes":"","Tide-Data":[{"uuid":"101fc090-4353-49c5-ba5b-7530bcb53792","name":"university of new south wales","address":"high st","locality":"Kensington","region":"NSW","postcode":"2052","latitude":"-33.91741","longitude":"151.231307","tel":"0293851000","website":"http:\/\/www.unsw.edu.au","category_ids":["29"]}]},{"canonical_uuid":"12fa6735-52fe-4385-a811-b9a63e88329f","nonDupes":"","Tide-Data":[{"uuid":"12fa6735-52fe-4385-a811-b9a63e88329f","name":"sydney convention and exhibition centre","address":"14 darling dr","locality":"Sydney","region":"NSW","postcode":"2000","latitude":"-33.873369433019484","longitude":"151.1991501375871","tel":"0292825000","website":"http:\/\/www.scec.com.au","category_ids":["108"]}]},{"canonical_uuid":"138f1700-295b-4c51-af17-06832a1a3d76","nonDupes":"","Tide-Data":[{"uuid":"138f1700-295b-4c51-af17-06832a1a3d76","name":"migration museum","address":"82 kintore ave","locality":"Adelaide","region":"SA","postcode":"5000","latitude":"-34.92018104178361","longitude":"138.6023150017313","tel":"0882077580","website":"http:\/\/migration.history.sa.gov.au","category_ids":["311"]}]},{"canonical_uuid":"13c7787b-a671-4749-8f43-1c60a2b2c8af","nonDupes":"","Tide-Data":[{"uuid":"13c7787b-a671-4749-8f43-1c60a2b2c8af","name":"mantra quayside","address":"cnr william st & short st","locality":"Port Macquarie","region":"NSW","postcode":"2444","latitude":"-31.431564091246937","longitude":"152.90654392775753","tel":"0265884000","website":"http:\/\/www.mantraquayside.com.au","category_ids":["436"]}]},{"canonical_uuid":"1404f956-356e-4951-bde1-172168106b2d","nonDupes":"","Tide-Data":[{"uuid":"1404f956-356e-4951-bde1-172168106b2d","name":"wet'n'wild water world","address":"pacific motorway","locality":"Oxenford","region":"QLD","postcode":"4210","latitude":"-27.91458580012045","longitude":"153.31737309134883","tel":"0755561660","website":"http:\/\/wetnwild.com.au","category_ids":["319"]}]},{"canonical_uuid":"1676fe0b-e32f-451e-94a3-adef148d61a6","nonDupes":"","Tide-Data":[{"uuid":"1676fe0b-e32f-451e-94a3-adef148d61a6","name":"montsalvat","address":"7 hillcrest ave","locality":"Eltham","region":"VIC","postcode":"3095","latitude":"-37.727856","longitude":"145.153612","tel":"0394397712","website":"http:\/\/www.montsalvat.com.au","category_ids":["309"]}]},{"canonical_uuid":"16c0ec50-fe89-47db-9b2c-c65538767cc8","nonDupes":"","Tide-Data":[{"uuid":"16c0ec50-fe89-47db-9b2c-c65538767cc8","name":"albion hotel","address":"135 george st","locality":"Parramatta","region":"NSW","postcode":"2150","latitude":"-33.81596981076483","longitude":"151.01183312554178","tel":"0285874600","website":"http:\/\/www.albionhotel.com.au","category_ids":["312"]}]},{"canonical_uuid":"16c28514-52d6-423a-ba6d-c706be2f4431","nonDupes":"","Tide-Data":[{"uuid":"16c28514-52d6-423a-ba6d-c706be2f4431","name":"comfort inn","address":"22 sackville st","locality":"Port Fairy","region":"VIC","postcode":"3284","latitude":"-38.38583288062674","longitude":"142.23616843224676","tel":"0355681082","website":"https:\/\/www.seacombehouse.com.au\/home","category_ids":["436"]}]},{"canonical_uuid":"16f8d9b2-ce2c-4dcb-861c-86fd83dbac84","nonDupes":"","Tide-Data":[{"uuid":"16f8d9b2-ce2c-4dcb-861c-86fd83dbac84","name":"western sydney parklands","address":"richmond rd","locality":"","region":"NSW","postcode":"","latitude":"-33.8580341","longitude":"150.8580282","tel":"0298957500","website":"http:\/\/www.westernsydneyparklands.com.au","category_ids":["122"]}]},{"canonical_uuid":"18fcae49-e8ab-46d7-93d7-d3f0e0eec61c","nonDupes":"","Tide-Data":[{"uuid":"18fcae49-e8ab-46d7-93d7-d3f0e0eec61c","name":"the cathedral of st stephen","address":"249 elizabeth st","locality":"Brisbane","region":"QLD","postcode":"4000","latitude":"-27.468598896261643","longitude":"153.02900987099895","tel":"0733243030","website":"http:\/\/www.cathedralofststephen.org.au","category_ids":["53"]}]},{"canonical_uuid":"1a11d1ed-8bd5-4fb2-95eb-ace4e4319efb","nonDupes":"","Tide-Data":[{"uuid":"1a11d1ed-8bd5-4fb2-95eb-ace4e4319efb","name":"lyell mcewin hospital","address":"haydown rd","locality":"Elizabeth Vale","region":"SA","postcode":"5112","latitude":"-34.747649493685905","longitude":"138.66469498395668","tel":"0881829000","website":"http:\/\/www.lyellmcewinvolunteers.org.au","category_ids":["74"]}]},{"canonical_uuid":"1b9e42fc-1831-4b50-9409-e2a14a21a54e","nonDupes":"","Tide-Data":[{"uuid":"1b9e42fc-1831-4b50-9409-e2a14a21a54e","name":"skycity darwin","address":"gilruth ave","locality":"Darwin","region":"NT","postcode":"0801","latitude":"-12.44776523361925","longitude":"130.83015158222528","tel":"0889438888","website":"http:\/\/www.skycitydarwin.com.au","category_ids":["324"]}]},{"canonical_uuid":"1d0bdebb-1d3b-4bf0-b2bf-6b34e9fff1c3","nonDupes":"","Tide-Data":[{"uuid":"1d0bdebb-1d3b-4bf0-b2bf-6b34e9fff1c3","name":"art gallery of nsw","address":"art gallery rd","locality":"Sydney","region":"NSW","postcode":"2000","latitude":"-33.86886233529528","longitude":"151.21734264310402","tel":"0292251744","website":"http:\/\/www.artgallery.nsw.gov.au","category_ids":["309"]}]},{"canonical_uuid":"1de0975a-3ac5-4315-801c-4642cfb684b0","nonDupes":"","Tide-Data":[{"uuid":"1de0975a-3ac5-4315-801c-4642cfb684b0","name":"rod laver arena","address":"melbourne & olympic parks, olympic bvd","locality":"Melbourne","region":"VIC","postcode":"3001","latitude":"-37.821583905323884","longitude":"144.9785731469415","tel":"0392861600","website":"http:\/\/www.rodlaverarena.com.au","category_ids":["406"]}]},{"canonical_uuid":"1df60504-e314-42d9-bf49-122db20bf876","nonDupes":"","Tide-Data":[{"uuid":"1df60504-e314-42d9-bf49-122db20bf876","name":"palazzo versace","address":"94 seaworld dr","locality":"Main Beach","region":"QLD","postcode":"4217","latitude":"-27.96709223862813","longitude":"153.42617985330972","tel":"0755098000","website":"http:\/\/www.palazzoversace.com.au\/","category_ids":["436"]}]},{"canonical_uuid":"1e501327-3228-4608-9207-23d38a8f86f8","nonDupes":"","Tide-Data":[{"uuid":"1e501327-3228-4608-9207-23d38a8f86f8","name":"emmanuel college","address":"37 ardlie st","locality":"Warrnambool","region":"VIC","postcode":"3280","latitude":"-38.370730397708485","longitude":"142.476867245801","tel":"0355600888","website":"http:\/\/www.emmanuel.vic.edu.au","category_ids":["34"]}]},{"canonical_uuid":"1ef65459-e740-40d0-b3a4-393815307249","nonDupes":"","Tide-Data":[{"uuid":"1ef65459-e740-40d0-b3a4-393815307249","name":"adventure world","address":"351 progress dr","locality":"Bibra Lake","region":"WA","postcode":"6163","latitude":"-32.095525834496144","longitude":"115.81808644288841","tel":"0894179666","website":"http:\/\/www.adventureworld.net.au","category_ids":["319"]}]},{"canonical_uuid":"1f84e1f5-37b9-46d2-937a-fc0779f2fb05","nonDupes":"","Tide-Data":[{"uuid":"1f84e1f5-37b9-46d2-937a-fc0779f2fb05","name":"watarrka national park","address":"luritja rd","locality":"Petermann","region":"NT","postcode":"0872","latitude":"-24.236702","longitude":"131.561242","tel":"0889567460","website":"http:\/\/www.parksandwildlife.nt.gov.au\/parks\/find\/watarrka#visitor","category_ids":["119"]}]},{"canonical_uuid":"206982a4-14d2-4e8f-aec4-5f072170961f","nonDupes":"","Tide-Data":[{"uuid":"206982a4-14d2-4e8f-aec4-5f072170961f","name":"armadale shopping city","address":"jull st","locality":"Armadale","region":"WA","postcode":"6112","latitude":"-32.15341101762644","longitude":"116.01524433764428","tel":"0893993933","website":"http:\/\/www.armadaleshoppingcity.com.au","category_ids":["169"]}]},{"canonical_uuid":"20ba8763-9dbb-43fb-ac83-03d01d62db0e","nonDupes":"","Tide-Data":[{"uuid":"20ba8763-9dbb-43fb-ac83-03d01d62db0e","name":"daydream island resort and spa","address":"","locality":"Whitsundays","region":"QLD","postcode":"4802","latitude":"-20.252358","longitude":"148.814954","tel":"0732592350","website":"http:\/\/www.daydreamisland.com","category_ids":["437"]}]},{"canonical_uuid":"23ff432d-ecb0-4b0e-9d67-1f4d8c3e1692","nonDupes":"","Tide-Data":[{"uuid":"23ff432d-ecb0-4b0e-9d67-1f4d8c3e1692","name":"the university of notre dame australia","address":"32 mouat st","locality":"Fremantle","region":"WA","postcode":"6959","latitude":"-32.05625145631865","longitude":"115.74370365316312","tel":"0894330555","website":"https:\/\/www.notredame.edu.au\/","category_ids":["26"]}]},{"canonical_uuid":"251740d5-d052-49af-8994-c2784e24c104","nonDupes":"","Tide-Data":[{"uuid":"251740d5-d052-49af-8994-c2784e24c104","name":"westfield liverpool","address":"macquarie st","locality":"Liverpool","region":"NSW","postcode":"2170","latitude":"-33.91941","longitude":"150.923629","tel":"0296026633","website":"http:\/\/www.westfield.com.au\/liverpool\/","category_ids":["169"]}]},{"canonical_uuid":"257aef9e-6372-41de-9a91-090975ad2d16","nonDupes":"","Tide-Data":[{"uuid":"257aef9e-6372-41de-9a91-090975ad2d16","name":"sun theatre","address":"8 ballarat st","locality":"Yarraville","region":"VIC","postcode":"3013","latitude":"-37.815985691047246","longitude":"144.8906394345529","tel":"0393620999","website":"http:\/\/www.suntheatre.com.au","category_ids":["317"]}]},{"canonical_uuid":"25e270e6-6851-40a0-8007-24063b45952c","nonDupes":"","Tide-Data":[{"uuid":"25e270e6-6851-40a0-8007-24063b45952c","name":"sydney adventist hospital","address":"185 fox valley rd","locality":"Wahroonga","region":"NSW","postcode":"2076","latitude":"-33.732707","longitude":"151.100397","tel":"0294879111","website":"http:\/\/www.sah.org.au","category_ids":["74"]}]},{"canonical_uuid":"273bdac6-3092-46b0-9dec-135acab7e1b3","nonDupes":"","Tide-Data":[{"uuid":"273bdac6-3092-46b0-9dec-135acab7e1b3","name":"state library of victoria","address":"328 swanston st","locality":"Melbourne","region":"VIC","postcode":"3000","latitude":"-37.80970492158676","longitude":"144.96546677481948","tel":"0386647000","website":"http:\/\/www.slv.vic.gov.au","category_ids":["44"]}]},{"canonical_uuid":"29311766-f824-4767-baee-160f5f557494","nonDupes":"","Tide-Data":[{"uuid":"29311766-f824-4767-baee-160f5f557494","name":"gold coast airport","address":"airport central, eastern ave","locality":"Bilinga","region":"QLD","postcode":"4225","latitude":"-28.166265","longitude":"153.513293","tel":"0755891100","website":"http:\/\/www.goldcoastairport.com.au","category_ids":["462"]}]},{"canonical_uuid":"29d12033-a09d-4b82-aded-ddac92c38e9b","nonDupes":"","Tide-Data":[{"uuid":"29d12033-a09d-4b82-aded-ddac92c38e9b","name":"karri forest motel","address":"20 widdeson st","locality":"Pemberton","region":"WA","postcode":"6260","latitude":"-34.447263","longitude":"116.041798","tel":"0897761019","website":"http:\/\/karriforestmotel.com.au","category_ids":["436"]}]},{"canonical_uuid":"2a5f5598-2eac-41ae-892c-2e6a7b819bfc","nonDupes":"","Tide-Data":[{"uuid":"2a5f5598-2eac-41ae-892c-2e6a7b819bfc","name":"royal national park","address":"2 lady carrington dr","locality":"Avenue","region":"NSW","postcode":"2232","latitude":"-34.083333","longitude":"151.083333","tel":"0295420648","website":"https:\/\/www.nationalparks.nsw.gov.au\/things-to-do\/visitor-centres\/royal-national-park-visitor-centre\/visitor-info#Getting-there-and-parking","category_ids":["119"]}]},{"canonical_uuid":"2ba7a96c-0bbb-4710-9750-2574f4b8f533","nonDupes":"","Tide-Data":[{"uuid":"2ba7a96c-0bbb-4710-9750-2574f4b8f533","name":"the grace hotel","address":"77 york st","locality":"Sydney","region":"NSW","postcode":"2000","latitude":"-33.86896818516619","longitude":"151.20559581765406","tel":"0292726888","website":null,"category_ids":["436"]}]},{"canonical_uuid":"2e565bf7-5ef3-4aac-9727-a3a683bc26ec","nonDupes":"","Tide-Data":[{"uuid":"2e565bf7-5ef3-4aac-9727-a3a683bc26ec","name":"luna park sydney","address":"1 olympic dr","locality":"Milsons Point","region":"NSW","postcode":"2061","latitude":"-33.847885276678","longitude":"151.21014069739326","tel":"0299226644","website":"http:\/\/www.lunaparksydney.com","category_ids":["319"]}]},{"canonical_uuid":"318e43e4-86d5-4311-8890-a165758aedaa","nonDupes":"","Tide-Data":[{"uuid":"318e43e4-86d5-4311-8890-a165758aedaa","name":"adelaide zoo","address":"frome rd","locality":"Adelaide","region":"SA","postcode":"5000","latitude":"-34.912946","longitude":"138.606944","tel":"0882673255","website":"http:\/\/www.adelaidezoo.com.au","category_ids":["371"]}]},{"canonical_uuid":"31cde026-0ed1-492a-aec6-eee5338d2693","nonDupes":"","Tide-Data":[{"uuid":"31cde026-0ed1-492a-aec6-eee5338d2693","name":"national portrait gallery","address":"king edward tce","locality":"Parkes","region":"ACT","postcode":"2600","latitude":"-35.300455","longitude":"149.134005","tel":"0261027000","website":"http:\/\/www.portrait.gov.au","category_ids":["310"]}]},{"canonical_uuid":"31e7534e-cf25-41b2-b335-8c854c4812a3","nonDupes":"","Tide-Data":[{"uuid":"31e7534e-cf25-41b2-b335-8c854c4812a3","name":"royal tasmanian botanical gardens","address":"lower domain rd","locality":"Queens Domain","region":"TAS","postcode":"7000","latitude":"-42.86638045609186","longitude":"147.33223618240856","tel":"0361660451","website":"http:\/\/www.rtbg.tas.gov.au","category_ids":["109"]}]},{"canonical_uuid":"325393b7-e2b6-40e4-96fb-7adc90d6b838","nonDupes":"","Tide-Data":[{"uuid":"325393b7-e2b6-40e4-96fb-7adc90d6b838","name":"rydges kalgoorlie resort and spa","address":"21 davidson st","locality":"Kalgoorlie","region":"WA","postcode":"6430","latitude":"-30.761840554975215","longitude":"121.4831214457291","tel":"0890800800","website":"http:\/\/www.rydges.com\/accommodation\/western-australia\/kalgoorlie-resort-and-spa\/welcome","category_ids":["436"]}]},{"canonical_uuid":"337e422d-386c-44b7-9c24-89ecad23b9f7","nonDupes":"","Tide-Data":[{"uuid":"337e422d-386c-44b7-9c24-89ecad23b9f7","name":"national zoo and aquarium","address":"999 lady denman dr","locality":"Canberra","region":"ACT","postcode":"2611","latitude":"-35.29914886410696","longitude":"149.0703263160462","tel":"0262878400","website":"http:\/\/nationalzoo.com.au","category_ids":["371"]}]},{"canonical_uuid":"35023842-63eb-4d31-a6c2-7f6549b100bc","nonDupes":"","Tide-Data":[{"uuid":"35023842-63eb-4d31-a6c2-7f6549b100bc","name":"lizard island national park","address":"lizard island","locality":"Lizard","region":"QLD","postcode":"4871","latitude":"-14.6732","longitude":"145.4531","tel":"1300130372","website":"http:\/\/www.nprsr.qld.gov.au\/parks\/lizard-island","category_ids":["119"]}]},{"canonical_uuid":"36f085b8-c8d2-4cd4-b87d-422a5ece69bb","nonDupes":"","Tide-Data":[{"uuid":"36f085b8-c8d2-4cd4-b87d-422a5ece69bb","name":"moreton island national park","address":"97a goondool st","locality":"Moreton Island","region":"QLD","postcode":"4025","latitude":"-27.08661","longitude":"153.415662","tel":"","website":"http:\/\/www.nprsr.qld.gov.au\/parks\/moreton-island\/index.html","category_ids":["119"]}]},{"canonical_uuid":"380b0176-fffb-4a14-99b0-6ad8375228ed","nonDupes":"","Tide-Data":[{"uuid":"380b0176-fffb-4a14-99b0-6ad8375228ed","name":"comfort inn gemini","address":"201-207 banna ave","locality":"Griffith","region":"NSW","postcode":"2680","latitude":"-34.28785530894222","longitude":"146.04837330941402","tel":"","website":null,"category_ids":["436"]}]},{"canonical_uuid":"3868104f-cc5c-4f98-8f3b-cbe01a1f667b","nonDupes":"","Tide-Data":[{"uuid":"3868104f-cc5c-4f98-8f3b-cbe01a1f667b","name":"busselton-margaret river regional airport","address":"86 neville hyder dr","locality":"Yalyalup","region":"WA","postcode":"6280","latitude":"-33.687782","longitude":"115.402016","tel":"0897810444","website":"http:\/\/www.busseltonmargaretriverairport.com.au\/","category_ids":["425"]}]},{"canonical_uuid":"38fc57a3-9795-4628-8bec-ddce5bccda55","nonDupes":"","Tide-Data":[{"uuid":"38fc57a3-9795-4628-8bec-ddce5bccda55","name":"murray river national park","address":"","locality":"Katarapko","region":"SA","postcode":"5343","latitude":"-34.386944","longitude":"140.539722","tel":"0885801800","website":"http:\/\/www.environment.sa.gov.au\/parks\/Find_a_park\/Browse_by_region\/Murray_River\/Murray_River_National_Park","category_ids":["119"]}]},{"canonical_uuid":"391ecb89-ed01-4617-873e-700b3bd94af3","nonDupes":"","Tide-Data":[{"uuid":"391ecb89-ed01-4617-873e-700b3bd94af3","name":"mantra bunbury hotel","address":"1 holman st","locality":"Bunbury","region":"WA","postcode":"6230","latitude":"-33.31972145171779","longitude":"115.63907957502285","tel":"0897210100","website":"http:\/\/www.mantra.com.au\/western-australia\/australias-south-west\/bunbury\/accommodation\/hotels\/mantra-bunbury","category_ids":["436"]}]},{"canonical_uuid":"3c2e992d-f0da-46d6-81e9-40efddab746e","nonDupes":"","Tide-Data":[{"uuid":"3c2e992d-f0da-46d6-81e9-40efddab746e","name":"outback ballooning","address":"35 kennett ct","locality":"Alice Springs","region":"NT","postcode":"0871","latitude":"-23.69262812751235","longitude":"133.8652220600607","tel":"0889528723","website":"http:\/\/www.outbackballooning.com.au","category_ids":["439"]}]},{"canonical_uuid":"3d513d51-6263-4e5e-91cb-671d5adc553e","nonDupes":"","Tide-Data":[{"uuid":"3d513d51-6263-4e5e-91cb-671d5adc553e","name":"federation square","address":"cnr swanston & flinders sts","locality":"Melbourne","region":"VIC","postcode":"3000","latitude":"-37.818014","longitude":"144.968498","tel":"0396551900","website":"http:\/\/www.fedsquare.com","category_ids":["169"]}]},{"canonical_uuid":"3eb56933-0796-49d2-9fba-42929940e7df","nonDupes":"","Tide-Data":[{"uuid":"3eb56933-0796-49d2-9fba-42929940e7df","name":"purnululu national park","address":"","locality":"Purnululu","region":"WA","postcode":"6770","latitude":"-17.529752","longitude":"128.400838","tel":"0891687300","website":"http:\/\/parks.dpaw.wa.gov.au\/park\/purnululu","category_ids":["119"]}]},{"canonical_uuid":"406c922d-6c28-4f0f-a389-be80ea61730c","nonDupes":"","Tide-Data":[{"uuid":"406c922d-6c28-4f0f-a389-be80ea61730c","name":"queensland museum","address":"melbourne st","locality":"South Brisbane","region":"QLD","postcode":"4101","latitude":"-27.472519","longitude":"153.017936","tel":"0738407555","website":"http:\/\/www.qm.qld.gov.au\/","category_ids":["311"]}]},{"canonical_uuid":"40863bca-619f-46c4-9562-e1bb034867ef","nonDupes":"","Tide-Data":[{"uuid":"40863bca-619f-46c4-9562-e1bb034867ef","name":"harrup park country club","address":"juliet st","locality":"Mackay","region":"QLD","postcode":"4740","latitude":"-21.158631","longitude":"149.186718","tel":"0749440000","website":"http:\/\/www.harruppark.com.au","category_ids":["324"]}]},{"canonical_uuid":"4138d9fa-bcd6-4515-8b3f-578e06bc7732","nonDupes":"","Tide-Data":[{"uuid":"4138d9fa-bcd6-4515-8b3f-578e06bc7732","name":"adelaide botanic garden","address":"north tce","locality":"Adelaide","region":"SA","postcode":"5000","latitude":"-34.917639","longitude":"138.611703","tel":"0882229311","website":"http:\/\/www.environment.sa.gov.au\/botanicgardens\/home","category_ids":["109"]}]},{"canonical_uuid":"4415da7e-367b-4695-83de-4b6f110a3192","nonDupes":"","Tide-Data":[{"uuid":"4415da7e-367b-4695-83de-4b6f110a3192","name":"daintree national park","address":"","locality":"Dagmar","region":"QLD","postcode":"4873","latitude":"-16.301419","longitude":"145.248019","tel":"137468","website":"http:\/\/www.nprsr.qld.gov.au\/parks\/daintree","category_ids":["119"]}]},{"canonical_uuid":"48dfce99-83f7-48bc-b9da-ce38b8ed2f62","nonDupes":"","Tide-Data":[{"uuid":"48dfce99-83f7-48bc-b9da-ce38b8ed2f62","name":"ryan catholic college","address":"59 canterbury rd","locality":"Kirwan","region":"QLD","postcode":"4817","latitude":"-19.315426","longitude":"146.717954","tel":"0747730100","website":"http:\/\/www.ryan.catholic.edu.au\/","category_ids":["29"]}]},{"canonical_uuid":"4b46e1b2-5b6f-4188-a52c-556c78e66a06","nonDupes":"","Tide-Data":[{"uuid":"4b46e1b2-5b6f-4188-a52c-556c78e66a06","name":"billabong sanctuary","address":"bruce hwy","locality":"Townsville City","region":"QLD","postcode":"4810","latitude":"-19.374311","longitude":"146.905978","tel":"0747788344","website":"http:\/\/www.billabongsanctuary.com.au\/contact.php","category_ids":["436"]}]},{"canonical_uuid":"4bebda10-6dd0-42c5-8c44-03d738cfa7b1","nonDupes":"","Tide-Data":[{"uuid":"4bebda10-6dd0-42c5-8c44-03d738cfa7b1","name":"flinders medical centre","address":"flinders dr","locality":"Bedford Park","region":"SA","postcode":"5042","latitude":"-35.02190705807077","longitude":"138.5684719698976","tel":"0882045511","website":"http:\/\/www.flinders.sa.gov.au","category_ids":["74"]}]},{"canonical_uuid":"4c25bcd7-2ca9-4747-9396-442ac48167fa","nonDupes":"","Tide-Data":[{"uuid":"4c25bcd7-2ca9-4747-9396-442ac48167fa","name":"brisbane airport","address":"11 the circuit","locality":"Brisbane","region":"QLD","postcode":"4008","latitude":"-27.398832","longitude":"153.1178","tel":"0734063000","website":"http:\/\/bne.com.au","category_ids":["462"]}]},{"canonical_uuid":"4d09ef6c-8cff-4a61-8251-7796f29c6fb1","nonDupes":"","Tide-Data":[{"uuid":"4d09ef6c-8cff-4a61-8251-7796f29c6fb1","name":"queensland alumina","address":"","locality":"Gladstone","region":"QLD","postcode":"4680","latitude":"-23.867011","longitude":"151.289978","tel":"0749762211","website":"http:\/\/www.qal.com.au","category_ids":["275"]}]},{"canonical_uuid":"4e634480-f0cb-4df3-9605-6d071244e394","nonDupes":"","Tide-Data":[{"uuid":"4e634480-f0cb-4df3-9605-6d071244e394","name":"kalbarri blue ocean villas","address":"22 mortimer st","locality":"Kalbarri","region":"WA","postcode":"6536","latitude":"-27.704228683039002","longitude":"114.1689791596463","tel":"0899372442","website":"http:\/\/www.blueoceanvillas.com.au","category_ids":["432"]}]},{"canonical_uuid":"4ee04740-8302-49a4-a63a-7059c80db505","nonDupes":"","Tide-Data":[{"uuid":"4ee04740-8302-49a4-a63a-7059c80db505","name":"wollongong botanic gardens","address":"murphys ave","locality":"Keiraville","region":"NSW","postcode":"2500","latitude":"-34.411445","longitude":"150.874161","tel":"0242252636","website":"http:\/\/www.wollongong.nsw.gov.au\/botanicgarden\/Pages\/default.aspx","category_ids":["109"]}]},{"canonical_uuid":"4f62dbc8-0f55-4181-9fa6-7176b58446dc","nonDupes":"","Tide-Data":[{"uuid":"4f62dbc8-0f55-4181-9fa6-7176b58446dc","name":"cairns international airport","address":"airport ave","locality":"Cairns","region":"QLD","postcode":"4870","latitude":"-16.876537","longitude":"145.75404","tel":"0740806703","website":"http:\/\/www.cairnsairport.com.au","category_ids":["425"]}]},{"canonical_uuid":"50a09bd8-5b5b-4985-8a62-5804a89ba377","nonDupes":"","Tide-Data":[{"uuid":"50a09bd8-5b5b-4985-8a62-5804a89ba377","name":"nambung national park","address":"200km n of perth","locality":"Nambung","region":"WA","postcode":"6521","latitude":"-30.585754","longitude":"115.165201","tel":"0896527913","website":"http:\/\/parks.dpaw.wa.gov.au\/park\/nambung","category_ids":["119"]}]},{"canonical_uuid":"52154b9f-d521-4f6f-b50f-a76027e67409","nonDupes":"","Tide-Data":[{"uuid":"52154b9f-d521-4f6f-b50f-a76027e67409","name":"the university of queensland","address":"","locality":"","region":"QLD","postcode":"","latitude":"-27.495431","longitude":"153.01203","tel":"0733651111","website":"http:\/\/www.uq.edu.au","category_ids":["29","107"]}]},{"canonical_uuid":"5516062e-83e9-4e0e-8f5e-4902faf06516","nonDupes":"","Tide-Data":[{"uuid":"5516062e-83e9-4e0e-8f5e-4902faf06516","name":"royal botanic gardens melbourne","address":"birdwood ave","locality":"South Yarra","region":"VIC","postcode":"3141","latitude":"-37.830369","longitude":"144.979606","tel":"0392522300","website":"http:\/\/www.rbg.vic.gov.au","category_ids":["109"]}]},{"canonical_uuid":"56dd9090-917d-4123-bc56-9a356123c167","nonDupes":"","Tide-Data":[{"uuid":"56dd9090-917d-4123-bc56-9a356123c167","name":"newcastle airport","address":"1 williamtown dr","locality":"Williamtown","region":"NSW","postcode":"2318","latitude":"-32.804184","longitude":"151.839991","tel":"0249289800","website":"http:\/\/www.newcastleairport.com.au","category_ids":["425"]}]},{"canonical_uuid":"56f5eb78-2477-421e-9029-3d5085531e2b","nonDupes":"","Tide-Data":[{"uuid":"56f5eb78-2477-421e-9029-3d5085531e2b","name":"dandenong ranges national park","address":"","locality":"Sassafras","region":"VIC","postcode":"3787","latitude":"-37.891966","longitude":"145.316379","tel":"131963","website":"http:\/\/parkweb.vic.gov.au\/explore\/parks\/dandenong-ranges-national-park","category_ids":["119"]}]},{"canonical_uuid":"584812e2-a449-4ec0-ac2d-0ad578d70c24","nonDupes":"","Tide-Data":[{"uuid":"584812e2-a449-4ec0-ac2d-0ad578d70c24","name":"castletown shoppingworld","address":"cnr kings rd and woolcock st","locality":"Hyde Park","region":"QLD","postcode":"4812","latitude":"-19.271144","longitude":"146.792626","tel":"0747721699","website":"http:\/\/www.castletown.com.au","category_ids":["169"]}]},{"canonical_uuid":"5d0da12a-d4f1-4bb3-8ca9-67af08ef2ead","nonDupes":"","Tide-Data":[{"uuid":"5d0da12a-d4f1-4bb3-8ca9-67af08ef2ead","name":"westfield garden city","address":"cnr logan & kessels rd","locality":"Upper Mount Gravatt","region":"QLD","postcode":"4122","latitude":"-27.56301930731789","longitude":"153.0827864400314","tel":"0731355450","website":"https:\/\/www.westfield.com.au","category_ids":["169"]}]},{"canonical_uuid":"5d9495dc-18cc-44d2-8cf0-ace0a3095d71","nonDupes":"","Tide-Data":[{"uuid":"5d9495dc-18cc-44d2-8cf0-ace0a3095d71","name":"mimosa rocks national park","address":"tathra bermagui rd","locality":"Tanja","region":"NSW","postcode":"2550","latitude":"-36.671111","longitude":"149.936667","tel":"0244760800","website":"http:\/\/www.nationalparks.nsw.gov.au\/visit-a-park\/parks\/mimosa-rocks-national-park","category_ids":["119"]}]},{"canonical_uuid":"5e0016ab-9c36-4b68-b233-6220e33b9531","nonDupes":"","Tide-Data":[{"uuid":"5e0016ab-9c36-4b68-b233-6220e33b9531","name":"mungo national park","address":"","locality":"Balranald","region":"NSW","postcode":"2715","latitude":"-33.727959","longitude":"143.153444","tel":"0350218900","website":"http:\/\/www.environment.nsw.gov.au\/NationalParks\/parkHome.aspx?id=N0049","category_ids":["119"]}]},{"canonical_uuid":"5e32daea-94ac-4c2d-8423-daf8aacebf43","nonDupes":"","Tide-Data":[{"uuid":"5e32daea-94ac-4c2d-8423-daf8aacebf43","name":"riverview motel","address":"13 butler st","locality":"Deniliquin","region":"NSW","postcode":"2710","latitude":"-35.52028828649583","longitude":"144.95876176353494","tel":"0358812311","website":"http:\/\/www.riverviewmotel.com.au","category_ids":["436"]}]},{"canonical_uuid":"627988e7-b3c8-4a83-b2be-43f0a4ba6c12","nonDupes":"","Tide-Data":[{"uuid":"627988e7-b3c8-4a83-b2be-43f0a4ba6c12","name":"berwick college","address":"manuka rd","locality":"Berwick","region":"VIC","postcode":"3806","latitude":"-38.031877","longitude":"145.365264","tel":"0387681000","website":"http:\/\/www.berwickcollege.vic.edu.au\/","category_ids":["34"]}]},{"canonical_uuid":"63266337-7d15-4161-9285-339caefb39f5","nonDupes":"","Tide-Data":[{"uuid":"63266337-7d15-4161-9285-339caefb39f5","name":"sydney airport","address":"","locality":"Sydney","region":"NSW","postcode":"2020","latitude":"-33.9364165","longitude":"151.166916","tel":"0296679111","website":"http:\/\/www.sydneyairport.com.au","category_ids":["462"]}]},{"canonical_uuid":"633d5925-7923-4df5-ad3d-3b4454a05084","nonDupes":"","Tide-Data":[{"uuid":"633d5925-7923-4df5-ad3d-3b4454a05084","name":"bago bluff nature reserve","address":"","locality":"Bago","region":"NSW","postcode":"2446","latitude":"-31.5276","longitude":"152.632477","tel":"0265885555","website":"http:\/\/www.environment.nsw.gov.au\/NationalParks\/parkHome.aspx?id=N0114","category_ids":["119"]}]},{"canonical_uuid":"65ce927a-bcb8-4da0-8609-a8d677c51172","nonDupes":"","Tide-Data":[{"uuid":"65ce927a-bcb8-4da0-8609-a8d677c51172","name":"university of technology sydney","address":"15 broadway","locality":"Ultimo","region":"NSW","postcode":"2007","latitude":"-33.883898","longitude":"151.201013","tel":"0295142000","website":"http:\/\/www.uts.edu.au","category_ids":["29"]}]},{"canonical_uuid":"66c10cba-0a73-4899-9247-11be2e14233a","nonDupes":"","Tide-Data":[{"uuid":"66c10cba-0a73-4899-9247-11be2e14233a","name":"university of adelaide","address":"","locality":"Adelaide","region":"SA","postcode":"5000","latitude":"-34.92044373752537","longitude":"138.60618757615995","tel":"0883134455","website":"http:\/\/www.adelaide.edu.au","category_ids":["26"]}]},{"canonical_uuid":"675bb431-a2a4-4af2-b006-a2f99a9088d1","nonDupes":"","Tide-Data":[{"uuid":"675bb431-a2a4-4af2-b006-a2f99a9088d1","name":"adelaide central market","address":"44-60 gouger st","locality":"Adelaide","region":"SA","postcode":"5000","latitude":"-34.930244","longitude":"138.596774","tel":"0882037494","website":"http:\/\/www.adelaidecentralmarket.com.au","category_ids":["147"]}]},{"canonical_uuid":"6762470f-269c-47d8-a154-014112d92dbf","nonDupes":"","Tide-Data":[{"uuid":"6762470f-269c-47d8-a154-014112d92dbf","name":"port arthur historic sites visitor centre","address":"arthur hwy","locality":"Port Arthur","region":"TAS","postcode":"7182","latitude":"-43.14566775281558","longitude":"147.85041419136314","tel":"1800659101","website":"http:\/\/www.portarthur.org.au","category_ids":["110"]}]},{"canonical_uuid":"6772339f-c783-4198-9a51-4d11b25d121e","nonDupes":"","Tide-Data":[{"uuid":"6772339f-c783-4198-9a51-4d11b25d121e","name":"canberra airport","address":"21 terminal ave","locality":"Canberra","region":"ACT","postcode":"2609","latitude":"-35.306934","longitude":"149.190634","tel":"0262752222","website":"http:\/\/www.canberraairport.com.au","category_ids":["462"]}]},{"canonical_uuid":"67815005-ac05-4529-94fc-3bdced66496c","nonDupes":"","Tide-Data":[{"uuid":"67815005-ac05-4529-94fc-3bdced66496c","name":"curtin university","address":"kent st","locality":"Perth","region":"WA","postcode":"6102","latitude":"-32.006184","longitude":"115.894432","tel":"0892669266","website":"http:\/\/www.curtin.edu.au","category_ids":["29"]}]},{"canonical_uuid":"69518fb1-25ec-44b2-809f-e8a9ee43200c","nonDupes":"","Tide-Data":[{"uuid":"69518fb1-25ec-44b2-809f-e8a9ee43200c","name":"hunter valley gardens","address":"2090 broke rd","locality":"Pokolbin","region":"NSW","postcode":"2320","latitude":"-32.772463","longitude":"151.297091","tel":"0249984000","website":"http:\/\/www.huntervalleygardens.com.au","category_ids":["109"]}]},{"canonical_uuid":"6a200469-6558-4bfd-aefb-a396fb71ce72","nonDupes":"","Tide-Data":[{"uuid":"6a200469-6558-4bfd-aefb-a396fb71ce72","name":"best western zebra motel","address":"27 grafton st","locality":"Coffs Harbour","region":"NSW","postcode":"2450","latitude":"-30.3001561621746","longitude":"153.11176604177948","tel":"0266521588","website":"http:\/\/www.bestwestern.com.au\/zebra","category_ids":["436"]}]},{"canonical_uuid":"6c412f1a-5894-4a41-bee5-3ed1ed93bd33","nonDupes":"","Tide-Data":[{"uuid":"6c412f1a-5894-4a41-bee5-3ed1ed93bd33","name":"ningaloo marine park","address":"murat rd","locality":"Exmouth","region":"WA","postcode":"6707","latitude":"-22.7053","longitude":"113.6563","tel":"0899493070","website":"http:\/\/www.visitningaloo.com.au\/","category_ids":["371"]}]},{"canonical_uuid":"6d4256f0-87f9-4f7f-895d-060cb8af8178","nonDupes":"","Tide-Data":[{"uuid":"6d4256f0-87f9-4f7f-895d-060cb8af8178","name":"goulburn airport","address":"59 airport rd","locality":"Goulburn","region":"NSW","postcode":"2580","latitude":"-34.807384","longitude":"149.733433","tel":"0403368933","website":"http:\/\/goulburnairport.com","category_ids":["425"]}]},{"canonical_uuid":"6d952b8f-66cc-4238-8e0b-bd982956b7ab","nonDupes":"","Tide-Data":[{"uuid":"6d952b8f-66cc-4238-8e0b-bd982956b7ab","name":"university of sydney","address":"","locality":"Sydney","region":"NSW","postcode":"2006","latitude":"-33.889914","longitude":"151.19056","tel":"0293512222","website":"http:\/\/sydney.edu.au","category_ids":["29"]}]},{"canonical_uuid":"6e06c9c7-33b0-4a0b-8919-9eb498e6f63c","nonDupes":"","Tide-Data":[{"uuid":"6e06c9c7-33b0-4a0b-8919-9eb498e6f63c","name":"merewether high school","address":"130 chatham st","locality":"Broadmeadow","region":"NSW","postcode":"2292","latitude":"-32.92947524944281","longitude":"151.73502344554007","tel":"0249693855","website":"http:\/\/www.merewether-h.schools.nsw.edu.au","category_ids":["34"]}]},{"canonical_uuid":"7108e647-160d-4b3a-8d59-7966db3071c9","nonDupes":"","Tide-Data":[{"uuid":"7108e647-160d-4b3a-8d59-7966db3071c9","name":"hotel grand chancellor hobart","address":"1 davey st","locality":"Hobart","region":"TAS","postcode":"7000","latitude":"-42.880841","longitude":"147.333836","tel":"0362354535","website":"http:\/\/www.grandchancellorhotels.com\/au\/hobart","category_ids":["436"]}]},{"canonical_uuid":"71124ce4-3510-4e8b-b6b4-ed4118ea1fc5","nonDupes":"","Tide-Data":[{"uuid":"71124ce4-3510-4e8b-b6b4-ed4118ea1fc5","name":"loy yang power station","address":"bartons ln","locality":"Traralgon","region":"VIC","postcode":"3844","latitude":"-38.25350791906489","longitude":"146.57467549121185","tel":"0351732000","website":null,"category_ids":["61"]}]},{"canonical_uuid":"71c62338-6064-4d44-b0d4-32c4eac4a3d2","nonDupes":"","Tide-Data":[{"uuid":"71c62338-6064-4d44-b0d4-32c4eac4a3d2","name":"adelaide airport","address":"1 james schofield dr","locality":"Adelaide","region":"SA","postcode":"5950","latitude":"-34.938296","longitude":"138.537383","tel":"0883089211","website":"http:\/\/www.adelaideairport.com.au","category_ids":["425"]}]},{"canonical_uuid":"729c38bc-a9e1-4064-b889-5c055b6c1e58","nonDupes":"","Tide-Data":[{"uuid":"729c38bc-a9e1-4064-b889-5c055b6c1e58","name":"marramarra national park","address":"","locality":"Canoelands","region":"NSW","postcode":"2157","latitude":"-33.5393288","longitude":"151.082073","tel":"0294728949","website":"http:\/\/www.nationalparks.nsw.gov.au\/visit-a-park\/parks\/marramarra-national-park","category_ids":["119"]}]},{"canonical_uuid":"750916fe-1464-43c7-bf57-2e6978501927","nonDupes":"","Tide-Data":[{"uuid":"750916fe-1464-43c7-bf57-2e6978501927","name":"mary river wilderness retreat","address":"arnhem hwy","locality":"","region":"NT","postcode":"0836","latitude":"-12.906446","longitude":"131.651109","tel":"0889788877","website":"http:\/\/www.maryriverretreat.com.au\/","category_ids":["436"]}]},{"canonical_uuid":"76ae11ec-5dbb-4bc2-81d1-0225fd9181b9","nonDupes":"","Tide-Data":[{"uuid":"76ae11ec-5dbb-4bc2-81d1-0225fd9181b9","name":"westfield kotara","address":"cnr park ave & northcott dr","locality":"Kotara","region":"NSW","postcode":"2289","latitude":"-32.94097","longitude":"151.711803","tel":"0240162570","website":"http:\/\/www.westfield.com.au\/kotara","category_ids":["169"]}]},{"canonical_uuid":"783ec9ae-db02-40c1-a38b-851c9a38020c","nonDupes":"","Tide-Data":[{"uuid":"783ec9ae-db02-40c1-a38b-851c9a38020c","name":"museum of contemporary art","address":"140 george st","locality":"The Rocks","region":"NSW","postcode":"2000","latitude":"-33.8596399698839","longitude":"151.20904767735084","tel":"0292452400","website":"http:\/\/www.mca.com.au","category_ids":["311"]}]},{"canonical_uuid":"78466b7c-76a5-42a8-b6b3-69bd0392a02f","nonDupes":"","Tide-Data":[{"uuid":"78466b7c-76a5-42a8-b6b3-69bd0392a02f","name":"australian museum","address":"1 william st","locality":"Sydney","region":"NSW","postcode":"2010","latitude":"-33.87435413561126","longitude":"151.21333624746754","tel":"0293206000","website":"http:\/\/australianmuseum.net.au","category_ids":["311"]}]},{"canonical_uuid":"78617809-177b-465f-8fd8-35478917abf3","nonDupes":"","Tide-Data":[{"uuid":"78617809-177b-465f-8fd8-35478917abf3","name":"robina town centre","address":"robina town centre dr","locality":"","region":"QLD","postcode":"","latitude":"-28.0763","longitude":"153.385402","tel":"0755750481","website":"http:\/\/www.robinatowncentre.com.au","category_ids":["169"]}]},{"canonical_uuid":"7a03fc2a-effe-4f60-a897-ff98edcda4ba","nonDupes":"","Tide-Data":[{"uuid":"7a03fc2a-effe-4f60-a897-ff98edcda4ba","name":"taronga zoo","address":"bradley's head rd","locality":"Mosman","region":"NSW","postcode":"2088","latitude":"-33.843022","longitude":"151.241913","tel":"0299692777","website":"https:\/\/taronga.org.au\/taronga-zoo","category_ids":["371"]}]},{"canonical_uuid":"7c1bc220-5054-4594-bb3b-301063b0f532","nonDupes":"","Tide-Data":[{"uuid":"7c1bc220-5054-4594-bb3b-301063b0f532","name":"emaroo port hughes","address":"8 randolph st","locality":"Port Hughes","region":"SA","postcode":"5558","latitude":"-34.076943","longitude":"137.547568","tel":"0418862260","website":null,"category_ids":["436"]}]},{"canonical_uuid":"7c3526aa-0be9-4bf1-b784-1d3d7a94efc4","nonDupes":"","Tide-Data":[{"uuid":"7c3526aa-0be9-4bf1-b784-1d3d7a94efc4","name":"litchfield national park","address":"litchfield park rd","locality":"Litchfield Park","region":"NT","postcode":"0822","latitude":"-13.041017","longitude":"130.923042","tel":"0889760282","website":"http:\/\/www.litchfieldnationalpark.com","category_ids":["119"]}]},{"canonical_uuid":"7d018b08-a0a5-4a95-ae83-4d19b43c39b6","nonDupes":"","Tide-Data":[{"uuid":"7d018b08-a0a5-4a95-ae83-4d19b43c39b6","name":"snowy mountains airport","address":"1611 kosciuszko rd","locality":"Cooma","region":"NSW","postcode":"2630","latitude":"-36.292813","longitude":"148.970862","tel":"0264525999","website":"http:\/\/www.snowymountainsairport.com.au","category_ids":["425"]}]},{"canonical_uuid":"7f5b43c4-4d23-47cf-99c4-102cf5fb538e","nonDupes":"","Tide-Data":[{"uuid":"7f5b43c4-4d23-47cf-99c4-102cf5fb538e","name":"freycinet national park","address":"coles bay rd","locality":"Coles Bay","region":"TAS","postcode":"7215","latitude":"-42.124455","longitude":"148.297448","tel":"0362567000","website":"http:\/\/www.parks.tas.gov.au\/?base=3363","category_ids":["119"]}]},{"canonical_uuid":"80118c4c-0f86-4d81-99fa-849fd4c9a62b","nonDupes":"","Tide-Data":[{"uuid":"80118c4c-0f86-4d81-99fa-849fd4c9a62b","name":"phillip island grand prix circuit","address":"back beach rd","locality":"Cowes","region":"VIC","postcode":"3922","latitude":"-38.498812","longitude":"145.235181","tel":"0359522710","website":"http:\/\/www.phillipislandcircuit.com.au","category_ids":["406"]}]},{"canonical_uuid":"8226bd6c-7a07-45ba-97f6-2d7ed5e9278f","nonDupes":"","Tide-Data":[{"uuid":"8226bd6c-7a07-45ba-97f6-2d7ed5e9278f","name":"melbourne zoo","address":"elliott ave","locality":"Parkville","region":"VIC","postcode":"3052","latitude":"-37.784179445383096","longitude":"144.95161027096879","tel":"1300966784","website":"http:\/\/www.zoo.org.au","category_ids":["371"]}]},{"canonical_uuid":"83d51438-17e8-4996-b16c-d3f44e1e7caf","nonDupes":"","Tide-Data":[{"uuid":"83d51438-17e8-4996-b16c-d3f44e1e7caf","name":"alma park zoo","address":"alma rd","locality":"Dakabin","region":"QLD","postcode":"4503","latitude":"-27.227493","longitude":"152.988626","tel":"0732046566","website":"http:\/\/www.almaparkzoo.com.au","category_ids":["371"]}]},{"canonical_uuid":"8458b844-f122-4177-a811-9e5b0bea4b65","nonDupes":"","Tide-Data":[{"uuid":"8458b844-f122-4177-a811-9e5b0bea4b65","name":"sydney harbour bridge","address":"","locality":"Sydney","region":"NSW","postcode":"2000","latitude":"-33.854227","longitude":"151.209635","tel":"0282747777","website":"http:\/\/australia.gov.au\/about-australia\/australian-story\/sydney-harbour-bridge","category_ids":["108"]}]},{"canonical_uuid":"847d5045-6f02-4ad0-8d2f-1cf35d7a5ced","nonDupes":"","Tide-Data":[{"uuid":"847d5045-6f02-4ad0-8d2f-1cf35d7a5ced","name":"brampton islands national park","address":"brampton islands national park, queensland","locality":"","region":"QLD","postcode":"4805","latitude":"-20.79427","longitude":"149.285123","tel":"137468","website":"https:\/\/www.npsr.qld.gov.au\/parks\/brampton-islands\/","category_ids":["119"]}]},{"canonical_uuid":"84d8b840-6ad9-4d99-9749-512b46397c08","nonDupes":"","Tide-Data":[{"uuid":"84d8b840-6ad9-4d99-9749-512b46397c08","name":"melbourne airport","address":"departure dr","locality":"Melbourne","region":"VIC","postcode":"3045","latitude":"-37.669714","longitude":"144.848484","tel":"0392971600","website":"http:\/\/www.melbourneairport.com.au","category_ids":["425"]}]},{"canonical_uuid":"858f1d21-2924-4e73-ac13-b9e74c25d8c1","nonDupes":"","Tide-Data":[{"uuid":"858f1d21-2924-4e73-ac13-b9e74c25d8c1","name":"pacific fair","address":"hooker bvd","locality":"Broadbeach","region":"QLD","postcode":"4218","latitude":"-28.036321","longitude":"153.429786","tel":"0755815100","website":"http:\/\/www.pacificfair.com.au","category_ids":["169"]}]},{"canonical_uuid":"88071370-ad8d-4c39-a15d-a19ac97db8f4","nonDupes":"","Tide-Data":[{"uuid":"88071370-ad8d-4c39-a15d-a19ac97db8f4","name":"clarence valley regional airport","address":"2 prince st","locality":"Grafton","region":"NSW","postcode":"2460","latitude":"-29.759570644738673","longitude":"153.02856179646085","tel":"0266430200","website":"http:\/\/www.clarence.nsw.gov.au\/cp_themes\/metro\/page.asp?p=DOC-LTD-41-41-75","category_ids":["425"]}]},{"canonical_uuid":"880b6b7b-2641-434f-a287-64ce5d55c06b","nonDupes":"","Tide-Data":[{"uuid":"880b6b7b-2641-434f-a287-64ce5d55c06b","name":"murdoch university","address":"90 south st","locality":"Murdoch","region":"WA","postcode":"6150","latitude":"-32.068759165148535","longitude":"115.832659117649","tel":"0893606000","website":"http:\/\/www.murdoch.edu.au","category_ids":["29"]}]},{"canonical_uuid":"8c0eded6-1817-4d71-be8f-50c57a840f52","nonDupes":"","Tide-Data":[{"uuid":"8c0eded6-1817-4d71-be8f-50c57a840f52","name":"australian fossil and mineral museum","address":"224 howick st","locality":"Bathurst","region":"NSW","postcode":"2795","latitude":"-33.41693898146175","longitude":"149.58058615166726","tel":"0263315511","website":"http:\/\/www.somervillecollection.com.au","category_ids":["311"]}]},{"canonical_uuid":"8dbe20b4-85c2-4806-a537-b85dbed1d11f","nonDupes":"","Tide-Data":[{"uuid":"8dbe20b4-85c2-4806-a537-b85dbed1d11f","name":"trafalgar high school","address":"84 school rd","locality":"Trafalgar","region":"VIC","postcode":"3824","latitude":"-38.214632","longitude":"146.158311","tel":"0356331733","website":"http:\/\/trafalgarhs.vic.edu.au\/","category_ids":["34"]}]},{"canonical_uuid":"8e30f1a0-6bf3-4574-aacf-9456e622ec81","nonDupes":"","Tide-Data":[{"uuid":"8e30f1a0-6bf3-4574-aacf-9456e622ec81","name":"paronella park","address":"1671 japoonvale rd","locality":"Mena Creek","region":"QLD","postcode":"4871","latitude":"-17.652413","longitude":"145.956416","tel":"0740650000","website":"http:\/\/www.paronellapark.com.au\/about\/brief-history","category_ids":["110","118"]}]},{"canonical_uuid":"8ede7757-f741-4c90-b581-13b69eb8563a","nonDupes":"","Tide-Data":[{"uuid":"8ede7757-f741-4c90-b581-13b69eb8563a","name":"edith cowan university","address":"2 bradford st","locality":"Mount Lawley","region":"WA","postcode":"6050","latitude":"-31.919108","longitude":"115.869062","tel":"0863040000","website":"http:\/\/www.ecu.edu.au","category_ids":["29"]}]},{"canonical_uuid":"916ba9bb-3745-4551-be7b-0036dcad488a","nonDupes":"","Tide-Data":[{"uuid":"916ba9bb-3745-4551-be7b-0036dcad488a","name":"mon repos walking track","address":"141 mon repos rd","locality":"Mon Repos","region":"QLD","postcode":"4670","latitude":"-24.802221","longitude":"152.446718","tel":"0741591652","website":"http:\/\/www.nprsr.qld.gov.au\/parks\/mon-repos\/about.html","category_ids":["118"]}]},{"canonical_uuid":"91b7a879-0001-4c5a-b313-b625fd5df040","nonDupes":"","Tide-Data":[{"uuid":"91b7a879-0001-4c5a-b313-b625fd5df040","name":"lone pine koala sanctuary","address":"708 jesmond rd","locality":"Fig Tree Pocket","region":"QLD","postcode":"4069","latitude":"-27.533638","longitude":"152.96877","tel":"0733781366","website":"http:\/\/www.koala.net","category_ids":["371"]}]},{"canonical_uuid":"97a7b3ec-7a4e-4aed-8bd0-4035f793cdd1","nonDupes":"","Tide-Data":[{"uuid":"97a7b3ec-7a4e-4aed-8bd0-4035f793cdd1","name":"westfield fountain gate","address":"55 overland dr","locality":"Fountain Gate","region":"VIC","postcode":"3805","latitude":"-38.017692275031195","longitude":"145.30396725617385","tel":"0397046666","website":"https:\/\/www.westfield.com.au\/fountaingate\/","category_ids":["169"]}]},{"canonical_uuid":"98ffcc71-eda3-468a-9881-486381e5aa2f","nonDupes":"","Tide-Data":[{"uuid":"98ffcc71-eda3-468a-9881-486381e5aa2f","name":"allianz stadium","address":"driver ave","locality":"Moore Park","region":"NSW","postcode":"2021","latitude":"-33.889131037312","longitude":"151.22541433593693","tel":"0293606601","website":"http:\/\/www.allianzstadium.com.au","category_ids":["406"]}]},{"canonical_uuid":"9956f55a-7145-4564-b6d6-f71a5f63c2dc","nonDupes":"","Tide-Data":[{"uuid":"9956f55a-7145-4564-b6d6-f71a5f63c2dc","name":"glass house mountains national park","address":"","locality":"","region":"QLD","postcode":"4518","latitude":"-26.92638","longitude":"152.940379","tel":"1300130372","website":"http:\/\/nprsr.qld.gov.au\/parks\/glass-house-mountains\/index.html","category_ids":["119"]}]},{"canonical_uuid":"9a70bbd8-480d-4569-ba8b-58a508cadcd9","nonDupes":"","Tide-Data":[{"uuid":"9a70bbd8-480d-4569-ba8b-58a508cadcd9","name":"queen victoria market","address":"cnr of elizabeth & victoria sts","locality":"Melbourne","region":"VIC","postcode":"3000","latitude":"-37.807634019109145","longitude":"144.9568175205437","tel":"0393205822","website":"http:\/\/www.qvm.com.au","category_ids":["169"]}]},{"canonical_uuid":"9b114ba5-6347-49f3-85f8-961c22e32749","nonDupes":"","Tide-Data":[{"uuid":"9b114ba5-6347-49f3-85f8-961c22e32749","name":"downlands college","address":"72 ruthven st","locality":"Toowoomba","region":"QLD","postcode":"4350","latitude":"-27.535379","longitude":"151.956303","tel":"0746909500","website":"http:\/\/www.downlands.qld.edu.au","category_ids":["29"]}]},{"canonical_uuid":"9c66cb82-60e6-4931-82a0-9d330670c34f","nonDupes":"","Tide-Data":[{"uuid":"9c66cb82-60e6-4931-82a0-9d330670c34f","name":"port macquarie airport","address":"99 boundary st","locality":"Port Macquarie","region":"NSW","postcode":"2444","latitude":"-31.43123516698623","longitude":"152.86724679499076","tel":"0265818111","website":"http:\/\/portmacquarieairport.com.au","category_ids":["425"]}]},{"canonical_uuid":"9de2ee9a-0745-4ab9-8ddd-97f69e3d016f","nonDupes":"","Tide-Data":[{"uuid":"9de2ee9a-0745-4ab9-8ddd-97f69e3d016f","name":"fremantle arts centre","address":"1 finnerty st","locality":"Fremantle","region":"WA","postcode":"6160","latitude":"-32.04770382567404","longitude":"115.75411907986131","tel":"0894329555","website":"http:\/\/www.fac.org.au","category_ids":["310"]}]},{"canonical_uuid":"9e00bf6b-48c8-4be0-8925-7c7fcca7a894","nonDupes":"","Tide-Data":[{"uuid":"9e00bf6b-48c8-4be0-8925-7c7fcca7a894","name":"australian catholic university - brisbane campus","address":"1100 nudgee rd","locality":"Banyo","region":"QLD","postcode":"4014","latitude":"-27.378631","longitude":"153.08909","tel":"0736237100","website":"http:\/\/www.acu.edu.au","category_ids":["29"]}]},{"canonical_uuid":"9f00bf3b-833b-4118-962c-ef2bf3679cc9","nonDupes":"","Tide-Data":[{"uuid":"9f00bf3b-833b-4118-962c-ef2bf3679cc9","name":"eastern riverina chronicle","address":"19 trail st","locality":"Wagga Wagga","region":"NSW","postcode":"2650","latitude":"-35.518165","longitude":"147.03409","tel":"0269383300","website":"http:\/\/www.easternriverinachronicle.com.au","category_ids":["215"]}]},{"canonical_uuid":"a11cf29e-5d3c-45d0-afa5-132489d26539","nonDupes":"","Tide-Data":[{"uuid":"a11cf29e-5d3c-45d0-afa5-132489d26539","name":"mount druitt hospital","address":"75 railway st","locality":"Mount Druitt","region":"NSW","postcode":"2770","latitude":"-33.7647248548429","longitude":"150.8296415411276","tel":"0298811555","website":"http:\/\/www.wsahs.nsw.gov.au\/mtdruitt\/index.htm","category_ids":["74"]}]},{"canonical_uuid":"a3a6633e-d18b-4ab1-a651-3df2571c57f3","nonDupes":"","Tide-Data":[{"uuid":"a3a6633e-d18b-4ab1-a651-3df2571c57f3","name":"sea life sydney aquarium","address":"1-5 wheat rd","locality":"Sydney","region":"NSW","postcode":"2000","latitude":"-33.869576553827514","longitude":"151.2025848095889","tel":"1800199657","website":"http:\/\/www.sydneyaquarium.com.au","category_ids":["371"]}]},{"canonical_uuid":"a4e37602-eabc-44f6-9da9-0df970987bc9","nonDupes":"","Tide-Data":[{"uuid":"a4e37602-eabc-44f6-9da9-0df970987bc9","name":"ibis styles kalgoorlie hotel","address":"45 egan st","locality":"Kalgoorlie","region":"WA","postcode":"6430","latitude":"-30.746292977873424","longitude":"121.47656792855464","tel":"0890805900","website":"http:\/\/www.accorhotels.com\/accorhotels\/lien_externe.svlt?goto=fiche_hotel&code_hotel=1884","category_ids":["436"]}]},{"canonical_uuid":"a55111a7-b888-43b5-93b3-1becff689253","nonDupes":"","Tide-Data":[{"uuid":"a55111a7-b888-43b5-93b3-1becff689253","name":"perth airport","address":"2 george wiencke dr","locality":"Perth","region":"WA","postcode":"6105","latitude":"-31.9322786","longitude":"115.9549494","tel":"0894788888","website":"http:\/\/www.perthairport.com.au","category_ids":["462"]}]},{"canonical_uuid":"a5b351ec-bb73-4474-84ac-bb9297f317d9","nonDupes":"","Tide-Data":[{"uuid":"a5b351ec-bb73-4474-84ac-bb9297f317d9","name":"fraser's","address":"60 fraser ave","locality":"West Perth","region":"WA","postcode":"6005","latitude":"-31.959598","longitude":"115.843538","tel":"0894820103","website":"http:\/\/www.frasersrestaurant.com.au","category_ids":["347"]}]},{"canonical_uuid":"a7a4e9a6-7686-4953-95b1-c5d8de0a8e29","nonDupes":"","Tide-Data":[{"uuid":"a7a4e9a6-7686-4953-95b1-c5d8de0a8e29","name":"sea world resort","address":"sea world dr","locality":"Main Beach","region":"QLD","postcode":"4217","latitude":"-27.955899182060588","longitude":"153.4259077379105","tel":"133386","website":"http:\/\/www.seaworldresort.com.au","category_ids":["438"]}]},{"canonical_uuid":"aa04a588-9fb4-4b0b-949b-d796c0d62ade","nonDupes":"","Tide-Data":[{"uuid":"aa04a588-9fb4-4b0b-949b-d796c0d62ade","name":"rose seidler house","address":"71 clissold rd","locality":"Wahroonga","region":"NSW","postcode":"2076","latitude":"-33.709645002089474","longitude":"151.14216414333632","tel":"0299898020","website":"https:\/\/sydneylivingmuseums.com.au\/rose-seidler-house","category_ids":["311"]}]},{"canonical_uuid":"abf73698-285a-4ae0-9f70-2c553c66f01b","nonDupes":"","Tide-Data":[{"uuid":"abf73698-285a-4ae0-9f70-2c553c66f01b","name":"carey baptist grammar school","address":"349 barkers rd","locality":"Kew","region":"VIC","postcode":"3101","latitude":"-37.81431905562639","longitude":"145.04819117518812","tel":"0398161222","website":"http:\/\/www.carey.com.au","category_ids":["34"]}]},{"canonical_uuid":"ac0f7607-bfe5-478b-9609-d3afaf4feb72","nonDupes":"","Tide-Data":[{"uuid":"ac0f7607-bfe5-478b-9609-d3afaf4feb72","name":"macquarie university","address":"balaclava rd","locality":"Sydney","region":"NSW","postcode":"2109","latitude":"-33.77372939547292","longitude":"151.11296290597335","tel":"0298507111","website":"http:\/\/www.mq.edu.au","category_ids":["29"]}]},{"canonical_uuid":"aeb4db4f-8a69-4e8a-927d-9812fdf382e0","nonDupes":"","Tide-Data":[{"uuid":"aeb4db4f-8a69-4e8a-927d-9812fdf382e0","name":"mildura inlander resort","address":"373 deakin ave","locality":"Mildura","region":"VIC","postcode":"3500","latitude":"-34.20140507875445","longitude":"142.1420165912684","tel":"0350233823","website":"http:\/\/www.mildurainlanderresort.com.au","category_ids":["438"]}]},{"canonical_uuid":"af27adf8-12ee-47b8-b63d-b721b46d0150","nonDupes":"","Tide-Data":[{"uuid":"af27adf8-12ee-47b8-b63d-b721b46d0150","name":"calder park raceway","address":"","locality":"Calder Park","region":"VIC","postcode":"3037","latitude":"-37.66922","longitude":"144.756388","tel":"0435350915","website":"http:\/\/www.calderpark.com.au","category_ids":["396"]}]},{"canonical_uuid":"afad69a7-e1a5-4a73-9085-fdfbd6186e41","nonDupes":"","Tide-Data":[{"uuid":"afad69a7-e1a5-4a73-9085-fdfbd6186e41","name":"brauer college","address":"37 caramut rd","locality":"Warrnambool","region":"VIC","postcode":"3280","latitude":"-38.358984","longitude":"142.458639","tel":"0355603888","website":"http:\/\/www.brauer.vic.edu.au","category_ids":["26"]}]},{"canonical_uuid":"afb6316d-9573-4774-9940-fdf47ed995bd","nonDupes":"","Tide-Data":[{"uuid":"afb6316d-9573-4774-9940-fdf47ed995bd","name":"barrington tops national park","address":"","locality":"Gloucester","region":"NSW","postcode":"2422","latitude":"-32.06706","longitude":"151.663156","tel":"0265385300","website":"http:\/\/www.nationalparks.nsw.gov.au\/visit-a-park\/parks\/barrington-tops-national-park","category_ids":["119"]}]},{"canonical_uuid":"b37ddf51-c00b-4768-bad3-5aebdff3a2dc","nonDupes":"","Tide-Data":[{"uuid":"b37ddf51-c00b-4768-bad3-5aebdff3a2dc","name":"the rocks market","address":"66 harrington st","locality":"The Rocks","region":"NSW","postcode":"2000","latitude":"-33.857772","longitude":"151.209002","tel":"0292408500","website":"http:\/\/www.therocks.com","category_ids":["154"]}]},{"canonical_uuid":"b42ebe85-fa5d-4b73-b16f-8dedf4f057cc","nonDupes":"","Tide-Data":[{"uuid":"b42ebe85-fa5d-4b73-b16f-8dedf4f057cc","name":"university of the sunshine coast","address":"90 sippy downs dr","locality":"Sippy Downs","region":"QLD","postcode":"4556","latitude":"-26.717237","longitude":"153.062328","tel":"0754301234","website":"http:\/\/www.usc.edu.au","category_ids":["29"]}]},{"canonical_uuid":"b4d1dcbc-942c-4c62-b9a0-fc60d82321f6","nonDupes":"","Tide-Data":[{"uuid":"b4d1dcbc-942c-4c62-b9a0-fc60d82321f6","name":"royal botanic gardens","address":"cranbourne gardens, enter via cnr ballarto rd and botanic dr","locality":"Cranbourne","region":"VIC","postcode":"3977","latitude":"-38.128412","longitude":"145.270639","tel":"0359902200","website":"http:\/\/www.rbg.vic.gov.au","category_ids":["109"]}]},{"canonical_uuid":"b6ac3ca1-0a78-489d-933d-21d539302b4f","nonDupes":"","Tide-Data":[{"uuid":"b6ac3ca1-0a78-489d-933d-21d539302b4f","name":"auburn hospital","address":"hargrave rd","locality":"Auburn","region":"NSW","postcode":"2144","latitude":"-33.86025150733095","longitude":"151.0331204259607","tel":"0287593000","website":"http:\/\/www.wsahs.nsw.gov.au\/auburn\/index.htm","category_ids":["74"]}]},{"canonical_uuid":"b7b7666f-b7e4-4d24-80a7-41271cedbe5f","nonDupes":"","Tide-Data":[{"uuid":"b7b7666f-b7e4-4d24-80a7-41271cedbe5f","name":"ku-ring-gai chase national park","address":"bobbin head rd","locality":"","region":"NSW","postcode":"","latitude":"-33.621874","longitude":"151.245131","tel":"0294728949","website":"http:\/\/www.nationalparks.nsw.gov.au\/visit-a-park\/parks\/kuringgai-chase-national-park","category_ids":["119"]}]},{"canonical_uuid":"b9b63c5d-a514-4d22-8144-7781c0baa03d","nonDupes":"","Tide-Data":[{"uuid":"b9b63c5d-a514-4d22-8144-7781c0baa03d","name":"all saints' college","address":"70 eglinton rd","locality":"Bathurst","region":"NSW","postcode":"2795","latitude":"-33.396028","longitude":"149.562736","tel":"0263313911","website":"http:\/\/www.saints.nsw.edu.au","category_ids":["34"]}]},{"canonical_uuid":"bdbd8976-c9cc-4c1c-abbb-6e30cdbc26f4","nonDupes":"","Tide-Data":[{"uuid":"bdbd8976-c9cc-4c1c-abbb-6e30cdbc26f4","name":"foreshore backpackers","address":"172 marine tce","locality":"Geraldton","region":"WA","postcode":"6530","latitude":"-28.7744489668355","longitude":"114.60785448203575","tel":"0899213275","website":"http:\/\/foreshorebackpackers.com.au","category_ids":["438"]}]},{"canonical_uuid":"be09a2f8-10ac-4a27-b8db-762d7471e918","nonDupes":"","Tide-Data":[{"uuid":"be09a2f8-10ac-4a27-b8db-762d7471e918","name":"sarina state school","address":"44-50 broad st","locality":"Sarina","region":"QLD","postcode":"4737","latitude":"-21.4222600849551","longitude":"149.21763694637494","tel":"0749648888","website":"http:\/\/sarinass.eq.edu.au","category_ids":["26"]}]},{"canonical_uuid":"c277caf8-9860-4d7d-a2d4-5ee3aae9d262","nonDupes":"","Tide-Data":[{"uuid":"c277caf8-9860-4d7d-a2d4-5ee3aae9d262","name":"win sports & entertainment centres","address":"cnr crown st","locality":"Wollongong","region":"NSW","postcode":"2500","latitude":"-34.426372","longitude":"150.902268","tel":"0242202800","website":"http:\/\/www.wec.org.au","category_ids":["406"]}]},{"canonical_uuid":"c4fb60f8-a10b-4833-b74a-608406028ca7","nonDupes":"","Tide-Data":[{"uuid":"c4fb60f8-a10b-4833-b74a-608406028ca7","name":"dubbo rsl club motel","address":"173 brisbane st","locality":"Dubbo","region":"NSW","postcode":"2830","latitude":"-32.24962265414791","longitude":"148.60307055165356","tel":"0268849099","website":"http:\/\/dubborsl.com.au","category_ids":["436"]}]},{"canonical_uuid":"c95e56c4-3852-4de0-8aff-fef40c715626","nonDupes":"","Tide-Data":[{"uuid":"c95e56c4-3852-4de0-8aff-fef40c715626","name":"mid valley shopping centre","address":"cnr of centre valley rd and princes dr","locality":"Morwell","region":"VIC","postcode":"3840","latitude":"-38.236225","longitude":"146.430502","tel":"0351337022","website":"http:\/\/www.midvalleyshoppingcentre.com.au","category_ids":["169"]}]},{"canonical_uuid":"c9d8a3c4-7b03-4fda-9539-01811e18e568","nonDupes":"","Tide-Data":[{"uuid":"c9d8a3c4-7b03-4fda-9539-01811e18e568","name":"westfield southland","address":"1239 nepean hwy","locality":"Cheltenham","region":"VIC","postcode":"3192","latitude":"-37.95851293201488","longitude":"145.05376415851848","tel":"0395825600","website":"http:\/\/www.westfield.com.au\/southland\/","category_ids":["169"]}]},{"canonical_uuid":"c9f03af8-9a40-4ce7-b7c1-b506f01c9f1b","nonDupes":"","Tide-Data":[{"uuid":"c9f03af8-9a40-4ce7-b7c1-b506f01c9f1b","name":"twelve apostles motel & country retreat","address":"314 booringa rd","locality":"Princetown","region":"VIC","postcode":"3269","latitude":"-38.634878","longitude":"143.110596","tel":"0355988277","website":"http:\/\/www.twelveapostles.com.au","category_ids":["436"]}]},{"canonical_uuid":"cd05cd19-6dc4-45b9-86b0-2e19bd63e278","nonDupes":"","Tide-Data":[{"uuid":"cd05cd19-6dc4-45b9-86b0-2e19bd63e278","name":"griffith university","address":"170 kessels rd","locality":"Nathan","region":"QLD","postcode":"4111","latitude":"-27.552359","longitude":"153.053627","tel":"0737356425","website":"http:\/\/www.griffith.edu.au","category_ids":["26","29"]}]},{"canonical_uuid":"d0942a7e-d3c1-4204-875e-4704a6b7952e","nonDupes":"","Tide-Data":[{"uuid":"d0942a7e-d3c1-4204-875e-4704a6b7952e","name":"cradle mountain-lake saint clair national park","address":"","locality":"Cradle Mountain","region":"TAS","postcode":"7306","latitude":"-41.833333","longitude":"146.0","tel":"0364921110","website":"http:\/\/www.parks.tas.gov.au\/indeX.aspX?base=3297","category_ids":["119"]}]},{"canonical_uuid":"d21cf29a-07e4-431b-9ecd-042944a9befa","nonDupes":"","Tide-Data":[{"uuid":"d21cf29a-07e4-431b-9ecd-042944a9befa","name":"warner bros movie world","address":"pacific motorway","locality":"Oxenford","region":"QLD","postcode":"4210","latitude":"-27.906890365735716","longitude":"153.31314009091997","tel":"133386","website":"http:\/\/movieworld.com.au","category_ids":["319"]}]},{"canonical_uuid":"d42809d3-00c5-487d-b586-ffb95ff36fc9","nonDupes":"","Tide-Data":[{"uuid":"d42809d3-00c5-487d-b586-ffb95ff36fc9","name":"the aalberg chalet","address":"8 kirwan cl","locality":"Jindabyne","region":"NSW","postcode":"2627","latitude":"-36.41806854631992","longitude":"148.61318452239416","tel":"0264562647","website":"http:\/\/www.aalberg.com.au","category_ids":["436"]}]},{"canonical_uuid":"d45c9b29-e9c1-4a5f-a911-3196eb2aacb8","nonDupes":"","Tide-Data":[{"uuid":"d45c9b29-e9c1-4a5f-a911-3196eb2aacb8","name":"undara experience","address":"savannah way","locality":"Mount Surprise","region":"QLD","postcode":"4871","latitude":"-18.201083","longitude":"144.57233","tel":"0740971900","website":"http:\/\/undara.com.au","category_ids":["118"]}]},{"canonical_uuid":"d5a8dd0f-37f6-4c42-83e4-e60c2f5516ca","nonDupes":"","Tide-Data":[{"uuid":"d5a8dd0f-37f6-4c42-83e4-e60c2f5516ca","name":"wave rock","address":"wave rock rd","locality":"Hyden","region":"WA","postcode":"6359","latitude":"-32.44183325960981","longitude":"118.89700507093677","tel":"0898805022","website":"http:\/\/www.waverock.com.au","category_ids":["114"]}]},{"canonical_uuid":"d68efd3e-273a-4589-991b-3cd328f54ddd","nonDupes":"","Tide-Data":[{"uuid":"d68efd3e-273a-4589-991b-3cd328f54ddd","name":"norman lindsay gallery and museum","address":"14 norman lindsay cres","locality":"Faulconbridge","region":"NSW","postcode":"2776","latitude":"-33.6809626","longitude":"150.5617862","tel":"0247511067","website":"http:\/\/www.normanlindsay.com.au","category_ids":["310"]}]},{"canonical_uuid":"d72e144d-f918-4b71-ac0f-4f79dc15a69d","nonDupes":"","Tide-Data":[{"uuid":"d72e144d-f918-4b71-ac0f-4f79dc15a69d","name":"bundjalung national park","address":"49 victoria st","locality":"Grafton","region":"NSW","postcode":"2460","latitude":"-29.23433","longitude":"153.321084","tel":"0266411500","website":"http:\/\/www.environment.nsw.gov.au\/NationalParks\/parkHome.aspx?id=N0041","category_ids":["119"]}]},{"canonical_uuid":"d8284a44-599a-43e7-b9af-43c34d8cd665","nonDupes":"","Tide-Data":[{"uuid":"d8284a44-599a-43e7-b9af-43c34d8cd665","name":"melbourne & olympic parks","address":"olympic bvd","locality":"Melbourne","region":"VIC","postcode":"3001","latitude":"-37.8207","longitude":"144.97923","tel":"0392861600","website":"http:\/\/www.mopt.com.au","category_ids":["406"]}]},{"canonical_uuid":"dc265185-4abc-452a-9ded-15a1dcd81f6b","nonDupes":"","Tide-Data":[{"uuid":"dc265185-4abc-452a-9ded-15a1dcd81f6b","name":"seaspray beach holiday park","address":"79-81 church st","locality":"Dongara","region":"WA","postcode":"6525","latitude":"-29.253275789201503","longitude":"114.92125257405675","tel":"0899271165","website":"http:\/\/www.seaspraybeachholidaypark.com.au","category_ids":["438"]}]},{"canonical_uuid":"ddf11005-e4e0-4314-9a21-2eda80a6ca83","nonDupes":"","Tide-Data":[{"uuid":"ddf11005-e4e0-4314-9a21-2eda80a6ca83","name":"australian botanic garden","address":"narellan rd","locality":"Mount Annan","region":"NSW","postcode":"2567","latitude":"-34.069798540702436","longitude":"150.76716878300965","tel":"0246347900","website":"http:\/\/www.australianbotanicgarden.com.au\/","category_ids":["109"]}]},{"canonical_uuid":"de96bd1f-b2b8-4181-bb51-f295df8da23e","nonDupes":"","Tide-Data":[{"uuid":"de96bd1f-b2b8-4181-bb51-f295df8da23e","name":"ian potter centre","address":"federation square","locality":"Melbourne","region":"VIC","postcode":"3000","latitude":"-37.81758223310105","longitude":"144.9697829856326","tel":"0386202222","website":"http:\/\/www.ngv.vic.gov.au","category_ids":["311"]}]},{"canonical_uuid":"df24b978-5173-4e57-a5e8-ff3447db5c0d","nonDupes":"","Tide-Data":[{"uuid":"df24b978-5173-4e57-a5e8-ff3447db5c0d","name":"etihad stadium","address":"740 bourke st","locality":"Docklands","region":"VIC","postcode":"3008","latitude":"-37.816251","longitude":"144.948106","tel":"0386257700","website":"http:\/\/www.etihadstadium.com.au","category_ids":["406"]}]},{"canonical_uuid":"e1ab6b53-2f08-481e-b3b4-5a7f505fff9c","nonDupes":"","Tide-Data":[{"uuid":"e1ab6b53-2f08-481e-b3b4-5a7f505fff9c","name":"austin hospital","address":"145 studley rd","locality":"Heidelberg","region":"VIC","postcode":"3084","latitude":"-37.757549","longitude":"145.059545","tel":"0394965000","website":"http:\/\/www.austin.org.au","category_ids":["74"]}]},{"canonical_uuid":"e23e179c-52b9-4fbb-841c-cc116812808b","nonDupes":"","Tide-Data":[{"uuid":"e23e179c-52b9-4fbb-841c-cc116812808b","name":"heide museum of modern art","address":"7 templestowe rd","locality":"Bulleen","region":"VIC","postcode":"3105","latitude":"-37.758646","longitude":"145.084864","tel":"0398501500","website":"http:\/\/www.heide.com.au","category_ids":["311"]}]},{"canonical_uuid":"e5028706-9ae3-4fb1-a9e9-9332e653da72","nonDupes":"","Tide-Data":[{"uuid":"e5028706-9ae3-4fb1-a9e9-9332e653da72","name":"pirtek stadium","address":"o'connell st","locality":"Parramatta","region":"NSW","postcode":"2150","latitude":"-33.80809263280335","longitude":"150.9996429183157","tel":"0296835755","website":"http:\/\/www.parramattastadium.com.au","category_ids":["406"]}]},{"canonical_uuid":"e6e6c842-e100-471d-a36a-0dfde2ddd4c5","nonDupes":"","Tide-Data":[{"uuid":"e6e6c842-e100-471d-a36a-0dfde2ddd4c5","name":"yarra valley visitor information centre","address":"harker st","locality":"Healesville","region":"VIC","postcode":"3777","latitude":"-37.656398","longitude":"145.510439","tel":"0359622600","website":"http:\/\/www.visityarravalley.com.au","category_ids":["439"]}]},{"canonical_uuid":"e82c32fd-7ad6-44fc-a87b-883dd4f9340a","nonDupes":"","Tide-Data":[{"uuid":"e82c32fd-7ad6-44fc-a87b-883dd4f9340a","name":"stockland shellharbour shopping centre","address":"211 lake entrance rd","locality":"Shellharbour","region":"NSW","postcode":"2529","latitude":"-34.564230693301425","longitude":"150.8396632910932","tel":"0242968266","website":"http:\/\/www.stockland.com.au","category_ids":["169"]}]},{"canonical_uuid":"ea30fc34-ea7d-430b-a141-d726f68c334d","nonDupes":"","Tide-Data":[{"uuid":"ea30fc34-ea7d-430b-a141-d726f68c334d","name":"coorong national park","address":"","locality":"Coorong","region":"SA","postcode":"5264","latitude":"-35.931317","longitude":"139.454956","tel":"0885751200","website":"https:\/\/www.environment.sa.gov.au\/parks\/find-a-park\/Browse_by_region\/Limestone_Coast\/coorong-national-park","category_ids":["119"]}]},{"canonical_uuid":"eaf09522-fa51-4d64-b4c5-f9fbf4b961dc","nonDupes":"","Tide-Data":[{"uuid":"eaf09522-fa51-4d64-b4c5-f9fbf4b961dc","name":"westfield parramatta","address":"159-175 church st","locality":"Parramatta","region":"NSW","postcode":"2150","latitude":"-33.81759602241716","longitude":"151.00154402535497","tel":"0298913929","website":"http:\/\/www.westfield.com.au\/parramatta","category_ids":["169"]}]},{"canonical_uuid":"eb657d29-d865-419d-93d7-96ea6f1bd72b","nonDupes":"","Tide-Data":[{"uuid":"eb657d29-d865-419d-93d7-96ea6f1bd72b","name":"the aquarium of western australia","address":"91 southside dr","locality":"Hillarys","region":"WA","postcode":"6025","latitude":"-31.826747014498363","longitude":"115.73790368446222","tel":"0894477500","website":"http:\/\/www.aqwa.com.au","category_ids":["371"]}]},{"canonical_uuid":"ebddefc7-7266-4fa0-9be1-3c9918e738a7","nonDupes":"","Tide-Data":[{"uuid":"ebddefc7-7266-4fa0-9be1-3c9918e738a7","name":"nitmiluk national park","address":"gorge rd","locality":"Nitmiluk","region":"NT","postcode":"0852","latitude":"-14.312222","longitude":"132.423056","tel":"0889721886","website":"http:\/\/www.parksandwildlife.nt.gov.au\/parks\/find\/nitmiluk#.UvPa6XW9hQs","category_ids":["112"]}]},{"canonical_uuid":"ef5ebed0-4931-4f6b-ae4f-5d6235276508","nonDupes":"","Tide-Data":[{"uuid":"ef5ebed0-4931-4f6b-ae4f-5d6235276508","name":"quality inn railway","address":"51 forrest st","locality":"Kalgoorlie","region":"WA","postcode":"6430","latitude":"-30.74626110835901","longitude":"121.4681203558879","tel":"0890880000","website":"http:\/\/www.railwaymotel.com.au","category_ids":["436"]}]},{"canonical_uuid":"f0f8406d-81e0-462f-9513-f10eb6a7a77b","nonDupes":"","Tide-Data":[{"uuid":"f0f8406d-81e0-462f-9513-f10eb6a7a77b","name":"colonial inn motel","address":"519 armidale rd","locality":"Tamworth","region":"NSW","postcode":"2340","latitude":"-31.108926017773705","longitude":"150.95443812620638","tel":"0267661866","website":"http:\/\/www.colonialinntamworth.com.au","category_ids":["436"]}]},{"canonical_uuid":"f11f1403-d622-4f67-8f9a-a9481eb6d899","nonDupes":"","Tide-Data":[{"uuid":"f11f1403-d622-4f67-8f9a-a9481eb6d899","name":"the wesley hospital","address":"451 coronation dr","locality":"Auchenflower","region":"QLD","postcode":"4066","latitude":"-27.477359","longitude":"152.998294","tel":"0732327000","website":"http:\/\/wesley.com.au\/","category_ids":["74"]}]},{"canonical_uuid":"f17f1279-2b2b-43d8-9c86-2ef87b403bb8","nonDupes":"","Tide-Data":[{"uuid":"f17f1279-2b2b-43d8-9c86-2ef87b403bb8","name":"beechworth carriage motor inn","address":"44 camp st","locality":"Beechworth","region":"VIC","postcode":"3747","latitude":"-36.35766250654492","longitude":"146.68565831422464","tel":"0357281830","website":"http:\/\/www.beechworthcarriagemotorinn.com.au","category_ids":["436"]}]},{"canonical_uuid":"f1b1a6f6-24ab-46fa-8d3b-18078c6296ef","nonDupes":"","Tide-Data":[{"uuid":"f1b1a6f6-24ab-46fa-8d3b-18078c6296ef","name":"cape york peninsula fishing","address":"15 tumema st","locality":"Seisia","region":"QLD","postcode":"4876","latitude":"-10.850897","longitude":"142.368603","tel":"0740693919","website":"http:\/\/www.capeyorkpeninsulafishing.com.au","category_ids":["391","439"]}]},{"canonical_uuid":"f1ec0146-09e8-47e6-b449-4631957c29a4","nonDupes":"","Tide-Data":[{"uuid":"f1ec0146-09e8-47e6-b449-4631957c29a4","name":"kakadu national park","address":"kakadu hwy","locality":"Jabiru","region":"NT","postcode":"0886","latitude":"-13.092293","longitude":"132.393766","tel":"0889381120","website":"https:\/\/parksaustralia.gov.au\/kakadu\/","category_ids":["119"]}]},{"canonical_uuid":"f23e4b9a-7f7e-450d-9e63-21631e7db55d","nonDupes":"","Tide-Data":[{"uuid":"f23e4b9a-7f7e-450d-9e63-21631e7db55d","name":"prince alfred college","address":"23 dequetteville tce","locality":"Kent Town","region":"SA","postcode":"5067","latitude":"-34.92266010465341","longitude":"138.61898586583777","tel":"0883341200","website":"http:\/\/www.pac.edu.au","category_ids":["34"]}]},{"canonical_uuid":"f6674c89-481f-48f9-877a-4a40d3b12e49","nonDupes":"","Tide-Data":[{"uuid":"f6674c89-481f-48f9-877a-4a40d3b12e49","name":"abbotsford convent","address":"1 st heliers st","locality":"Abbotsford","region":"VIC","postcode":"3067","latitude":"-37.802181","longitude":"145.003771","tel":"0394153600","website":"http:\/\/abbotsfordconvent.com.au","category_ids":["53","465"]}]},{"canonical_uuid":"f76ab9e5-0e29-4224-af45-e046b5c13601","nonDupes":"","Tide-Data":[{"uuid":"f76ab9e5-0e29-4224-af45-e046b5c13601","name":"matthew flinders anglican college","address":"47 stringybark rd","locality":"Buderim","region":"QLD","postcode":"4556","latitude":"-26.69783618143459","longitude":"153.05966522402153","tel":"0754773200","website":"http:\/\/www.mfac.edu.au","category_ids":["26"]}]},{"canonical_uuid":"fffa9ab8-fe54-4d42-b58f-338fd3d8c4dc","nonDupes":"","Tide-Data":[{"uuid":"fffa9ab8-fe54-4d42-b58f-338fd3d8c4dc","name":"australian national university","address":"","locality":"Canberra","region":"ACT","postcode":"0200","latitude":"-35.28458","longitude":"149.11713","tel":"0261255111","website":"http:\/\/www.anu.edu.au","category_ids":["26"]}]}]