[{"canonical_uuid":"00874d05-4481-49f4-ae0a-79b8dd042d40","nonDupes":"","Tide-Data":[{"uuid":"00874d05-4481-49f4-ae0a-79b8dd042d40","name":"aeroporto di trapani birgi vincenzo florio","address":"contrada spagnola","locality":"Trapani","region":"Trapani","postcode":"91100","latitude":"37.911459","longitude":"12.490879","tel":"0923610111","website":"http:\/\/www.airgest.it\/","category_ids":["425"]}]},{"canonical_uuid":"0122d99a-374e-4a28-b27f-e65d520d5eea","nonDupes":"","Tide-Data":[{"uuid":"0122d99a-374e-4a28-b27f-e65d520d5eea","name":"aeroporto internazionale dell'umbria","address":"via dell'aeroporto","locality":"","region":"Perugia","postcode":"06134","latitude":"43.094671","longitude":"12.503248","tel":"075592141","website":"http:\/\/www.airport.umbria.it","category_ids":["462"]}]},{"canonical_uuid":"02dc7dd2-cbaf-4ad5-9fbc-cfc66a08e547","nonDupes":"","Tide-Data":[{"uuid":"02dc7dd2-cbaf-4ad5-9fbc-cfc66a08e547","name":"domus aurea","address":"via della domus aurea 1","locality":"Roma","region":"Roma","postcode":"00184","latitude":"41.891687161551","longitude":"12.495422190474732","tel":"","website":null,"category_ids":["110"]}]},{"canonical_uuid":"0372b88a-9ff8-4b79-9f09-a7086d531028","nonDupes":"","Tide-Data":[{"uuid":"0372b88a-9ff8-4b79-9f09-a7086d531028","name":"politecnico di torino","address":"corso duca degli abruzzi 24","locality":"Torino","region":"Torino","postcode":"10129","latitude":"45.062958","longitude":"7.660732","tel":"011090102","website":"http:\/\/www.polito.it","category_ids":["29"]}]},{"canonical_uuid":"04214252-0429-4634-8b92-dcbd6ecd1fd1","nonDupes":"","Tide-Data":[{"uuid":"04214252-0429-4634-8b92-dcbd6ecd1fd1","name":"aeroporto di palermo falcone e borsellino","address":"localit\u00e0 punta raisi","locality":"Cinisi","region":"Palermo","postcode":"90145","latitude":"38.1824","longitude":"13.100582","tel":"800541880","website":"http:\/\/www.gesap.it\/","category_ids":["425"]}]},{"canonical_uuid":"046ae1a7-9b4b-4df6-adb6-88dd1deeb474","nonDupes":"","Tide-Data":[{"uuid":"046ae1a7-9b4b-4df6-adb6-88dd1deeb474","name":"chiesa di san lorenzo","address":"via palazzo di citt\u00e0 4","locality":"Torino","region":"Torino","postcode":"10122","latitude":"45.07214765652043","longitude":"7.684828029828533","tel":"04361527","website":"http:\/\/www.sanlorenzo.torino.it","category_ids":["55"]}]},{"canonical_uuid":"05b35ad9-3526-40d1-8225-133b7545cfa0","nonDupes":"","Tide-Data":[{"uuid":"05b35ad9-3526-40d1-8225-133b7545cfa0","name":"orio al serio international airport","address":"via orio al serio 49","locality":"Orio al Serio","region":"Bergamo","postcode":"24050","latitude":"45.66549629762091","longitude":"9.699608304551836","tel":"035326323","website":"http:\/\/www.milanbergamoairport.it\/en\/","category_ids":["462"]}]},{"canonical_uuid":"0b3bd1ad-19a3-48db-b9cd-3630df95faef","nonDupes":"","Tide-Data":[{"uuid":"0b3bd1ad-19a3-48db-b9cd-3630df95faef","name":"ponte sant'angelo","address":"","locality":"Roma","region":"Roma","postcode":"00186","latitude":"41.901788","longitude":"12.466462","tel":"","website":null,"category_ids":["110"]}]},{"canonical_uuid":"0be70714-5f52-475e-8dd9-a7703cda58a6","nonDupes":"","Tide-Data":[{"uuid":"0be70714-5f52-475e-8dd9-a7703cda58a6","name":"galleria civica d\u2019arte moderna","address":"via magenta 31","locality":"Torino","region":"Torino","postcode":"10128","latitude":"45.06483480377924","longitude":"7.669184747840247","tel":"0114429518","website":"http:\/\/www.gamtorino.it","category_ids":["311"]}]},{"canonical_uuid":"0c121fa8-fb0c-45b6-af6a-b2e6cc0911fe","nonDupes":"","Tide-Data":[{"uuid":"0c121fa8-fb0c-45b6-af6a-b2e6cc0911fe","name":"campidoglio","address":"piazza del campidoglio","locality":"Roma","region":"Roma","postcode":"00186","latitude":"41.89329961326188","longitude":"12.482934447665981","tel":"060608","website":null,"category_ids":["110"]}]},{"canonical_uuid":"0ecad09c-ca8a-4102-bcad-663b3edd44d9","nonDupes":"","Tide-Data":[{"uuid":"0ecad09c-ca8a-4102-bcad-663b3edd44d9","name":"s. maria della spina","address":"","locality":"Pisa","region":"Pisa","postcode":"56126","latitude":"43.71522133885636","longitude":"10.396685857704197","tel":"0553215446","website":null,"category_ids":["55"]}]},{"canonical_uuid":"0f52bcd3-b1d4-429a-8721-734d655eed37","nonDupes":"","Tide-Data":[{"uuid":"0f52bcd3-b1d4-429a-8721-734d655eed37","name":"piazzetta umberto i","address":"piazza umberto i","locality":"Capri","region":"Napoli","postcode":"80073","latitude":"40.55091718456363","longitude":"14.242827203162527","tel":"","website":null,"category_ids":["110"]}]},{"canonical_uuid":"0f7b31d9-1890-4586-ac09-aeec02481ea2","nonDupes":"","Tide-Data":[{"uuid":"0f7b31d9-1890-4586-ac09-aeec02481ea2","name":"grotta azzurra","address":"","locality":"Anacapri","region":"Napoli","postcode":"80071","latitude":"40.56112554369398","longitude":"14.205824602650575","tel":"0818375308","website":"http:\/\/www.capritourism.com","category_ids":["112"]}]},{"canonical_uuid":"100e4c84-14bc-44c9-a552-25cc274db02e","nonDupes":"","Tide-Data":[{"uuid":"100e4c84-14bc-44c9-a552-25cc274db02e","name":"abbazia di sant'antimo","address":"localit\u00e0 sant'antimo","locality":"Montalcino","region":"Siena","postcode":"53024","latitude":"42.99961076548169","longitude":"11.515735050021123","tel":"0577286300","website":"http:\/\/www.antimo.it","category_ids":["110"]}]},{"canonical_uuid":"15420a91-383e-4657-a158-68c9510d2bc5","nonDupes":"","Tide-Data":[{"uuid":"15420a91-383e-4657-a158-68c9510d2bc5","name":"basilica di santa maria in cosmedin","address":"piazza della bocca della verit\u00e0 18","locality":"Roma","region":"Roma","postcode":"00186","latitude":"41.888091691967425","longitude":"12.481704550328203","tel":"066787759","website":"http:\/\/www.060608.it\/en\/cultura-e-svago\/luoghi-di-culto-di-interesse-storico-artistico\/chiese-cattoliche\/basilica-di-santa-maria-in-cosmedin.html","category_ids":["55"]}]},{"canonical_uuid":"16505295-0a57-4f3e-ba3b-ab44158bef1c","nonDupes":"","Tide-Data":[{"uuid":"16505295-0a57-4f3e-ba3b-ab44158bef1c","name":"aeroporto di alghero fertilia","address":"","locality":"Alghero","region":"Sassari","postcode":"07041","latitude":"40.63063787081031","longitude":"8.295537610414831","tel":"079935282","website":null,"category_ids":["462"]}]},{"canonical_uuid":"18e08fc9-3741-4504-95f1-7bef1433724f","nonDupes":"","Tide-Data":[{"uuid":"18e08fc9-3741-4504-95f1-7bef1433724f","name":"cuneo international airport","address":"strada regionale 20 1","locality":"Savigliano","region":"Cuneo","postcode":"12038","latitude":"44.54752855230628","longitude":"7.618562617136404","tel":"0172741500","website":"http:\/\/www.aeroporto.cuneo.it","category_ids":["425"]}]},{"canonical_uuid":"19207b50-a3e1-4df8-87a6-f60fa860a67e","nonDupes":"","Tide-Data":[{"uuid":"19207b50-a3e1-4df8-87a6-f60fa860a67e","name":"ricina","address":"","locality":"Macerata","region":"Macerata","postcode":"62100","latitude":"43.32801","longitude":"13.42306","tel":"0733492937","website":null,"category_ids":["110"]}]},{"canonical_uuid":"1b52b797-c404-4cc2-b4d2-77b42a1d7efd","nonDupes":"","Tide-Data":[{"uuid":"1b52b797-c404-4cc2-b4d2-77b42a1d7efd","name":"scuola di san giorgio degli schiavoni","address":"castello 3259a","locality":"Vicenza","region":"Venezia","postcode":"30122","latitude":"45.436226931176435","longitude":"12.345956549841086","tel":"0415228828","website":"http:\/\/www.scuoladalmatavenezia.com\/","category_ids":["108"]}]},{"canonical_uuid":"1ef655ab-2c86-47e7-9333-bf0eed4d10a8","nonDupes":"","Tide-Data":[{"uuid":"1ef655ab-2c86-47e7-9333-bf0eed4d10a8","name":"torre delle milizie","address":"salita del grillo 37","locality":"Roma","region":"Roma","postcode":"00187","latitude":"41.89596227342726","longitude":"12.486673876886272","tel":"","website":null,"category_ids":["110"]}]},{"canonical_uuid":"213ef7f2-b0c5-4b4c-8214-e9a0cc2a2074","nonDupes":"","Tide-Data":[{"uuid":"213ef7f2-b0c5-4b4c-8214-e9a0cc2a2074","name":"basilica di sant'apollinare nuovo","address":"via di roma 53","locality":"Sant'Agata sul Santerno","region":"Ravenna","postcode":"48020","latitude":"44.41675663652351","longitude":"12.20493142782432","tel":"0544541688","website":"http:\/\/www.ravennamosaici.it","category_ids":["55"]}]},{"canonical_uuid":"2326d5b9-272f-4f18-9a48-7fc02fe3a071","nonDupes":"","Tide-Data":[{"uuid":"2326d5b9-272f-4f18-9a48-7fc02fe3a071","name":"acquario di genova","address":"","locality":"Genova","region":"Genova","postcode":"16128","latitude":"44.41021337908088","longitude":"8.926291795524737","tel":"01023451","website":"http:\/\/www.acquariodigenova.it","category_ids":["371"]}]},{"canonical_uuid":"24ca2077-440b-4637-8587-e3456846ddb9","nonDupes":"","Tide-Data":[{"uuid":"24ca2077-440b-4637-8587-e3456846ddb9","name":"b&b la suite","address":"vico dei sospiri 9","locality":"Napoli","region":"Napoli","postcode":"80121","latitude":"40.834519","longitude":"14.240464","tel":"0817647932","website":"http:\/\/www.bblasuite.com","category_ids":["433"]}]},{"canonical_uuid":"24d6af55-0090-44a3-a29f-ffe6bf333038","nonDupes":"","Tide-Data":[{"uuid":"24d6af55-0090-44a3-a29f-ffe6bf333038","name":"milan\u2013malpensa airport","address":"","locality":"Ferno","region":"Varese","postcode":"21010","latitude":"45.6281270332458","longitude":"8.724042146275094","tel":"02232323","website":"https:\/\/www.airportmalpensa.com\/","category_ids":["462"]}]},{"canonical_uuid":"25179687-f0e3-4215-9693-e00159027cf7","nonDupes":"","Tide-Data":[{"uuid":"25179687-f0e3-4215-9693-e00159027cf7","name":"heraclea hotel residence","address":"via lido 100","locality":"Policoro","region":"Matera","postcode":"75025","latitude":"40.18924414218789","longitude":"16.712520891671574","tel":"0835910144","website":"http:\/\/www.hotelheraclea.com","category_ids":["436"]}]},{"canonical_uuid":"25e18afa-926b-4ed1-9d17-43dc329b9055","nonDupes":"","Tide-Data":[{"uuid":"25e18afa-926b-4ed1-9d17-43dc329b9055","name":"piazza venezia","address":"piazza venezia","locality":"Roma","region":"Roma","postcode":"00186","latitude":"41.895290404259406","longitude":"12.48223349075217","tel":"060608","website":"http:\/\/bit.ly\/PiazzaVeneziaRoma","category_ids":["110"]}]},{"canonical_uuid":"2604629b-e58c-4d1c-b39c-8e92f3c712f1","nonDupes":"","Tide-Data":[{"uuid":"2604629b-e58c-4d1c-b39c-8e92f3c712f1","name":"camposanto monumentale","address":"piazza duomo 17","locality":"Pisa","region":"Pisa","postcode":"56126","latitude":"43.72402332980446","longitude":"10.394904391059756","tel":"050835011","website":"http:\/\/www.opapisa.it","category_ids":["111"]}]},{"canonical_uuid":"267c12dd-1021-40c6-96dc-3699675d6b4c","nonDupes":"","Tide-Data":[{"uuid":"267c12dd-1021-40c6-96dc-3699675d6b4c","name":"juventus stadium","address":"corso gaetano scirea 50","locality":"Torino","region":"Torino","postcode":"10151","latitude":"45.10956987701837","longitude":"7.641268569100687","tel":"899999897","website":"http:\/\/www.juventus.com","category_ids":["406"]}]},{"canonical_uuid":"26cc498a-820b-4d20-bf4a-e324ff739201","nonDupes":"","Tide-Data":[{"uuid":"26cc498a-820b-4d20-bf4a-e324ff739201","name":"aeroporto internazionale lamezia terme","address":"via aeroporto","locality":"Lamezia Terme","region":"Catanzaro","postcode":"88046","latitude":"38.906731512994796","longitude":"16.243334944647266","tel":"0968414385","website":"https:\/\/lameziaairport.it","category_ids":["462"]}]},{"canonical_uuid":"276db725-ad88-4e64-992f-9b9af30f3d3f","nonDupes":"","Tide-Data":[{"uuid":"276db725-ad88-4e64-992f-9b9af30f3d3f","name":"basilica di superga","address":"strada basilica di superga 73","locality":"Torino","region":"Torino","postcode":"10132","latitude":"45.08084276235053","longitude":"7.768076434770783","tel":"0118997456","website":"http:\/\/www.basilicadisuperga.com","category_ids":["110"]}]},{"canonical_uuid":"28b673ed-a61b-4bcd-ac97-458f4a7bfe1f","nonDupes":"","Tide-Data":[{"uuid":"28b673ed-a61b-4bcd-ac97-458f4a7bfe1f","name":"villetta di negro","address":"piazzale giuseppe mazzini","locality":"Genova","region":"Genova","postcode":"16122","latitude":"44.41127013085792","longitude":"8.936444401630968","tel":"0105574741","website":"http:\/\/www.museidigenova.it","category_ids":["119"]}]},{"canonical_uuid":"2a26f269-2451-4dd0-87bd-f70211417102","nonDupes":"","Tide-Data":[{"uuid":"2a26f269-2451-4dd0-87bd-f70211417102","name":"palazzo della civilt\u00e0 del lavoro","address":"quadrato della concordia 3","locality":"Roma","region":"Roma","postcode":"00144","latitude":"41.83673375852251","longitude":"12.46532269016125","tel":"0633450970","website":null,"category_ids":["108","311"]}]},{"canonical_uuid":"2a9392ea-f863-456b-b3e9-28f17d13f7ee","nonDupes":"","Tide-Data":[{"uuid":"2a9392ea-f863-456b-b3e9-28f17d13f7ee","name":"teatro grande - scavi","address":"","locality":"Pompei","region":"Napoli","postcode":"80045","latitude":"40.74885874350545","longitude":"14.488345522557369","tel":"0815369869","website":null,"category_ids":["110"]}]},{"canonical_uuid":"2bec975e-f1da-4946-9a26-5b1a23707fdc","nonDupes":"","Tide-Data":[{"uuid":"2bec975e-f1da-4946-9a26-5b1a23707fdc","name":"piazza dei signori","address":"piazza dei signori","locality":"Verona","region":"Verona","postcode":"37121","latitude":"45.4434","longitude":"10.9988","tel":"0458068680","website":"http:\/\/www.turismoverona.eu\/nqcontent.cfm?a_id=35987","category_ids":["110"]}]},{"canonical_uuid":"2df4ed80-8f09-4471-ad84-274c19bc96a0","nonDupes":"","Tide-Data":[{"uuid":"2df4ed80-8f09-4471-ad84-274c19bc96a0","name":"principi di piemonte","address":"via piero gobetti 15","locality":"Torino","region":"Torino","postcode":"10123","latitude":"45.064994197159315","longitude":"7.681754200459852","tel":"055151","website":"http:\/\/www.atahotels.it\/hotel\/principi-di-piemonte\/","category_ids":["436"]}]},{"canonical_uuid":"2e9d9d55-42d4-47e2-8705-7f8d70f657ac","nonDupes":"","Tide-Data":[{"uuid":"2e9d9d55-42d4-47e2-8705-7f8d70f657ac","name":"ponte di rialto","address":"","locality":"Venezia","region":"Venezia","postcode":"30125","latitude":"45.43806230674328","longitude":"12.335912333469034","tel":"0412501801","website":"http:\/\/www.comune.venezia.it","category_ids":["108"]}]},{"canonical_uuid":"301ffb40-463f-45ea-9a9c-db3507c4258e","nonDupes":"","Tide-Data":[{"uuid":"301ffb40-463f-45ea-9a9c-db3507c4258e","name":"porta ercolano - scavi","address":"via consolare","locality":"Pompei","region":"Napoli","postcode":"80045","latitude":"40.75180111533972","longitude":"14.481198382284564","tel":"","website":"http:\/\/www.pompeiisites.org\/Sezione.jsp?titolo=Necropolis+of+Porta+Ercolano&idSezione=686","category_ids":["108"]}]},{"canonical_uuid":"30d01814-b123-4c45-bfb0-fd268b80d30b","nonDupes":"","Tide-Data":[{"uuid":"30d01814-b123-4c45-bfb0-fd268b80d30b","name":"museo archeologico nazionale delle marche","address":"via gabriele ferretti 1","locality":"Ancona","region":"Ancona","postcode":"60121","latitude":"43.6227103328684","longitude":"13.510629870637926","tel":"071202602","website":"http:\/\/www.archeomarche.beniculturali.it","category_ids":["311"]}]},{"canonical_uuid":"31546c68-7f7c-451e-bc8f-9fbe189db2a0","nonDupes":"","Tide-Data":[{"uuid":"31546c68-7f7c-451e-bc8f-9fbe189db2a0","name":"david inn","address":"via ricasoli 31 n","locality":"Firenze","region":"Firenze","postcode":"50122","latitude":"43.77615262423104","longitude":"11.257848741810893","tel":"055213707","website":null,"category_ids":["435"]}]},{"canonical_uuid":"31ceb9de-101d-444c-8ce1-6f28678cc84c","nonDupes":"","Tide-Data":[{"uuid":"31ceb9de-101d-444c-8ce1-6f28678cc84c","name":"galleria umberto i","address":"via san carlo 15","locality":"Napoli","region":"Napoli","postcode":"80132","latitude":"40.83844326370782","longitude":"14.249233796819516","tel":"0817951111","website":null,"category_ids":["108","169"]}]},{"canonical_uuid":"320131f7-f4a4-452d-b0d4-8c32d9266840","nonDupes":"","Tide-Data":[{"uuid":"320131f7-f4a4-452d-b0d4-8c32d9266840","name":"museo nazionale del cinema fondazione maria adriana prolo","address":"via montebello 20","locality":"Torino","region":"Torino","postcode":"10124","latitude":"45.06900865800587","longitude":"7.693267368412537","tel":"08138511","website":"http:\/\/www.museocinema.it","category_ids":["311"]}]},{"canonical_uuid":"35c3c438-f8d4-4381-8c0a-a4abae9b08f7","nonDupes":"","Tide-Data":[{"uuid":"35c3c438-f8d4-4381-8c0a-a4abae9b08f7","name":"piazza castello","address":"piazza castello","locality":"Torino","region":"Torino","postcode":"10123","latitude":"45.07135659806926","longitude":"7.685164370935615","tel":"0114361455","website":null,"category_ids":["108"]}]},{"canonical_uuid":"36e63255-ea2e-40e8-8a7c-715d99dddb72","nonDupes":"","Tide-Data":[{"uuid":"36e63255-ea2e-40e8-8a7c-715d99dddb72","name":"museo delle sinopie","address":"piazza duomo 17","locality":"Vicopisano","region":"Pisa","postcode":"56010","latitude":"43.722268674177556","longitude":"10.394830964487435","tel":"050835011","website":"http:\/\/www.opapisa.it","category_ids":["311"]}]},{"canonical_uuid":"38d7dc44-acbe-4774-aa29-fcd7aeea0f14","nonDupes":"","Tide-Data":[{"uuid":"38d7dc44-acbe-4774-aa29-fcd7aeea0f14","name":"duomo","address":"piazza duomo","locality":"Torino","region":"Torino","postcode":"10122","latitude":"45.073646","longitude":"7.684594","tel":"","website":"http:\/\/www.duomoditorino.it\/","category_ids":["55"]}]},{"canonical_uuid":"3944ac37-e081-4f7b-b862-aa6f91513be1","nonDupes":"","Tide-Data":[{"uuid":"3944ac37-e081-4f7b-b862-aa6f91513be1","name":"grand hotel tiziano e dei congressi","address":"viale porta d'europa","locality":"Lecce","region":"Lecce","postcode":"73100","latitude":"40.36128206072015","longitude":"18.168821632968765","tel":"0832272111","website":"http:\/\/www.grandhoteltiziano.it","category_ids":["436"]}]},{"canonical_uuid":"3eef7248-5b88-4f7c-89cd-eb7ea56224f1","nonDupes":"","Tide-Data":[{"uuid":"3eef7248-5b88-4f7c-89cd-eb7ea56224f1","name":"borgo egnazia","address":"","locality":"Fasano","region":"Brindisi","postcode":"72015","latitude":"40.87519260627768","longitude":"17.395873271793864","tel":"0802255000","website":"http:\/\/borgoegnazia.com","category_ids":["436"]}]},{"canonical_uuid":"3ff8cf36-dd95-4d77-92d3-21d3a5a23d18","nonDupes":"","Tide-Data":[{"uuid":"3ff8cf36-dd95-4d77-92d3-21d3a5a23d18","name":"chiesa di san cataldo","address":"via matteo bonello 2","locality":"Palermo","region":"Palermo","postcode":"90134","latitude":"38.11475393656691","longitude":"13.362481677876705","tel":"0916077111","website":"http:\/\/www.diocesipa.it\/","category_ids":["55"]}]},{"canonical_uuid":"4097e684-a705-45e8-b84d-49e125988d03","nonDupes":"","Tide-Data":[{"uuid":"4097e684-a705-45e8-b84d-49e125988d03","name":"verona villafranca airport","address":"","locality":"Sommacampagna","region":"Verona","postcode":"37066","latitude":"45.402826344844776","longitude":"10.906844064937886","tel":"0458095666","website":"http:\/\/www.aeroportoverona.it","category_ids":["425"]}]},{"canonical_uuid":"418875f2-04a0-4f59-85ea-689c6ada1115","nonDupes":"","Tide-Data":[{"uuid":"418875f2-04a0-4f59-85ea-689c6ada1115","name":"gole di alcantara","address":"via nazionale 5","locality":"Motta Camastra","region":"Messina","postcode":"98030","latitude":"37.87864379229031","longitude":"15.175420691843808","tel":"0942985010","website":"http:\/\/www.golealcantara.it\/","category_ids":["112"]}]},{"canonical_uuid":"432f7a8d-7a27-4177-821a-82d04a59ce6c","nonDupes":"","Tide-Data":[{"uuid":"432f7a8d-7a27-4177-821a-82d04a59ce6c","name":"foro triangolare - scavi","address":"","locality":"Pompei","region":"Napoli","postcode":"80045","latitude":"40.74825027745986","longitude":"14.486566086010773","tel":"","website":null,"category_ids":["110"]}]},{"canonical_uuid":"458a5f40-c236-4231-9a7a-645af9a60dc7","nonDupes":"","Tide-Data":[{"uuid":"458a5f40-c236-4231-9a7a-645af9a60dc7","name":"palazzo reale di napoli","address":"piazza del plebiscito 1","locality":"Napoli","region":"Napoli","postcode":"80132","latitude":"40.836535","longitude":"14.250441","tel":"0815808111","website":"http:\/\/palazzorealenapoli.it","category_ids":["110"]}]},{"canonical_uuid":"49889620-997e-4b18-9d66-e40e4310e419","nonDupes":"","Tide-Data":[{"uuid":"49889620-997e-4b18-9d66-e40e4310e419","name":"castello sforzesco","address":"piazza castello","locality":"Milano","region":"Milano","postcode":"20121","latitude":"45.47067543298964","longitude":"9.179001500386304","tel":"0288463700","website":"http:\/\/www.milanocastello.it","category_ids":["311"]}]},{"canonical_uuid":"4c2cf957-6c2c-4d4b-8a85-bde54304ef4a","nonDupes":"","Tide-Data":[{"uuid":"4c2cf957-6c2c-4d4b-8a85-bde54304ef4a","name":"san donato","address":"via san donato 10","locality":"Genova","region":"Genova","postcode":"16123","latitude":"44.40595307717713","longitude":"8.931506648089504","tel":"0102468869","website":"http:\/\/www.sandonato.org\/","category_ids":["55"]}]},{"canonical_uuid":"4d48343e-0607-42f2-80bc-6cafdf1e3f82","nonDupes":"","Tide-Data":[{"uuid":"4d48343e-0607-42f2-80bc-6cafdf1e3f82","name":"discoteca belvedere","address":"localit\u00e0 pocol 38","locality":"Cortina d'Ampezzo","region":"Belluno","postcode":"32043","latitude":"46.52516111273099","longitude":"12.117481424684797","tel":"3332793363","website":"http:\/\/www.belvederecortina.com","category_ids":["334"]}]},{"canonical_uuid":"4e6240ac-dd56-4659-86f8-045505cedb32","nonDupes":"","Tide-Data":[{"uuid":"4e6240ac-dd56-4659-86f8-045505cedb32","name":"aeroporto di parma","address":"via licinio ferretti 50a","locality":"Parma","region":"Parma","postcode":"43126","latitude":"44.82141000333207","longitude":"10.297579028537431","tel":"05219515","website":"http:\/\/www.parma-airport.it","category_ids":["425"]}]},{"canonical_uuid":"4e981151-996b-4a73-bd51-df358478764a","nonDupes":"","Tide-Data":[{"uuid":"4e981151-996b-4a73-bd51-df358478764a","name":"bologna guglielmo marconi airport","address":"via del triumvirato 84","locality":"Bologna","region":"Bologna","postcode":"40132","latitude":"44.53440227465088","longitude":"11.28880838697208","tel":"0516479615","website":"http:\/\/www.bologna-airport.it","category_ids":["462"]}]},{"canonical_uuid":"4efb3059-11b9-435f-91c3-f1f92ebae090","nonDupes":"","Tide-Data":[{"uuid":"4efb3059-11b9-435f-91c3-f1f92ebae090","name":"museo nazionale di castel sant'angelo","address":"lungotevere castello 50","locality":"Roma","region":"Roma","postcode":"00193","latitude":"41.90308082562007","longitude":"12.46633695969595","tel":"066896003","website":"http:\/\/castelsantangelo.beniculturali.it\/","category_ids":["311"]}]},{"canonical_uuid":"50e1d2dc-8e17-4bea-918e-fe7005b3c189","nonDupes":"","Tide-Data":[{"uuid":"50e1d2dc-8e17-4bea-918e-fe7005b3c189","name":"basilica s. maria assunta","address":"piazza pecori 2","locality":"San Gimignano","region":"Siena","postcode":"53037","latitude":"43.467605","longitude":"11.042519","tel":"0577940316","website":null,"category_ids":["55"]}]},{"canonical_uuid":"51853db8-a273-47f8-bb7e-51058e292992","nonDupes":"","Tide-Data":[{"uuid":"51853db8-a273-47f8-bb7e-51058e292992","name":"badia vecchia - badiazza","address":"via piazza cappuccini","locality":"Taormina","region":"Messina","postcode":"98039","latitude":"37.855206997440085","longitude":"15.287963141152199","tel":"","website":null,"category_ids":["111"]}]},{"canonical_uuid":"535825f1-3188-4a9f-825f-db77bcd7dedf","nonDupes":"","Tide-Data":[{"uuid":"535825f1-3188-4a9f-825f-db77bcd7dedf","name":"aeroporto di capodichino","address":"","locality":"Napoli","region":"Napoli","postcode":"80144","latitude":"40.87750657989188","longitude":"14.282705220437153","tel":"0817896111","website":"http:\/\/www.gesac.it","category_ids":["462"]}]},{"canonical_uuid":"536b0a3f-ab0b-4796-b6e6-7a0bf5c807c4","nonDupes":"","Tide-Data":[{"uuid":"536b0a3f-ab0b-4796-b6e6-7a0bf5c807c4","name":"piazza san marco","address":"piazza san marco","locality":"Venezia","region":"Venezia","postcode":"30100","latitude":"45.4340596103497","longitude":"12.338681571237519","tel":"0417241040","website":null,"category_ids":["110"]}]},{"canonical_uuid":"53c89f70-80a4-40c4-9c2a-f0b138668cc6","nonDupes":"","Tide-Data":[{"uuid":"53c89f70-80a4-40c4-9c2a-f0b138668cc6","name":"aeroporto d'abruzzo","address":"via tiburtina km 229.100","locality":"Pescara","region":"Pescara","postcode":"65131","latitude":"42.431672","longitude":"14.185202","tel":"8958989512","website":"http:\/\/www.abruzzoairport.com\/","category_ids":["462"]}]},{"canonical_uuid":"558ec0ee-3f65-4671-8aec-6a8a3b51f6f9","nonDupes":"","Tide-Data":[{"uuid":"558ec0ee-3f65-4671-8aec-6a8a3b51f6f9","name":"cagliari elmas airport","address":"via dei trasvolatori","locality":"Diamante","region":"Cagliari","postcode":"09030","latitude":"39.25391626114676","longitude":"9.060298631032925","tel":"070211211","website":"http:\/\/www.sogaer.it","category_ids":["425"]}]},{"canonical_uuid":"55978d4c-a058-4348-9fb5-047ba90f830c","nonDupes":"","Tide-Data":[{"uuid":"55978d4c-a058-4348-9fb5-047ba90f830c","name":"pisa international airport","address":"piazzale d'ascanio 1","locality":"Pisa","region":"Pisa","postcode":"56121","latitude":"43.69832613380951","longitude":"10.400127132787654","tel":"050849111","website":"http:\/\/www.pisa-airport.com","category_ids":["425"]}]},{"canonical_uuid":"559fcf6d-8d04-4753-9655-8691ad1682f9","nonDupes":"","Tide-Data":[{"uuid":"559fcf6d-8d04-4753-9655-8691ad1682f9","name":"pantheon","address":"piazza della rotonda","locality":"Roma","region":"Roma","postcode":"00186","latitude":"41.898613927794344","longitude":"12.47687651888188","tel":"0668300230","website":"http:\/\/www.polomusealelazio.beniculturali.it\/index.php?it\/232\/pantheon","category_ids":["111"]}]},{"canonical_uuid":"58500f20-b758-41ee-8bbf-1e2c7b6cb372","nonDupes":"","Tide-Data":[{"uuid":"58500f20-b758-41ee-8bbf-1e2c7b6cb372","name":"aeroporto dello stretto","address":"via ravagnese 11","locality":"Reggio Calabria","region":"Reggio Calabria","postcode":"89131","latitude":"38.071944","longitude":"15.653333","tel":"0965640517","website":"http:\/\/www.aeroportodellostretto.it\/","category_ids":["425"]}]},{"canonical_uuid":"59b356b3-da08-40b7-b369-b28d79a79492","nonDupes":"","Tide-Data":[{"uuid":"59b356b3-da08-40b7-b369-b28d79a79492","name":"duomo di milano","address":"piazza del duomo","locality":"Milano","region":"Milano","postcode":"20122","latitude":"45.464188406280535","longitude":"9.191566047297634","tel":"0272022656","website":"http:\/\/www.duomomilano.it","category_ids":["108"]}]},{"canonical_uuid":"5cc79d4e-fd29-46a5-8370-35c834dda2c9","nonDupes":"","Tide-Data":[{"uuid":"5cc79d4e-fd29-46a5-8370-35c834dda2c9","name":"palazzo carignano","address":"via accademia delle scienze 5","locality":"Torino","region":"Torino","postcode":"10123","latitude":"45.068949446874356","longitude":"7.6856546168731095","tel":"05641711","website":"http:\/\/polomusealepiemonte.beniculturali.it","category_ids":["110","311"]}]},{"canonical_uuid":"5f3cf58d-2c73-4078-b391-7309f4567e2f","nonDupes":"","Tide-Data":[{"uuid":"5f3cf58d-2c73-4078-b391-7309f4567e2f","name":"san piero a grado","address":"via vecchia di marina 5","locality":"Vicopisano","region":"Pisa","postcode":"56010","latitude":"43.679698911949544","longitude":"10.34681873623966","tel":"050960065","website":null,"category_ids":["55"]}]},{"canonical_uuid":"5f6c3b2c-6a99-495e-8f4a-fd89aa98ca48","nonDupes":"","Tide-Data":[{"uuid":"5f6c3b2c-6a99-495e-8f4a-fd89aa98ca48","name":"san geremia","address":"campo s. geremia 334","locality":"Venezia","region":"Venezia","postcode":"30121","latitude":"45.443287360050654","longitude":"12.324549162845209","tel":"","website":null,"category_ids":["55"]}]},{"canonical_uuid":"6005ebbe-bd2e-4b0f-8175-c282806c7038","nonDupes":"","Tide-Data":[{"uuid":"6005ebbe-bd2e-4b0f-8175-c282806c7038","name":"piccolo teatro grassi","address":"via rovello 2","locality":"Milano","region":"Milano","postcode":"20121","latitude":"45.46659294509646","longitude":"9.185083822735585","tel":"0242411889","website":"http:\/\/www.piccoloteatro.org\/","category_ids":["333"]}]},{"canonical_uuid":"636a70a2-7249-464e-825e-1c616fbb93ff","nonDupes":"","Tide-Data":[{"uuid":"636a70a2-7249-464e-825e-1c616fbb93ff","name":"la cattedrale di san rufino","address":"piazza san rufino 3","locality":"Assisi","region":"Perugia","postcode":"06081","latitude":"43.07033523995771","longitude":"12.617771940480834","tel":"075812712","website":"http:\/\/www.assisimuseodiocesano.it\/","category_ids":["55","311"]}]},{"canonical_uuid":"63e2d2df-5134-4640-96a7-b6f5d6df3e0a","nonDupes":"","Tide-Data":[{"uuid":"63e2d2df-5134-4640-96a7-b6f5d6df3e0a","name":"da gelsomina","address":"via migliara 72","locality":"Anacapri","region":"Napoli","postcode":"80071","latitude":"40.54080649395585","longitude":"14.210050549832225","tel":"0818371499","website":"http:\/\/www.dagelsomina.com","category_ids":["433","436"]}]},{"canonical_uuid":"641fe4d5-0adf-4f89-a671-774f1b797519","nonDupes":"","Tide-Data":[{"uuid":"641fe4d5-0adf-4f89-a671-774f1b797519","name":"museo nazionale di s. matteo","address":"piazza s. matteo in soarta 1","locality":"Pisa","region":"Pisa","postcode":"56126","latitude":"43.714635868378174","longitude":"10.407897106307471","tel":"050541865","website":"http:\/\/www.grafica.arti.beniculturali.it","category_ids":["311"]}]},{"canonical_uuid":"65a608b7-2a8a-431e-8a91-8e89ef2e915c","nonDupes":"","Tide-Data":[{"uuid":"65a608b7-2a8a-431e-8a91-8e89ef2e915c","name":"fiumicino \u2013 leonardo da vinci international airport","address":"via dell'aeroporto di fiumicino 320","locality":"Fiumicino","region":"Roma","postcode":"00054","latitude":"41.795107727369384","longitude":"12.254300916546903","tel":"0665951","website":"http:\/\/www.adr.it\/fiumicino","category_ids":["425"]}]},{"canonical_uuid":"665669d5-72d8-467f-9e48-80bc3a8a489a","nonDupes":"","Tide-Data":[{"uuid":"665669d5-72d8-467f-9e48-80bc3a8a489a","name":"aeroporto di crotone s. anna","address":"strada statale 106","locality":"Isola di Capo Rizzuto","region":"Crotone","postcode":"88841","latitude":"38.995311","longitude":"17.079504","tel":"0962794388","website":"http:\/\/www.aeroporto.kr.it\/","category_ids":["425"]}]},{"canonical_uuid":"6bd6509d-ce81-4805-9e55-5a7e124131ec","nonDupes":"","Tide-Data":[{"uuid":"6bd6509d-ce81-4805-9e55-5a7e124131ec","name":"battistero di san giovanni","address":"piazza di san giovanni","locality":"Firenze","region":"Firenze","postcode":"50122","latitude":"43.723284291887516","longitude":"10.394182628522227","tel":"0552302885","website":"http:\/\/www.opapisa.it","category_ids":["108"]}]},{"canonical_uuid":"6eb8a9c7-0876-4924-b9ff-635e5328b1ea","nonDupes":"","Tide-Data":[{"uuid":"6eb8a9c7-0876-4924-b9ff-635e5328b1ea","name":"villa di giulia felice - scavi","address":"","locality":"Pompei","region":"Napoli","postcode":"80045","latitude":"40.75184880630661","longitude":"14.493371333773505","tel":"","website":null,"category_ids":["110"]}]},{"canonical_uuid":"6fb0c38b-2d93-460f-a0d3-7bffa3c4f1ab","nonDupes":"","Tide-Data":[{"uuid":"6fb0c38b-2d93-460f-a0d3-7bffa3c4f1ab","name":"zattere","address":"campo santa agnese, dorsoduro 809","locality":"Venezia","region":"Venezia","postcode":"30123","latitude":"45.429954088339535","longitude":"12.324501946316582","tel":"","website":"http:\/\/www.officinadellezattere.it\/","category_ids":["117"]}]},{"canonical_uuid":"70b084d5-47b7-4ab0-8b7c-5adc6fde1c48","nonDupes":"","Tide-Data":[{"uuid":"70b084d5-47b7-4ab0-8b7c-5adc6fde1c48","name":"tempio di giove - scavi","address":"via degli augustali","locality":"Pompei","region":"Napoli","postcode":"80045","latitude":"40.74920545399606","longitude":"14.488650796770095","tel":"","website":"http:\/\/www.pompeiisites.org\/Sezione.jsp?titolo=Tempio+di+Giove+(VII,8,1)&idSezione=133","category_ids":["110"]}]},{"canonical_uuid":"7102080e-eb32-4fbe-9bcb-8e1221c298ea","nonDupes":"","Tide-Data":[{"uuid":"7102080e-eb32-4fbe-9bcb-8e1221c298ea","name":"torre di mercurio","address":"via di mercurio","locality":"Pompei","region":"Napoli","postcode":"80045","latitude":"40.75276649383866","longitude":"14.482851495625415","tel":"","website":"http:\/\/viaggi.michelin.it\/web\/destinazione\/Italia-Italia_Centro_Sud-Napoli_e_la_Campania-Pompei\/sito-Torre_di_Mercurio-v_i_Mercurio","category_ids":["110"]}]},{"canonical_uuid":"72687d26-77c4-4453-886a-26a607e19b1a","nonDupes":"","Tide-Data":[{"uuid":"72687d26-77c4-4453-886a-26a607e19b1a","name":"hotel piazza di spagna","address":"via mario d\u00e8 fiori 61","locality":"Roma","region":"Roma","postcode":"00187","latitude":"41.90619237824162","longitude":"12.48092795439905","tel":"066796412","website":null,"category_ids":["436"]}]},{"canonical_uuid":"726a467b-622e-45ba-8436-a561e35fea1c","nonDupes":"","Tide-Data":[{"uuid":"726a467b-622e-45ba-8436-a561e35fea1c","name":"castello normanno-svevo","address":"piazza federico ii di svevia","locality":"Cosenza","region":"Cosenza","postcode":"87100","latitude":"39.2864062719024","longitude":"16.257546020512027","tel":"098427485","website":"http:\/\/www.castellocosenza.it","category_ids":["110"]}]},{"canonical_uuid":"7349966c-9084-462e-98f0-adbdb47679f0","nonDupes":"","Tide-Data":[{"uuid":"7349966c-9084-462e-98f0-adbdb47679f0","name":"palazzo reale di torino","address":"piazzetta reale 1","locality":"Torino","region":"Torino","postcode":"10122","latitude":"45.072834","longitude":"7.686332","tel":"04361455","website":"http:\/\/www.ilpalazzorealeditorino.it","category_ids":["311"]}]},{"canonical_uuid":"73761b1d-2cbf-4d21-8a5a-b426cfe80b13","nonDupes":"","Tide-Data":[{"uuid":"73761b1d-2cbf-4d21-8a5a-b426cfe80b13","name":"eremo delle carceri","address":"via eremo delle carceri 1a","locality":"Assisi","region":"Perugia","postcode":"06081","latitude":"43.06305251641615","longitude":"12.652128386412953","tel":"075812301","website":"https:\/\/www.assisiofm.it\/eremo-delle-carceri-assisi-103-1.html","category_ids":["55"]}]},{"canonical_uuid":"770d13b8-a067-4c39-bbd6-8ec9ec135ce3","nonDupes":"","Tide-Data":[{"uuid":"770d13b8-a067-4c39-bbd6-8ec9ec135ce3","name":"reggia di venaria reale","address":"piazza della repubblica 4","locality":"Venaria Reale","region":"Torino","postcode":"10078","latitude":"45.13558028367006","longitude":"7.623819985879562","tel":"0114992333","website":"http:\/\/www.lavenaria.it","category_ids":["108","311"]}]},{"canonical_uuid":"77612a18-cd7d-4e22-8a90-463634c79621","nonDupes":"","Tide-Data":[{"uuid":"77612a18-cd7d-4e22-8a90-463634c79621","name":"terme di caracalla","address":"viale delle terme di caracalla 52","locality":"Roma","region":"Roma","postcode":"00153","latitude":"41.879049407186535","longitude":"12.492617708503557","tel":"0639967700","website":"http:\/\/www.archeorm.arti.beniculturali.it\/siti-archeologici\/terme-caracalla","category_ids":["110"]}]},{"canonical_uuid":"7878917e-c180-42de-a672-6a58398639c2","nonDupes":"","Tide-Data":[{"uuid":"7878917e-c180-42de-a672-6a58398639c2","name":"curia julia","address":"via sacra 1","locality":"Roma","region":"Roma","postcode":"00186","latitude":"41.89295375760887","longitude":"12.485396425496674","tel":"","website":null,"category_ids":["110"]}]},{"canonical_uuid":"7bc20bca-f778-4db6-a6cd-b51795e5fed0","nonDupes":"","Tide-Data":[{"uuid":"7bc20bca-f778-4db6-a6cd-b51795e5fed0","name":"palazzo rucellai","address":"via della vigna nuova 18","locality":"Firenze","region":"Firenze","postcode":"50123","latitude":"43.771266974409066","longitude":"11.249527752880148","tel":"","website":"http:\/\/isiflorence.org\/about\/facilities\/palazzo-rucellai-piano-nobile\/","category_ids":["110"]}]},{"canonical_uuid":"7bf67009-9fc9-4a86-b6cd-6cdabc03c568","nonDupes":"","Tide-Data":[{"uuid":"7bf67009-9fc9-4a86-b6cd-6cdabc03c568","name":"oratorio del rosario di san domenico","address":"via dei bambinai 18","locality":"Palermo","region":"Palermo","postcode":"90133","latitude":"38.11970244145533","longitude":"13.364006091673264","tel":"091332779","website":"http:\/\/www.ilgeniodipalermo.com\/itinerari\/il-circuito-del-sacro\/oratorio-ss-rosario-in-s-domenico.html","category_ids":["110"]}]},{"canonical_uuid":"7eeecc7b-d18e-409d-a93c-4a18e1841b4b","nonDupes":"","Tide-Data":[{"uuid":"7eeecc7b-d18e-409d-a93c-4a18e1841b4b","name":"aeroporto di pantelleria","address":"contrada margana","locality":"Pantelleria","region":"Trapani","postcode":"91017","latitude":"36.815033","longitude":"11.967049","tel":"0923911398","website":"http:\/\/www.aeroportodipantelleria.it\/","category_ids":["425"]}]},{"canonical_uuid":"7f5bf76f-00ae-4c06-8049-bc049e54ec99","nonDupes":"","Tide-Data":[{"uuid":"7f5bf76f-00ae-4c06-8049-bc049e54ec99","name":"colonna traiana","address":"via dei fori imperiali","locality":"Roma","region":"Roma","postcode":"00187","latitude":"41.89582158824449","longitude":"12.48426407575582","tel":"","website":"http:\/\/www.060608.it\/it\/cultura-e-svago\/beni-culturali\/beni-archeologici\/colonna-traiana.html","category_ids":["111"]}]},{"canonical_uuid":"804e0534-8e9c-4592-998f-e1cc1e323664","nonDupes":"","Tide-Data":[{"uuid":"804e0534-8e9c-4592-998f-e1cc1e323664","name":"aeroporto di milano linate","address":"viale enrico forlanini","locality":"Segrate","region":"Milano","postcode":"20090","latitude":"45.452176","longitude":"9.276308","tel":"02232323","website":"http:\/\/milanolinate-airport.com","category_ids":["462"]}]},{"canonical_uuid":"83272f0c-688e-4fd3-a7f1-6c6afcf24ee7","nonDupes":"","Tide-Data":[{"uuid":"83272f0c-688e-4fd3-a7f1-6c6afcf24ee7","name":"aeroporto di brescia - montichiari","address":"via aeroporto 34","locality":"Montichiari","region":"Brescia","postcode":"25018","latitude":"45.425581","longitude":"10.327008","tel":"0458095666","website":"http:\/\/www.aeroportobrescia.it","category_ids":["425"]}]},{"canonical_uuid":"8499bd88-a155-4bcc-9543-a272ee0a9d5d","nonDupes":"","Tide-Data":[{"uuid":"8499bd88-a155-4bcc-9543-a272ee0a9d5d","name":"basilica di san giovanni in laterano","address":"piazza di san giovanni in laterano 4","locality":"Roma","region":"Roma","postcode":"00184","latitude":"41.8858869832485","longitude":"12.505605359815362","tel":"0669886433","website":null,"category_ids":["55"]}]},{"canonical_uuid":"859d9c62-0ab1-491b-afe5-6da082da8733","nonDupes":"","Tide-Data":[{"uuid":"859d9c62-0ab1-491b-afe5-6da082da8733","name":"aeroporto di treviso","address":"via noalese 63e","locality":"Treviso","region":"Treviso","postcode":"31100","latitude":"45.65474802678302","longitude":"12.204680836907077","tel":"0422315111","website":"http:\/\/www.trevisoairport.it","category_ids":["425"]}]},{"canonical_uuid":"87d05af0-b657-462d-9255-3ca856b65989","nonDupes":"","Tide-Data":[{"uuid":"87d05af0-b657-462d-9255-3ca856b65989","name":"galleria sabauda","address":"piazzetta reale 1","locality":"Torino","region":"Torino","postcode":"10122","latitude":"45.07412753716404","longitude":"7.686155764171746","tel":"0115211106","website":"https:\/\/www.museireali.beniculturali.it\/","category_ids":["310","311"]}]},{"canonical_uuid":"88d2fd15-9f87-47d8-9ff9-6c4ec6095008","nonDupes":"","Tide-Data":[{"uuid":"88d2fd15-9f87-47d8-9ff9-6c4ec6095008","name":"fiera milano","address":"strada statale del sempione 28","locality":"Rho","region":"Milano","postcode":"20017","latitude":"45.52010276483259","longitude":"9.07905809905704","tel":"800820029","website":"http:\/\/www.fieramilano.it","category_ids":["108","333"]}]},{"canonical_uuid":"898d26e1-dc1d-4e82-9712-12a624fea93a","nonDupes":"","Tide-Data":[{"uuid":"898d26e1-dc1d-4e82-9712-12a624fea93a","name":"chiesa dei santi giovanni e reparata","address":"piazza san giovanni","locality":"Lucca","region":"Lucca","postcode":"55100","latitude":"43.841357876145985","longitude":"10.503672730717152","tel":"0583480530","website":"http:\/\/comune.lucca.it","category_ids":["55"]}]},{"canonical_uuid":"8a371e90-417d-4317-b1cc-e0575ebf2126","nonDupes":"","Tide-Data":[{"uuid":"8a371e90-417d-4317-b1cc-e0575ebf2126","name":"giardino della villa di castello","address":"via di castello 47","locality":"Firenze","region":"Firenze","postcode":"50141","latitude":"43.819739045271305","longitude":"11.228498317410489","tel":"055452691","website":"http:\/\/www.polomusealetoscana.beniculturali.it\/index.php?it\/174\/firenze-giardino-della-villa-di-castello","category_ids":["108"]}]},{"canonical_uuid":"8af36feb-78eb-491a-ac96-07ae7d33a3ce","nonDupes":"","Tide-Data":[{"uuid":"8af36feb-78eb-491a-ac96-07ae7d33a3ce","name":"museo archeologico regionale","address":"contrada san nicola 12","locality":"Agrigento","region":"Agrigento","postcode":"92100","latitude":"37.29695435230294","longitude":"13.589084727194559","tel":"0922401565","website":"http:\/\/www.regione.sicilia.it\/","category_ids":["311"]}]},{"canonical_uuid":"8bed8d3e-5c42-4005-ba56-97628f99a414","nonDupes":"","Tide-Data":[{"uuid":"8bed8d3e-5c42-4005-ba56-97628f99a414","name":"palazzo piccolomini","address":"","locality":"Siena","region":"Siena","postcode":"53100","latitude":"43.3189020008656","longitude":"11.332839936223166","tel":"057740563","website":null,"category_ids":["110"]}]},{"canonical_uuid":"8cc5fe7e-a7b9-44a3-befa-10f4961dc101","nonDupes":"","Tide-Data":[{"uuid":"8cc5fe7e-a7b9-44a3-befa-10f4961dc101","name":"cattedrale di santa maria del fiore","address":"piazza del duomo","locality":"Firenze","region":"Firenze","postcode":"50122","latitude":"43.773128048503516","longitude":"11.256621504619915","tel":"0552302885","website":"http:\/\/ilgrandemuseodelduomo.it\/#cattedrale","category_ids":["55","110"]}]},{"canonical_uuid":"8d2dea4d-f8fa-4f53-91f1-354124c4d91f","nonDupes":"","Tide-Data":[{"uuid":"8d2dea4d-f8fa-4f53-91f1-354124c4d91f","name":"museo delle porcellane","address":"piazza de pitti","locality":"Firenze","region":"Firenze","postcode":"50125","latitude":"43.76190010885828","longitude":"11.252412216388251","tel":"0552388709","website":"http:\/\/www.polomuseale.firenze.it\/musei\/?m=porcellane","category_ids":["311"]}]},{"canonical_uuid":"8d89508e-a62f-4dfb-a97d-681c2a9ff52a","nonDupes":"","Tide-Data":[{"uuid":"8d89508e-a62f-4dfb-a97d-681c2a9ff52a","name":"cattedrale di santa maria","address":"piazza duomo","locality":"Alghero","region":"Sassari","postcode":"07041","latitude":"40.559096","longitude":"8.312667","tel":"079979222","website":"http:\/\/www.diocesialghero-bosa.it","category_ids":["55"]}]},{"canonical_uuid":"8f045adc-0db0-4f09-9034-591ac0a77257","nonDupes":"","Tide-Data":[{"uuid":"8f045adc-0db0-4f09-9034-591ac0a77257","name":"castel nuovo","address":"via vittorio emanuele iii","locality":"Napoli","region":"Napoli","postcode":"80133","latitude":"40.838344291905024","longitude":"14.253358504380092","tel":"0817957722","website":"http:\/\/www.comune.napoli.it","category_ids":["110"]}]},{"canonical_uuid":"91196666-2200-4deb-a8b6-01073919a663","nonDupes":"","Tide-Data":[{"uuid":"91196666-2200-4deb-a8b6-01073919a663","name":"scuola grande di san rocco","address":"san polo 3052","locality":"Venezia","region":"Venezia","postcode":"30125","latitude":"45.436533773922356","longitude":"12.325302402437408","tel":"0415234864","website":"http:\/\/www.scuolagrandesanrocco.it","category_ids":["110","311"]}]},{"canonical_uuid":"91297002-4f75-472e-b763-bc068e31b9e5","nonDupes":"","Tide-Data":[{"uuid":"91297002-4f75-472e-b763-bc068e31b9e5","name":"trieste \u2013 friuli venezia giulia airport","address":"via aquileia 46","locality":"Ronchi dei Legionari","region":"Gorizia","postcode":"34077","latitude":"45.82134598048973","longitude":"13.485385227395259","tel":"0481773224","website":"https:\/\/triesteairport.it\/it\/airport\/","category_ids":["425"]}]},{"canonical_uuid":"915d10af-f747-475c-bfd2-f46dafb03e7a","nonDupes":"","Tide-Data":[{"uuid":"915d10af-f747-475c-bfd2-f46dafb03e7a","name":"aeroporto elba marina di campo","address":"via dell'aeroporto 208","locality":"Campo nell'Elba","region":"Livorno","postcode":"57034","latitude":"42.761462","longitude":"10.239621","tel":"0565976011","website":"http:\/\/www.elbaisland-airport.it\/","category_ids":["425"]}]},{"canonical_uuid":"9206ae0c-d809-4068-b59d-6acbb29c77a5","nonDupes":"","Tide-Data":[{"uuid":"9206ae0c-d809-4068-b59d-6acbb29c77a5","name":"galleria civica d'arte moderna empedocle restivo","address":"via sant'anna 21","locality":"Palermo","region":"Palermo","postcode":"90135","latitude":"38.11799225622383","longitude":"13.340377864155295","tel":"0918431605","website":"http:\/\/www.galleriadartemodernapalermo.it","category_ids":["310"]}]},{"canonical_uuid":"922520bf-cacf-4296-b8cb-351de282409d","nonDupes":"","Tide-Data":[{"uuid":"922520bf-cacf-4296-b8cb-351de282409d","name":"aeroporto di ancona-falconara","address":"piazzale sordoni","locality":"Falconara Marittima","region":"Ancona","postcode":"60015","latitude":"43.61526062972748","longitude":"13.36185183411955","tel":"07128271","website":"http:\/\/www.ancona-airport.com","category_ids":["425"]}]},{"canonical_uuid":"939a718b-fa89-4f13-8fb3-81e584d89b7b","nonDupes":"","Tide-Data":[{"uuid":"939a718b-fa89-4f13-8fb3-81e584d89b7b","name":"piazza della cisterna","address":"piazza della cisterna","locality":"San Gimignano","region":"Siena","postcode":"53037","latitude":"43.46741089851884","longitude":"11.043684274601494","tel":"0577940328","website":"http:\/\/www.hotelcisterna.it\/","category_ids":["110"]}]},{"canonical_uuid":"94ba0049-7bec-4e01-8536-3a7c8989c8a0","nonDupes":"","Tide-Data":[{"uuid":"94ba0049-7bec-4e01-8536-3a7c8989c8a0","name":"musei vaticani","address":"viale vaticano","locality":"Roma","region":"Roma","postcode":"00165","latitude":"41.904520278947516","longitude":"12.454771182031829","tel":"0669884676","website":"http:\/\/www.museivaticani.va\/","category_ids":["311"]}]},{"canonical_uuid":"95f356db-01bd-436d-80ee-dd4b9bab2a79","nonDupes":"","Tide-Data":[{"uuid":"95f356db-01bd-436d-80ee-dd4b9bab2a79","name":"foro romano","address":"via della salaria vecchia 5","locality":"Roma","region":"Roma","postcode":"00186","latitude":"41.89240170904846","longitude":"12.485109437567464","tel":"060608","website":null,"category_ids":["110"]}]},{"canonical_uuid":"99968bd8-c5f2-4828-a063-8c7089589ffe","nonDupes":"","Tide-Data":[{"uuid":"99968bd8-c5f2-4828-a063-8c7089589ffe","name":"palazzo vecchio","address":"piazza della signoria","locality":"Firenze","region":"Firenze","postcode":"50122","latitude":"43.76970197195922","longitude":"11.255871314407374","tel":"0552768325","website":"http:\/\/museicivicifiorentini.comune.fi.it\/palazzovecchio","category_ids":["311"]}]},{"canonical_uuid":"a3bf8229-ddad-4fc3-acb8-428986b2e869","nonDupes":"","Tide-Data":[{"uuid":"a3bf8229-ddad-4fc3-acb8-428986b2e869","name":"battistero neoniano","address":"piazza duomo 1","locality":"Ravenna","region":"Ravenna","postcode":"48121","latitude":"44.415624309254746","longitude":"12.197301639611181","tel":"0544541688","website":"http:\/\/www.ravennamosaici.it\/?page_id=29","category_ids":["53"]}]},{"canonical_uuid":"a5711af0-01a7-4924-b430-21909215ec77","nonDupes":"","Tide-Data":[{"uuid":"a5711af0-01a7-4924-b430-21909215ec77","name":"palazzo della cancelleria","address":"piazza della cancelleria 68","locality":"Roma","region":"Roma","postcode":"00186","latitude":"41.89669140113536","longitude":"12.471610173339995","tel":"0669887616","website":null,"category_ids":["110"]}]},{"canonical_uuid":"a68beff6-f227-4559-aeed-fc7073c96bc3","nonDupes":"","Tide-Data":[{"uuid":"a68beff6-f227-4559-aeed-fc7073c96bc3","name":"villa borghese","address":"piazzale napoleone i","locality":"Roma","region":"Roma","postcode":"00197","latitude":"41.9131459659223","longitude":"12.483342850487803","tel":"060608","website":"http:\/\/www.sovraintendenzaroma.it\/i_luoghi\/ville_e_parchi_storici\/ville_dei_nobili\/villa_borghese","category_ids":["109"]}]},{"canonical_uuid":"a7793761-573f-479e-bf3a-af019d4059b0","nonDupes":"","Tide-Data":[{"uuid":"a7793761-573f-479e-bf3a-af019d4059b0","name":"valle dei templi","address":"strada panoramica dei templi","locality":"Agrigento","region":"Agrigento","postcode":"92100","latitude":"37.29087716875601","longitude":"13.584298865320685","tel":"0922621657","website":null,"category_ids":["110"]}]},{"canonical_uuid":"a8766e86-ceb3-43bf-8a4c-a9a5589b14e9","nonDupes":"","Tide-Data":[{"uuid":"a8766e86-ceb3-43bf-8a4c-a9a5589b14e9","name":"mausoleo di teodorico","address":"via delle industrie 14","locality":"Ravenna","region":"Ravenna","postcode":"48122","latitude":"44.425044526083234","longitude":"12.20913758651724","tel":"0544543710","website":"http:\/\/www.polomusealeemiliaromagna.beniculturali.it\/musei\/mausoleo-di-teodorico","category_ids":["111"]}]},{"canonical_uuid":"a95d9b22-8e61-463f-ac5d-55e05d82127f","nonDupes":"","Tide-Data":[{"uuid":"a95d9b22-8e61-463f-ac5d-55e05d82127f","name":"bastione di santa caterina","address":"via san giuseppe","locality":"Cagliari","region":"Cagliari","postcode":"09124","latitude":"39.21673320173957","longitude":"9.116468383185769","tel":"","website":"http:\/\/www.cagliariturismo.it\/it\/luoghi\/i-luoghi-della-storia-316\/monumenti-80\/bastione-di-santa-caterina-280","category_ids":["108"]}]},{"canonical_uuid":"a999690f-8f92-487e-9f4b-c5e9d6d21f52","nonDupes":"","Tide-Data":[{"uuid":"a999690f-8f92-487e-9f4b-c5e9d6d21f52","name":"aeroporto di firenze, peretola","address":"via del termine 11","locality":"Firenze","region":"Firenze","postcode":"50127","latitude":"43.802529968017275","longitude":"11.201342149162542","tel":"05530615","website":"http:\/\/www.aeroporto.firenze.it","category_ids":["425"]}]},{"canonical_uuid":"abc5a182-fb17-406c-8a34-635220edcf9c","nonDupes":"","Tide-Data":[{"uuid":"abc5a182-fb17-406c-8a34-635220edcf9c","name":"cattedrale di bari","address":"piazza dell'odegitria 1","locality":"Bari","region":"Bari","postcode":"70122","latitude":"41.128545192279105","longitude":"16.86907938811076","tel":"0805210605","website":"http:\/\/www.arcidiocesibaribitonto.it\/luoghi-di-culto\/cattedrale\/view","category_ids":["55"]}]},{"canonical_uuid":"aca15a5a-bbbd-4ad9-a37a-dc59b6a1630e","nonDupes":"","Tide-Data":[{"uuid":"aca15a5a-bbbd-4ad9-a37a-dc59b6a1630e","name":"cenacolo vinciano","address":"piazza santa maria delle grazie 2","locality":"Milano","region":"Milano","postcode":"20123","latitude":"45.465975459702975","longitude":"9.17113953456583","tel":"0292800360","website":"http:\/\/www.cenacolovinciano.net","category_ids":["311"]}]},{"canonical_uuid":"adaebb3e-1810-4920-885d-99f3f4a1dc8e","nonDupes":"","Tide-Data":[{"uuid":"adaebb3e-1810-4920-885d-99f3f4a1dc8e","name":"biblioteca nazionale universitaria di torino","address":"piazza carlo alberto 3","locality":"Torino","region":"Torino","postcode":"10123","latitude":"45.06838620271174","longitude":"7.687107574200212","tel":"0118101111","website":"http:\/\/www.bnto.librari.beniculturali.it","category_ids":["44"]}]},{"canonical_uuid":"ae2708d5-9cb3-45a1-8ca6-2815b485cc32","nonDupes":"","Tide-Data":[{"uuid":"ae2708d5-9cb3-45a1-8ca6-2815b485cc32","name":"palazzo pubblico","address":"piazza del campo 1","locality":"Siena","region":"Siena","postcode":"53100","latitude":"43.31803111144794","longitude":"11.332044618119975","tel":"0577292111","website":null,"category_ids":["110"]}]},{"canonical_uuid":"b38962b4-8222-4da7-ae14-e0060d17ffa9","nonDupes":"","Tide-Data":[{"uuid":"b38962b4-8222-4da7-ae14-e0060d17ffa9","name":"aeroporto marco polo di venezia","address":"viale g. galilei 30","locality":"Venezia","region":"Venezia","postcode":"30173","latitude":"45.50481279450948","longitude":"12.340260220522403","tel":"0412609260","website":"http:\/\/www.veniceairport.it","category_ids":["462"]}]},{"canonical_uuid":"b569a807-b81a-41db-bcf7-d2331dd19e80","nonDupes":"","Tide-Data":[{"uuid":"b569a807-b81a-41db-bcf7-d2331dd19e80","name":"nazionale ferroviario di pietrarsa","address":"","locality":"Napoli","region":"Napoli","postcode":"80146","latitude":"40.82199307232635","longitude":"14.32010019324266","tel":"081472003","website":"http:\/\/www.museodipietrarsa.it","category_ids":["311"]}]},{"canonical_uuid":"b6904939-42a7-4dd6-8b5f-990adbc290aa","nonDupes":"","Tide-Data":[{"uuid":"b6904939-42a7-4dd6-8b5f-990adbc290aa","name":"piazza della signoria","address":"","locality":"Firenze","region":"Firenze","postcode":"50122","latitude":"43.76968006994381","longitude":"11.255876559610513","tel":"01087284615","website":null,"category_ids":["110"]}]},{"canonical_uuid":"b6a384a8-7ba5-4be6-abb8-1904c21449ee","nonDupes":"","Tide-Data":[{"uuid":"b6a384a8-7ba5-4be6-abb8-1904c21449ee","name":"anfiteatro romano","address":"","locality":"Siracusa","region":"Siracusa","postcode":"96100","latitude":"37.07405434129549","longitude":"15.27893430269187","tel":"","website":null,"category_ids":["108"]}]},{"canonical_uuid":"b8478fe3-64cc-42b2-8342-48be08e236f6","nonDupes":"","Tide-Data":[{"uuid":"b8478fe3-64cc-42b2-8342-48be08e236f6","name":"palazzo dell'ufficio geologico","address":"largo s. susanna","locality":"Roma","region":"Roma","postcode":"00187","latitude":"41.90504426593165","longitude":"12.493907194907136","tel":"","website":null,"category_ids":["108"]}]},{"canonical_uuid":"b94e8984-a475-44c7-a564-1671c4d35822","nonDupes":"","Tide-Data":[{"uuid":"b94e8984-a475-44c7-a564-1671c4d35822","name":"basilica di massenzio","address":"","locality":"Roma","region":"Roma","postcode":"00184","latitude":"41.89199581036664","longitude":"12.488307215974523","tel":"060608","website":"http:\/\/www.turismoroma.it\/cosa-fare\/basilica-di-massenzio","category_ids":["110"]}]},{"canonical_uuid":"bc0bf2be-79cb-47aa-b61f-f0140beeb525","nonDupes":"","Tide-Data":[{"uuid":"bc0bf2be-79cb-47aa-b61f-f0140beeb525","name":"parco del valentino","address":"corso massimo d'azeglio","locality":"Torino","region":"Torino","postcode":"10126","latitude":"45.05306479409423","longitude":"7.685918159176655","tel":"","website":"http:\/\/www.comune.torino.it\/verdepubblico\/patrimonioverde\/parchi-giardini\/valentino\/valentino.shtml","category_ids":["122"]}]},{"canonical_uuid":"bfcf83c6-95ea-416c-b125-07297130d85f","nonDupes":"","Tide-Data":[{"uuid":"bfcf83c6-95ea-416c-b125-07297130d85f","name":"piazza delle erbe","address":"piazza delle erbe","locality":"Verona","region":"Verona","postcode":"37121","latitude":"45.442989565604236","longitude":"10.997241726919276","tel":"0459273027","website":null,"category_ids":["107"]}]},{"canonical_uuid":"c2340d85-4d3f-4ced-853f-bee0ba117fe1","nonDupes":"","Tide-Data":[{"uuid":"c2340d85-4d3f-4ced-853f-bee0ba117fe1","name":"aeroporto di lampedusa","address":"contrada cala francese","locality":"Lampedusa e Linosa","region":"Agrigento","postcode":"92010","latitude":"35.498818","longitude":"12.61748","tel":"0922970731","website":"http:\/\/www.aeroportodilampedusa.com","category_ids":["425"]}]},{"canonical_uuid":"c35cbe3a-e72f-41dc-958b-817572b05ed5","nonDupes":"","Tide-Data":[{"uuid":"c35cbe3a-e72f-41dc-958b-817572b05ed5","name":"aeroporto di genova","address":"via pionieri e aviatori d'italia","locality":"Genova","region":"Genova","postcode":"16154","latitude":"44.413962","longitude":"8.846528","tel":"01060151","website":"http:\/\/www.airport.genova.it\/","category_ids":["425"]}]},{"canonical_uuid":"c4e1fe33-1f0a-49b6-bc2b-ed7d08eff3d6","nonDupes":"","Tide-Data":[{"uuid":"c4e1fe33-1f0a-49b6-bc2b-ed7d08eff3d6","name":"porta soprana o urbica di sant'andrea","address":"via di porta soprana","locality":"Genova","region":"Genova","postcode":"16123","latitude":"44.40553212067966","longitude":"8.934483436131963","tel":"0102465346","website":"http:\/\/www.coopculture.it\/heritage.cfm?id=174","category_ids":["111"]}]},{"canonical_uuid":"c5e59331-9ee4-483f-8ecd-99b81ce4059a","nonDupes":"","Tide-Data":[{"uuid":"c5e59331-9ee4-483f-8ecd-99b81ce4059a","name":"museo civico filangeri palazzo cuomo","address":"via duomo 288","locality":"Napoli","region":"Napoli","postcode":"80138","latitude":"40.848922678602385","longitude":"14.260779235009723","tel":"081203175","website":"https:\/\/www.museofilangieri.org","category_ids":["311"]}]},{"canonical_uuid":"c734a052-7e12-4123-8d89-a004f6933340","nonDupes":"","Tide-Data":[{"uuid":"c734a052-7e12-4123-8d89-a004f6933340","name":"aeroporto olbia costa smeralda","address":"","locality":"Olbia","region":"Olbia-Tempio","postcode":"07026","latitude":"40.900928","longitude":"9.515127","tel":"0789563444","website":"http:\/\/www.geasar.it\/eng\/airport","category_ids":["462"]}]},{"canonical_uuid":"c9b65b3c-5e9c-4f38-86ba-1643fcbc4f92","nonDupes":"","Tide-Data":[{"uuid":"c9b65b3c-5e9c-4f38-86ba-1643fcbc4f92","name":"bocca della verit\u00e0","address":"piazza della bocca della verit\u00e0 18","locality":"Roma","region":"Roma","postcode":"00186","latitude":"41.88793800460396","longitude":"12.48153654979811","tel":"060608","website":"http:\/\/www.turismoroma.it\/cosa-fare\/bocca-della-verita","category_ids":["111"]}]},{"canonical_uuid":"c9c3477b-256d-4098-a965-2d756146a9e4","nonDupes":"","Tide-Data":[{"uuid":"c9c3477b-256d-4098-a965-2d756146a9e4","name":"chiesa di santa maria della vittoria","address":"via xx settembre 17","locality":"Roma","region":"Roma","postcode":"00187","latitude":"41.90477582244878","longitude":"12.494221277970508","tel":"0642740571","website":"http:\/\/www.chiesasantamariavittoriaroma.it","category_ids":["55"]}]},{"canonical_uuid":"cac4ed66-4044-4e1a-b2d2-8b42d46d6a1f","nonDupes":"","Tide-Data":[{"uuid":"cac4ed66-4044-4e1a-b2d2-8b42d46d6a1f","name":"federico fellini international airport","address":"via flaminia 409","locality":"Rimini","region":"Rimini","postcode":"47924","latitude":"44.022667595834804","longitude":"12.619292935060596","tel":"0541379800","website":"http:\/\/www.riminiairport.com","category_ids":["462"]}]},{"canonical_uuid":"cb0d934f-496b-41a2-ad65-888a5d413ebc","nonDupes":"","Tide-Data":[{"uuid":"cb0d934f-496b-41a2-ad65-888a5d413ebc","name":"pasticceria castelvecchio","address":"corso castelvecchio 21","locality":"Verona","region":"Verona","postcode":"37121","latitude":"45.43897471803114","longitude":"10.987396455352455","tel":"045595817","website":null,"category_ids":["343"]}]},{"canonical_uuid":"cbacb45c-aa76-40dc-a1f4-7f63a1e9015d","nonDupes":"","Tide-Data":[{"uuid":"cbacb45c-aa76-40dc-a1f4-7f63a1e9015d","name":"largo di torre argentina","address":"largo di torre argentina","locality":"Roma","region":"Roma","postcode":"00186","latitude":"41.895407","longitude":"12.47686","tel":"","website":"http:\/\/www.turismoroma.it\/cosa-fare\/teatro-argentina?lang=en","category_ids":["110"]}]},{"canonical_uuid":"ce11d613-74c6-40af-9df3-5cb500e9ec40","nonDupes":"","Tide-Data":[{"uuid":"ce11d613-74c6-40af-9df3-5cb500e9ec40","name":"aeroporto di roma-ciampino","address":"via appia nuova 1651","locality":"Ciampino","region":"Roma","postcode":"00040","latitude":"41.799343","longitude":"12.59001","tel":"0665951","website":"http:\/\/www.adr.it\/ciampino","category_ids":["462"]}]},{"canonical_uuid":"d23c1d16-07f3-476b-ab81-615a63abd82b","nonDupes":"","Tide-Data":[{"uuid":"d23c1d16-07f3-476b-ab81-615a63abd82b","name":"orto botanico di palermo","address":"via lincoln 2","locality":"Palermo","region":"Palermo","postcode":"90133","latitude":"38.11149617612858","longitude":"13.373933379014895","tel":"09123891236","website":"http:\/\/www.ortobotanico.unipa.it\/","category_ids":["109"]}]},{"canonical_uuid":"d5445399-b9e0-4460-9acd-de54881dde55","nonDupes":"","Tide-Data":[{"uuid":"d5445399-b9e0-4460-9acd-de54881dde55","name":"palazzo ciampoli","address":"","locality":"Taormina","region":"Messina","postcode":"98039","latitude":"37.851366830448896","longitude":"15.284361775635743","tel":"","website":null,"category_ids":["110"]}]},{"canonical_uuid":"d5860183-71e2-4a69-944a-8422c3cc9532","nonDupes":"","Tide-Data":[{"uuid":"d5860183-71e2-4a69-944a-8422c3cc9532","name":"chiesa di santa maria della catena","address":"piazzetta delle dogane","locality":"Palermo","region":"Palermo","postcode":"90133","latitude":"38.11919206168865","longitude":"13.369571974475488","tel":"0916077111","website":null,"category_ids":["55"]}]},{"canonical_uuid":"d7738e31-61e3-4845-9b8c-8141357b4275","nonDupes":"","Tide-Data":[{"uuid":"d7738e31-61e3-4845-9b8c-8141357b4275","name":"aeroporto del salento","address":"contrada baroncino","locality":"Brindisi","region":"Brindisi","postcode":"72100","latitude":"40.66108202711101","longitude":"17.941151408566725","tel":"08314117447","website":"http:\/\/www.aeroportidipuglia.it\/default.asp?idlingua=1&idcontenuto=29&page=Seap+Brindisi","category_ids":["425"]}]},{"canonical_uuid":"da2ea017-ae3b-4ccd-8312-37d58e4fb330","nonDupes":"","Tide-Data":[{"uuid":"da2ea017-ae3b-4ccd-8312-37d58e4fb330","name":"tempio della concordia - valle dei templi","address":"strada panoramica dei templi","locality":"Agrigento","region":"Agrigento","postcode":"92100","latitude":"37.28968950840831","longitude":"13.592073335689218","tel":"0922621611","website":null,"category_ids":["110"]}]},{"canonical_uuid":"dba2c0f4-f57f-4d9f-9844-721dad811cba","nonDupes":"","Tide-Data":[{"uuid":"dba2c0f4-f57f-4d9f-9844-721dad811cba","name":"campeggio torre pendente","address":"viale delle cascine 86","locality":"Pisa","region":"Pisa","postcode":"56122","latitude":"43.72439017543943","longitude":"10.382697811836294","tel":"050561704","website":"http:\/\/www.campingtorrependente.it","category_ids":["388"]}]},{"canonical_uuid":"dc04fd8f-1021-4f89-b2c1-69ac43319ba0","nonDupes":"","Tide-Data":[{"uuid":"dc04fd8f-1021-4f89-b2c1-69ac43319ba0","name":"aeroporto internazionale di bari-karol wojtyla","address":"viale enzo ferrari","locality":"Bari","region":"Bari","postcode":"70128","latitude":"41.137508","longitude":"16.765202","tel":"0805800200","website":"http:\/\/www.aeroportidipuglia.it\/","category_ids":["425"]}]},{"canonical_uuid":"dcfaf29b-1def-46a4-af6d-17440a2c1031","nonDupes":"","Tide-Data":[{"uuid":"dcfaf29b-1def-46a4-af6d-17440a2c1031","name":"parco della favorita","address":"viale diana","locality":"Palermo","region":"Palermo","postcode":"90146","latitude":"38.16304342143503","longitude":"13.340180375350712","tel":"0917401111","website":"http:\/\/www.parcodellafavorita.it\/storia_parco_favorita.html","category_ids":["119"]}]},{"canonical_uuid":"dd95c8ea-0bcc-4fb0-a791-093da5f779fa","nonDupes":"","Tide-Data":[{"uuid":"dd95c8ea-0bcc-4fb0-a791-093da5f779fa","name":"museo archeologico nazionale di firenze","address":"piazza della santissima annunziata 9","locality":"Firenze","region":"Firenze","postcode":"50121","latitude":"43.775809749636394","longitude":"11.26316932642974","tel":"05523575","website":"http:\/\/www.archeotoscana.beniculturali.it\/index.php?it\/146\/firenze-museo-archeologico-nazionale","category_ids":["311"]}]},{"canonical_uuid":"dda809a5-5a9b-4061-82bc-64eb116c7d3a","nonDupes":"","Tide-Data":[{"uuid":"dda809a5-5a9b-4061-82bc-64eb116c7d3a","name":"casa di livia - palatino","address":"via di san gregorio on the palatino","locality":"Roma","region":"Roma","postcode":"00186","latitude":"41.88923093531783","longitude":"12.485718493540496","tel":"06699841","website":null,"category_ids":["110"]}]},{"canonical_uuid":"de58059b-f92f-4c40-8034-086101680569","nonDupes":"","Tide-Data":[{"uuid":"de58059b-f92f-4c40-8034-086101680569","name":"basilica di santa sabina all'aventino","address":"piazza pietro d'illiria 1","locality":"Roma","region":"Roma","postcode":"00153","latitude":"41.884521545708346","longitude":"12.47984014471693","tel":"06579401","website":"http:\/\/www.060608.it\/it\/cultura-e-svago\/luoghi-di-culto-di-interesse-storico-artistico\/cattolici\/santa-sabina-all-aventino.html","category_ids":["55"]}]},{"canonical_uuid":"e061c145-143b-43df-a9ac-dfc2c7e52f8c","nonDupes":"","Tide-Data":[{"uuid":"e061c145-143b-43df-a9ac-dfc2c7e52f8c","name":"colonna di foca - fori romani","address":"via dei fori imperiali","locality":"Roma","region":"Roma","postcode":"00186","latitude":"41.89241058627426","longitude":"12.485106937614427","tel":"0639967700","website":"http:\/\/archeoroma.beniculturali.it","category_ids":["111"]}]},{"canonical_uuid":"e4bd5218-32e2-47e4-bea0-0c1eb78a5a98","nonDupes":"","Tide-Data":[{"uuid":"e4bd5218-32e2-47e4-bea0-0c1eb78a5a98","name":"ponte dei sospiri","address":"piazza san marco 1","locality":"Venezia","region":"Venezia","postcode":"30100","latitude":"45.43411319564657","longitude":"12.340842992839454","tel":"0412715911","website":"http:\/\/palazzoducale.visitmuve.it","category_ids":["110"]}]},{"canonical_uuid":"e65b072b-8d24-49e2-aebc-ca4e2ab75ba5","nonDupes":"","Tide-Data":[{"uuid":"e65b072b-8d24-49e2-aebc-ca4e2ab75ba5","name":"s. fermo maggiore","address":"corte s. elena piazza duomo 35","locality":"Verona","region":"Fermo","postcode":"37121","latitude":"45.439199422089715","longitude":"11.000041434630276","tel":"045592813","website":"http:\/\/www.museosanfermo-verona.it\/","category_ids":["55"]}]},{"canonical_uuid":"e774e517-6452-41a7-aff0-7f348a2c395e","nonDupes":"","Tide-Data":[{"uuid":"e774e517-6452-41a7-aff0-7f348a2c395e","name":"foro di nerva","address":"via dei fori imperiali","locality":"Roma","region":"Roma","postcode":"00184","latitude":"41.89305689620506","longitude":"12.486402770780295","tel":"060608","website":null,"category_ids":["313"]}]},{"canonical_uuid":"e8d333bc-dfad-470e-94e6-5e7856bf5631","nonDupes":"","Tide-Data":[{"uuid":"e8d333bc-dfad-470e-94e6-5e7856bf5631","name":"aeroporto di comiso","address":"strada provinciale","locality":"Comiso","region":"Ragusa","postcode":"97013","latitude":"36.997419","longitude":"14.607433","tel":"0932961467","website":"http:\/\/www.aeroportodicomiso.com\/","category_ids":["425"]}]},{"canonical_uuid":"e996c134-623e-4e7c-808c-1a71e2295830","nonDupes":"","Tide-Data":[{"uuid":"e996c134-623e-4e7c-808c-1a71e2295830","name":"cattedrale di cagliari","address":"piazza palazzo 4","locality":"Cagliari","region":"Cagliari","postcode":"09124","latitude":"39.218727674195335","longitude":"9.116865176628908","tel":"070663837","website":"http:\/\/www.duomodicagliari.it","category_ids":["55"]}]},{"canonical_uuid":"e9ca64ea-384b-4cde-a917-232696eada6a","nonDupes":"","Tide-Data":[{"uuid":"e9ca64ea-384b-4cde-a917-232696eada6a","name":"studio aesse di angelo siclari - consulenze demaniali marittime","address":"via xxv aprile 59","locality":"Santa Margherita Ligure","region":"Genova","postcode":"16038","latitude":"44.335221385912526","longitude":"9.210168208112083","tel":"3286998353","website":null,"category_ids":["108"]}]},{"canonical_uuid":"eaa63c63-4f76-4f8e-9922-bf1605b82473","nonDupes":"","Tide-Data":[{"uuid":"eaa63c63-4f76-4f8e-9922-bf1605b82473","name":"fori imperiali","address":"via madonna dei monti 96","locality":"Roma","region":"Roma","postcode":"00186","latitude":"41.892843142000494","longitude":"12.486245830657621","tel":"3391852600","website":"http:\/\/www.archeorm.arti.beniculturali.it","category_ids":["426"]}]},{"canonical_uuid":"edd415f2-304d-41a6-a566-c324c95835b4","nonDupes":"","Tide-Data":[{"uuid":"edd415f2-304d-41a6-a566-c324c95835b4","name":"basilica di san nicola a tolentino","address":"piazza san nicola","locality":"Tolentino","region":"Macerata","postcode":"62029","latitude":"43.20822724769247","longitude":"13.285805103355843","tel":"0733976311","website":"http:\/\/www.sannicoladatolentino.it","category_ids":["110"]}]},{"canonical_uuid":"eeacaf6d-7462-4b0e-9096-f5098855dcac","nonDupes":"","Tide-Data":[{"uuid":"eeacaf6d-7462-4b0e-9096-f5098855dcac","name":"museo dell'automobile di torino","address":"corso unit\u00e0 d'italia 40","locality":"Torino","region":"Torino","postcode":"10126","latitude":"45.031918173869315","longitude":"7.673520006089602","tel":"0677666","website":"http:\/\/www.museoauto.it","category_ids":["311"]}]},{"canonical_uuid":"f14823c2-f420-47ed-a10d-7dac1067ac0d","nonDupes":"","Tide-Data":[{"uuid":"f14823c2-f420-47ed-a10d-7dac1067ac0d","name":"aeroporto di catania-fontanarossa","address":"via fontanarossa","locality":"Catania","region":"Catania","postcode":"95121","latitude":"37.467305","longitude":"15.065775","tel":"0957239111","website":null,"category_ids":["425"]}]},{"canonical_uuid":"f2c4ef86-0757-4060-87c0-4bf6cb5de0cb","nonDupes":"","Tide-Data":[{"uuid":"f2c4ef86-0757-4060-87c0-4bf6cb5de0cb","name":"church of santa maria dei miracoli","address":"campo dei miracoli cannaregio 6074","locality":"Venezia","region":"Venezia","postcode":"30131","latitude":"45.439498471177316","longitude":"12.339242885373318","tel":"0412750462","website":"http:\/\/www.chorusvenezia.org","category_ids":["55"]}]},{"canonical_uuid":"f3952b68-36ac-4f46-8e74-d45221cbaf20","nonDupes":"","Tide-Data":[{"uuid":"f3952b68-36ac-4f46-8e74-d45221cbaf20","name":"basilica palladiana","address":"piazza dei signori","locality":"Vicenza","region":"Vicenza","postcode":"36100","latitude":"45.54705443647794","longitude":"11.546843882703094","tel":"0444222850","website":"http:\/\/www.museicivicivicenza.it","category_ids":["110"]}]},{"canonical_uuid":"f8679c83-dddc-4b29-a2c8-58c5a5b377b3","nonDupes":"","Tide-Data":[{"uuid":"f8679c83-dddc-4b29-a2c8-58c5a5b377b3","name":"basilica di santa maria della salute","address":"dorsoduro 1","locality":"Venezia","region":"Venezia","postcode":"30123","latitude":"45.43059785609765","longitude":"12.33472602855276","tel":"0412743928","website":"http:\/\/basilicasalutevenezia.it\/la-basilica\/","category_ids":["55"]}]},{"canonical_uuid":"f917ba2e-e0ca-4018-bc3a-e228bd9fa5e0","nonDupes":"","Tide-Data":[{"uuid":"f917ba2e-e0ca-4018-bc3a-e228bd9fa5e0","name":"teatro greco","address":"viale paradiso","locality":"Siracusa","region":"Siracusa","postcode":"96100","latitude":"37.07588479847246","longitude":"15.275173386278269","tel":"0931489511","website":"http:\/\/www.comune.siracusa.it\/index.php\/it\/itinerari-turistici-a-siracusa\/297-itinerario-archeologico\/teatro-greco","category_ids":["333"]}]},{"canonical_uuid":"f9e034f0-fdd5-4a24-b32c-2a0564802de0","nonDupes":"","Tide-Data":[{"uuid":"f9e034f0-fdd5-4a24-b32c-2a0564802de0","name":"costiera amalfitana","address":"","locality":"Amalfi","region":"Salerno","postcode":"84011","latitude":"40.63253311919187","longitude":"14.60090796398255","tel":"","website":null,"category_ids":["113"]}]},{"canonical_uuid":"f9efc902-f97a-480e-b5cd-9d8a1e5a7f6e","nonDupes":"","Tide-Data":[{"uuid":"f9efc902-f97a-480e-b5cd-9d8a1e5a7f6e","name":"galleria doria pamphilj","address":"via del corso 305","locality":"Roma","region":"Roma","postcode":"00186","latitude":"41.89764567711215","longitude":"12.4811354312831","tel":"066797323","website":"http:\/\/www.dopart.it","category_ids":["311"]}]},{"canonical_uuid":"fc54df1f-6609-455d-9a83-ffe18411db86","nonDupes":"","Tide-Data":[{"uuid":"fc54df1f-6609-455d-9a83-ffe18411db86","name":"palazzo agostini","address":"lungarno antonio pacinotti 26","locality":"Pisa","region":"Pisa","postcode":"56125","latitude":"43.71898187043537","longitude":"10.40341733567073","tel":"3496811415","website":null,"category_ids":["110"]}]},{"canonical_uuid":"fd77dbfb-7a76-452c-979f-78217ac79836","nonDupes":"","Tide-Data":[{"uuid":"fd77dbfb-7a76-452c-979f-78217ac79836","name":"basilica giulia","address":"","locality":"Roma","region":"Roma","postcode":"00186","latitude":"41.89203960220553","longitude":"12.484599582111104","tel":"","website":null,"category_ids":["110"]}]},{"canonical_uuid":"fd7cf359-d9ba-436e-bd54-be80bbebd6ef","nonDupes":"","Tide-Data":[{"uuid":"fd7cf359-d9ba-436e-bd54-be80bbebd6ef","name":"piazza del popolo","address":"piazza del popolo","locality":"Roma","region":"Roma","postcode":"00187","latitude":"41.910714660975096","longitude":"12.476366323961535","tel":"","website":"http:\/\/www.turismoroma.it\/cosa-fare\/piazza-del-popolo","category_ids":["110"]}]},{"canonical_uuid":"fec2d05d-976d-41f6-ad0f-40641ceb85a9","nonDupes":"","Tide-Data":[{"uuid":"fec2d05d-976d-41f6-ad0f-40641ceb85a9","name":"aeroporto di bolzano","address":"via aeroporto francesco baracca 1","locality":"Bolzano","region":"Bolzano","postcode":"39100","latitude":"46.461641","longitude":"11.328239","tel":"0471255255","website":"http:\/\/www.abd-airport.it\/","category_ids":["425"]}]},{"canonical_uuid":"fedad4f2-9d6d-40e0-a4cb-b3df0e3ffbcb","nonDupes":"","Tide-Data":[{"uuid":"fedad4f2-9d6d-40e0-a4cb-b3df0e3ffbcb","name":"saint louis des fran\u00e7ais","address":"piazza di s. luigi de\u2019 francesi","locality":"Roma","region":"Roma","postcode":"00186","latitude":"41.899599771229994","longitude":"12.474538469029127","tel":"06688271","website":"http:\/\/saintlouis-rome.net","category_ids":["55"]}]}]